     4.01           OBSERVATION DATA    M                   RINEX VERSION / TYPE
GnssLogger          samsung 13          20250503 091302 UTC PGM / RUN BY / DATE
Google GnssLogger                                           MARKER NAME
Unknown                                                     MARKER NUMBER
Unknown             Unknown                                 OBSERVER / AGENCY
Unknown             GnssLogger          v3.1.0.4            REC # / TYPE / VERS
Unknown             Unknown                                 ANT # / TYPE
        0.0000        0.0000        0.0000                  ANTENNA: DELTA H/E/N
G    4 C1C D1C S1C L1C                                      SYS / # / OBS TYPES
R    4 C1C D1C S1C L1C                                      SYS / # / OBS TYPES
C    4 C2C D2C S2C L2C                                      SYS / # / OBS TYPES
  2025    05    03    09    13   02.0000000     GPS         TIME OF FIRST OBS
 3 R09 -2 R10 -7 R19  3                                     GLONASS SLOT / FRQ #
samsung SM-A515F (Android 13) HW Year: 2016 HW Model:       COMMENT
S.LSI,K102                                                  COMMENT
                                                            END OF HEADER
> 2025 05 03 09 13 02.9999998  0 17                      
G26  20555206.02728      -255.15428        49.40028
G16  21751247.82426      1461.83626        39.70026
G05  23521793.30127     -1960.74727        42.00027
G23  24007005.29626      2093.24626        39.30026
G18  20651964.04326      -745.07326        38.50026
G29  22202162.06327     -3628.19527        44.50027
G25  24526129.21426     -4838.04026        38.80026
G28  23573517.39325     -4625.76125        30.60025
G31  22285036.39024     -3738.53624        24.70024
C26  22656868.67627      -279.68527        42.50027
R09  20347073.91426     -4295.70126        39.40026
C08  38618526.05126      -879.26526        36.60026
C29  22067006.62927     -2723.18727        43.00027
C13  38302252.80226      -380.28326        36.50026
R19  21472443.53726     -4699.73426        35.50026
C30  26257572.76125     -4186.28625        32.90025
C35  22412716.49925       480.16525        30.80025
> 2025 05 03 09 13 03.9999998  0 17                      
G26  20555016.85828      -256.30928        49.40028      -249.68028
G16  21750731.88226      1459.83626        41.10026      1466.36726
G05  23521932.10527     -1963.55327        41.80027     -1956.76327
G23  24006366.73826      2091.16226        39.30026      2097.57326
G18  20651865.11126      -745.78526        38.50026      -739.19326
G25  24526811.84126     -4839.49826        38.60026     -4833.15326
G29  22202609.95327     -3630.13227        43.20027     -3623.57527
G28  23574164.04615     -4622.20215        30.50015     -4617.52915
G31  22285501.66814     -3744.08114        25.60014     -3736.37314
C26  22656684.30417      -280.47017        44.50017      -274.41617
R09  20347640.52226     -4298.46926        38.70026     -4292.43026
C29  22067291.43216     -2723.47816        40.90016     -2717.35016
C08  38618453.80116      -877.90216        36.20016      -872.57516
C13  38302088.21616      -380.11116        36.00016      -375.79416
R19  21473076.69825     -4701.97825        35.10025     -4655.11525
C35  22412389.12615       477.27715        31.60015       483.28815
C30  26258144.46515     -4183.65015        32.70015     -4179.08515
> 2025 05 03 09 13 04.9999999  0 18                      
G26  20554846.57628      -258.08328        49.20028      -501.01728
G16  21750236.32526      1458.18926        41.10026      2931.22826
G05  23522088.59727     -1965.24727        41.60027     -3915.23727
G23  24005755.16226      2089.65326        39.30026      4193.81226
G18  20651787.16526      -748.02026        38.40026     -1480.32626
G25  24527516.35426     -4841.04826        38.50026     -9667.62626
G29  22203078.22927     -3630.61527        41.90027     -7247.89927
G28  23574842.17615     -4626.80015        30.30015     -9237.29515
G31  22285980.73714     -3750.01414        26.30014     -7477.89614
C26  22656517.02017      -282.82517        44.50017      -550.55717
C29  22067596.32116     -2725.35416        39.80016     -5436.08016
R10  19359107.86925      -794.02025        35.40025                
R09  20348247.90126     -4299.58126        38.10026     -8704.01426
C08  38618409.43116      -881.24816        35.90016     -1746.68616
C13  38301933.52316      -384.23116        35.60016      -753.25116
R19  21473699.66725     -4703.09325        34.60025     -9158.64325
C35  22412077.64215       473.10315        32.20015       964.16915
C30  26258732.65815     -4179.88715        32.40015     -8353.41415
> 2025 05 03 09 13 05.9999999  0 18                      
G26  20554657.70728      -259.94228        49.10028      -754.19428
G16  21749716.78426      1456.49226        41.10026      4394.40826
G05  23522226.50126     -1966.40926        41.40026     -5875.10626
G23  24005114.80526      2090.20326        39.30026      6289.92526
G18  20651692.73126      -749.21526        38.40026     -2222.95126
G25  24528202.87826     -4840.48026        38.40026    -14502.21026
G29  22203533.01426     -3632.26926        40.70026    -10873.62526
G28  23575482.83315     -4627.47415        30.10015    -13858.30615
G31  22286457.10714     -3750.59814        26.30014    -11221.57514
C26  22656336.54517      -284.69217        44.40017      -828.41017
C29  22067876.02716     -2727.17416        39.00016     -8156.18116
R09  20348798.92026     -4302.04426        37.60026    -12912.39826
R10  19359021.22815      -794.70615        35.40015      -800.82015
C08  38618335.38316      -882.03616        35.60016     -2621.82316
C13  38301775.53315      -384.76215        35.20015     -1131.46815
C35  22411749.96815       475.95015        32.60015      1444.86115
R19  21474364.30725     -4704.31525        34.10025    -13980.61325
C30  26259304.36215     -4182.52815        32.10015    -12528.07715
> 2025 05 03 09 13 06.9999999  0 18                      
G26  20554486.82528      -261.76528        48.90028     -1009.15128
G16  21749221.52726      1454.52426        41.00026      5855.26326
G05  23522380.29526     -1969.08626        41.20026     -7837.17526
G23  24004498.13226      2088.90926        39.30026      8385.18226
G29  22204014.48126     -3633.85026        39.80026    -14501.32326
G18  20651610.28826      -751.11026        38.30026     -2967.28726
G25  24528898.69726     -4841.75326        38.30026    -19337.62926
G28  23576126.18715     -4629.92015        33.10015    -18481.31315
G31  22286933.17714     -3745.59314        26.20014    -14962.58514
C26  22656171.35917      -287.09617        44.20017     -1108.21917
C29  22068182.41516     -2729.37516        38.70016    -10877.73616
C13  38301627.73515      -386.67315        35.20015     -1511.01815
R09  20349397.60526     -4302.61026        37.00026    -17276.61126
R10  19358946.28025      -795.95525        35.20025     -1568.04525
C08  38618284.71815      -884.34015        35.20015     -3498.44615
C35  22411442.68115       475.24715        32.90015      1925.00815
R19  21475027.44825     -4706.68625        33.80025    -18698.45325
C30  26259884.16015     -4181.13715        31.90015    -16705.34115
> 2025 05 03 09 13 07.9999999  0 18                      
G05  23522518.20026     -1971.93226        41.10026     -9801.92426
G16  21748709.48216      1457.00816        41.00016      7318.11716
G26  20554298.85528      -262.28428        48.30028     -1265.09628
G29  22204465.96826     -3637.12526        39.50026    -18131.24526
G18  20651518.85126      -752.71426        38.40026     -3713.31226
G25  24529576.52816     -4845.14916        38.10016    -24175.64116
G23  24003863.47116      2082.94416        38.90016     10476.62816
G28  23576768.94225     -4630.05725        34.20025    -23105.12625
G31  22287401.15314     -3751.97414        26.40014    -18707.01014
C30  26260452.56715     -4182.27715        34.20015    -20883.55415
C29  22068469.01716     -2728.73416        39.20016    -13601.62216
C26  22655986.98717      -286.61817        43.40017     -1388.82317
C13  38301465.24716      -388.91816        36.00016     -1893.18816
R09  20349958.51716     -4305.82516        36.50016    -21538.47916
R10  19358868.63425      -798.62025        35.00025     -2416.91625
C08  38618213.96715      -884.55815        35.00015     -4379.03915
C35  22411111.71015       473.14515        32.90015      2404.85115
R19  21475675.29925     -4708.45125        33.50025    -23433.16825
> 2025 05 03 09 13 08.9999999  0 18                      
G05  23522648.60926     -1967.90926        40.90026    -11764.87226
G16  21748197.73616      1449.22916        40.80016      8775.63216
G29  22204920.45316     -3631.90416        39.30016    -21758.08116
G26  20554107.88717      -261.21717        46.80017     -1520.64817
G18  20651428.01426      -752.15526        38.40026     -4459.51626
G23  24003226.71216      2083.52316        38.30016     12566.53516
G25  24530267.24916     -4845.96916        38.00016    -29015.05216
G28  23577412.89715     -4636.00115        34.20015    -27733.15815
G31  22287873.92614     -3753.06314        26.40014    -22453.28714
C30  26261017.67617     -4184.69517        42.10017    -25060.33317
C29  22068754.71916     -2729.84616        39.60016    -16322.88316
C26  22655804.41317      -286.72417        41.80017     -1670.57417
R09  20350520.32826     -4312.14426        36.10026    -25804.93226
C13  38301301.56116      -385.42216        36.00016     -2274.86216
C08  38618149.21215      -879.64215        34.80015     -5253.16915
R10  19358771.50115      -798.71015        34.90015     -3163.58315
R19  21476311.15915     -4707.17415        33.30015    -28102.82715
C35  22410784.03715       477.10615        32.90015      2884.96815
> 2025 05 03 09 13 09.9999999  0 17                      
G05  23522802.10326     -1974.39026        40.80026    -13731.50326
G29  22205389.62916     -3637.69116        39.20016    -25388.37716
G26  20553941.80217      -267.32217        45.00017     -1780.10117
G18  20651347.37016      -757.61916        38.30016     -5209.38516
G25  24530972.36126     -4845.30226        37.80026    -33854.44726
G23  24002613.03716      2084.40016        37.90016     14656.71816
G16  21747696.18316      1451.08516        40.30016     10232.80616
G31  22288385.07214     -3756.81514        26.40014    -26202.64614
C29  22069059.90816     -2730.50416        39.90016    -19048.90216
C30  26261599.27317     -4187.01217        41.90017    -29239.56117
C26  22655640.72616      -288.66716        40.70016     -1953.24816
R09  20351109.72016     -4307.19616        36.00016    -30120.24516
C13  38301153.76316      -389.48216        35.90016     -2657.05116
C08  38618095.54915      -884.67115        34.70015     -6132.18215
R10  19358702.54915      -803.24915        34.70015     -3962.84215
R19  21476977.29815     -4709.51415        33.20015    -32835.20615
C35  22410475.85015       470.34315        32.80015      3363.46915
> 2025 05 03 09 13 10.9999999  0 15                      
G05  23522944.80426     -1974.28726        40.70026    -15699.34226
G29  22205841.71616     -3637.72516        39.10016    -29019.73016
G26  20553750.53517      -265.67817        43.60017     -2039.80817
G18  20651255.93316      -755.90616        38.20016     -5959.38216
G25  24531653.78926     -4846.67326        37.60026    -38694.80026
G23  24001981.07426      2084.63826        37.70026     16747.10226
G16  21747182.63916      1454.14116        38.70016     11691.85616
G31  22288867.13814     -3756.79714        26.30014    -29953.06914
G27  23843474.20613      1976.87813        18.80013      3966.94713
C29  22069342.01216     -2731.89316        39.90016    -21774.68416
C26  22655457.25316      -290.43216        40.00016     -2237.91216
R09  20351681.12416     -4308.91816        35.90016    -34437.88816
C08  38618029.29515      -888.84015        34.70015     -7013.23615
R19  21477624.85015     -4709.96815        33.10015    -37568.39215
C35  22410154.47315       471.99915        32.70015      3839.51215
> 2025 05 03 09 13 11.9999999  0 19                      
G05  23523107.59126     -1975.45226        40.50026    -17668.31226
G29  22206312.98916     -3638.99016        39.00016    -32652.23116
G26  20553578.75427      -267.90827        42.40027     -2301.03727
G23  24001368.59826      2083.47126        37.20026     18836.82326
G16  21746693.97716      1452.72216        36.80016     13150.63316
G18  20651183.98316      -758.25016        37.50016     -6710.93516
G25  24532358.30216     -4847.26916        37.20016    -43535.82116
G31  22289361.79614     -3756.89014        26.20014    -33703.85914
G28  23579364.24624     -4639.42824        28.10024                
G27  23842870.42413      1974.24113        18.70013      5947.09013
C29  22069648.40016     -2733.46816        39.80016    -24501.48016
C26  22655294.16616      -292.47716        39.40016     -2523.39416
C08  38617981.32815      -887.81915        34.60015     -7894.66915
R19  21478283.79425     -4710.29325        32.90025    -42264.03325
C30  26262756.47216     -4191.87516        37.70016    -37601.83916
C35  22409835.19415       470.80815        32.40015      4318.60415
C13  38300853.37115      -388.23115        34.50015     -3424.19915
R10  19358561.04715      -799.14415        32.30015     -5638.42715
R09  20352254.32815     -4317.29015        35.10015    -38666.86415
> 2025 05 03 09 13 12.9999999  0 19                      
G05  23523249.69326     -1976.85926        40.30026    -19638.64626
G26  20553392.58227      -268.54027        41.50027     -2563.24327
G16  21746182.83115      1450.09715        35.30015     14607.52115
G18  20651091.94716      -760.27416        35.90016     -7464.40616
G29  22206766.57516     -3639.49416        38.40016    -36285.50016
G25  24533039.43016     -4849.81416        35.90016    -48378.81016
G23  24000735.13716      2082.56416        36.60016     20925.67116
G31  22289837.26714     -3758.25814        26.00014    -37455.73414
G28  23580012.39714     -4636.05014        27.20014     -4630.19114
G27  23842253.45113      1967.24813        18.60013      7922.53313
C26  22655110.99316      -292.90516        38.90016     -2810.13416
C08  38617911.17615      -889.22315        34.50015     -8777.02215
R19  21478915.45615     -4710.81815        32.80015    -46910.72815
C35  22409509.61915       470.37315        31.70015      4792.39915
R10  19358459.71715      -807.60815        30.90015     -6360.68915
C30  26263323.38016     -4188.10516        35.70016    -41785.12616
C29  22069933.20316     -2734.38016        39.00016    -27228.95116
C13  38300686.38715      -388.70715        32.80015     -3803.73215
R09  20352841.32115     -4320.88415        33.10015    -43067.02615
> 2025 05 03 09 13 13.9999999  0 17                      
G05  23523399.29026     -1978.54426        40.10026    -21610.50926
G26  20553227.99626      -270.06226        40.80026     -2826.74126
G18  20651008.60415      -758.25415        34.60015     -8217.12015
G29  22207237.54916     -3639.49116        37.00016    -39918.97216
G16  21745684.57615      1446.26715        34.20015     16061.27515
G25  24533733.45015     -4848.87015        34.20015    -53221.77615
G23  24000123.26015      2087.12915        35.10015     23017.31915
G28  23580668.34314     -4633.53514        26.70014     -9258.66814
G31  22290325.02914     -3763.96214        25.80014    -41211.72314
G27  23841654.46613      1966.09613        18.60013      9895.69113
C26  22654948.80516      -294.87116        38.60016     -3098.23516
C08  38617856.61415      -890.28815        34.40015     -9660.40015
R10  19358384.76915      -807.19615        30.40015     -7128.67515
C35  22409199.93415       464.07115        31.20015      5264.41615
C30  26263908.57415     -4186.84815        34.20015    -45967.55815
C13  38300544.88515      -395.67115        31.40015     -4188.54315
R09  20353420.52015     -4319.50015        31.10015    -47328.09215
> 2025 05 03 09 13 14.9999999  0 19                      
G26  20553042.12526      -270.98026        40.30026     -3091.33126
G05  23523539.89226     -1979.50426        39.50026    -23583.57026
G18  20650915.36915      -761.67615        33.90015     -8971.91315
G29  22207686.93816     -3644.16716        35.60016    -43555.68016
G16  21745165.63515      1443.73415        33.40015     17512.24615
G25  24534417.57615     -4852.09715        33.00015    -58066.93615
G23  23999488.30015      2080.13915        33.30015     25105.19215
G28  23581317.09414     -4639.02614        26.30014    -13890.28314
G31  22290797.20214     -3762.12214        25.60014    -44967.90614
G27  23841037.79313      1960.93713        18.40013     11864.60013
C26  22654766.83116      -295.60916        38.30016     -3387.27816
C08  38617796.65615      -891.49515        34.20015    -10543.55715
C29  22070522.59515     -2735.89915        34.60015    -32684.73615
R10  19358300.52715      -806.68515        30.20015     -7942.46115
C35  22408869.26315       463.88215        30.80015      5735.35715
C30  26264469.48615     -4178.14115        32.90015    -50143.07015
C13  38300379.09915      -396.19415        30.40015     -4578.92215
R09  20354007.51414     -4316.62814        29.40014    -51728.25214
R19  21480200.36714     -4702.81714        29.10014    -56222.44614
> 2025 05 03 09 13 15.9999999  0 19                      
G26  20552876.34026      -272.05426        40.00026     -3356.95226
G05  23523694.58526     -1980.77426        38.30026    -25557.82926
G18  20650837.72315      -763.98515        33.40015     -9728.88815
G29  22208162.40915     -3643.48115        34.60015    -47192.95915
G16  21744665.88115      1448.91915        32.70015     18965.79615
G25  24535122.68815     -4850.60715        32.10015    -62911.78415
G23  23998874.32515      2076.17515        32.10015     27189.21315
G28  23581989.82814     -4637.82014        26.00014    -18522.09214
G31  22291293.05914     -3760.56914        25.30014    -48723.07014
G27  23840442.70513      1959.57913        18.20013     13831.23513
C26  22654603.14516      -296.31516        38.10016     -3677.38416
C29  22070830.18215     -2737.12215        33.50015    -35414.89815
R10  19358238.17115      -812.39915        30.10015     -8776.04315
C35  22408561.37615       465.54515        30.40015      6206.35515
C08  38617742.39315      -889.58615        33.90015    -11429.50515
C30  26265051.08315     -4178.64615        31.80015    -54313.95815
C13  38300232.50115      -392.83915        29.70015     -4965.91015
R09  20354619.69014     -4317.37814        28.10014    -56165.81514
R19  21480877.29814     -4700.73314        27.40014    -61013.76114
> 2025 05 03 09 13 16.9999999  0 19                      
G26  20552689.56926      -273.29226        39.70026     -3623.79026
G05  23523834.58826     -1982.05126        37.30026    -27533.38726
G18  20650739.99015      -762.72415        33.10015    -10485.79915
G29  22208625.58815     -3640.40015        33.80015    -50828.42415
G16  21744155.93415      1445.40615        32.30015     20417.81415
G25  24535813.41015     -4854.05015        31.40015    -67758.87215
G23  23998236.66615      2084.02815        31.30015     29277.13715
G28  23582633.78214     -4637.23114        26.30014    -23153.62214
G31  22291778.42314     -3763.27414        25.10014    -52479.74614
G27  23839839.82213      1956.91413        18.10013     15795.28713
C26  22654422.96926      -297.06326        38.00026     -3968.63726
C29  22071123.67915     -2739.18715        33.00015    -38145.57715
R10  19358155.12815      -810.11415        30.40015     -9598.21615
C08  38617674.94015      -897.56015        33.20015    -12316.64315
C35  22408232.50315       464.79315        30.10015      6676.62015
C30  26265615.29315     -4192.59015        30.90015    -58494.33915
C13  38300068.21514      -396.92114        29.10014     -5355.68114
R09  20355137.73114     -4317.45914        27.10014    -60198.46614
R19  21481528.44714     -4694.71514        25.90014    -65765.31514
> 2025 05 03 09 13 17.9999999  0 19                      
G26  20552521.38626      -274.12726        39.60026     -3891.54226
G05  23523985.68426     -1982.92026        36.50026    -29509.90926
G18  20650659.04615      -763.54015        32.80015    -11243.18415
G29  22209100.75915     -3644.03215        33.20015    -54465.65615
G16  21743655.88015      1439.50815        31.90015     21865.43815
G25  24536514.92415     -4851.50815        30.80015    -72604.96415
G23  23997627.78815      2081.88715        30.70015     31364.98315
G28  23583311.31314     -4638.67714        26.70014    -27785.97314
G31  22292285.07214     -3763.79014        24.90014    -56237.22114
G27  23839250.13113      1952.85013        18.00013     17755.81813
C26  22654260.78226      -298.54726        38.10026     -4260.84426
C29  22071429.46715     -2738.38915        32.80015    -40877.21815
R10  19358081.07915      -813.06215        30.50015    -10369.25515
C08  38617627.87315      -889.23615        32.30015    -13204.58415
C35  22407924.01715       468.24815        29.70015      7149.54315
C30  26266204.68515     -4189.70815        30.10015    -62681.21615
C13  38299928.81114      -393.80114        28.60014     -5744.83014
R09  20355749.60814     -4309.91314        26.30014    -64632.97114
R19  21482169.70314     -4704.70114        24.70014    -70366.05014
> 2025 05 03 09 13 18.9999999  0 19                      
G26  20552336.71326      -275.25626        39.50026     -4160.40126
G05  23524125.68726     -1984.63726        35.80026    -31487.94526
G29  22209560.04215     -3641.81115        32.80015    -58102.04615
G18  20650561.91315      -760.16715        32.50015    -11998.52815
G16  21743137.23915      1449.00515        31.60015     23317.88115
G25  24537199.35015     -4852.88615        30.40015    -77451.69115
G23  23996982.93415      2081.31515        30.30015     33452.37315
G28  23583938.47914     -4643.71314        27.00014    -32422.00514
G31  22292770.73614     -3763.62314        24.70014    -59994.90014
G27  23838637.35513      1951.46013        17.80013     19714.19913
C26  22654081.20626      -299.81326        38.60026     -4554.26026
C29  22071722.36515     -2740.30515        32.80015    -43609.95215
R10  19358000.73515      -814.78215        30.60015    -11204.39815
C08  38617567.91415      -892.99815        31.60015    -14090.37515
C35  22407601.44014       463.25814        29.40014      7619.83114
C30  26266770.69314     -4192.10714        29.40014    -66865.74514
C13  38299769.02214      -392.33214        28.20014     -6133.38314
R09  20356298.82814     -4316.21214        25.70014    -68832.95114
R19  21482839.44014     -4717.79014        23.80014    -75216.34414
> 2025 05 03 09 13 19.9999999  0 19                      
G26  20552149.34326      -276.47826        39.40026     -4430.43026
G05  23524260.89325     -1985.51125        35.30025    -33467.05725
G29  22210017.82515     -3643.42615        32.40015    -61739.21915
G18  20650467.77915      -768.01315        32.20015    -12758.40915
G16  21742623.09515      1445.19815        31.40015     24769.40315
G23  23996344.97615      2077.07015        30.00015     35536.79315
G25  24537883.77715     -4848.53815        30.10015    -82295.71915
G28  23584574.33914     -4640.81614        27.40014    -37057.32014
G31  22293251.60314     -3761.20414        24.60014    -63751.02214
G27  23838017.08413      1954.00113        17.70013     21673.57013
C26  22653898.93226      -300.57926        38.70026     -4848.57826
C29  22072005.06915     -2740.58315        32.70015    -46343.37315
R10  19357906.30015      -815.30715        30.60015    -11964.03115
C08  38617496.26415      -893.62715        31.10015    -14980.38815
C35  22407267.17214       457.35614        29.10014      8085.01614
C30  26267339.39914     -4194.90314        28.80014    -71053.77414
C13  38299611.33114      -395.64714        27.80014     -6521.64814
R09  20356867.23414     -4321.00114        25.20014    -73133.78614
R19  21483479.49713     -4720.78413        23.10013    -79908.96313
> 2025 05 03 09 13 20.9999999  0 19                      
G26  20551980.56026      -277.29826        39.30026     -4701.36026
G05  23524415.88625     -1986.53825        34.90025    -35447.17525
G18  20650407.82015      -770.82115        32.00015    -13521.63915
G29  22210495.39415     -3643.34915        32.20015    -65376.56615
G16  21742123.64115      1444.84315        31.20015     26220.41815
G23  23995737.29715      2076.45815        29.80015     37619.85115
G25  24538582.89315     -4849.62415        29.90015    -87139.53515
G28  23585244.37514     -4640.65114        27.70014    -41692.24914
G31  22293736.66714     -3762.27514        24.40014    -67507.30214
G27  23837422.59613      1960.75913        17.60013     23637.81313
C26  22653736.44526      -301.77526        38.70026     -5143.95826
C29  22072307.55915     -2740.96515        32.80015    -49077.62215
R10  19357842.14515      -817.33515        30.70015    -12788.45915
C08  38617451.29515      -895.57315        30.80015    -15869.14815
C35  22406949.99114       456.82714        28.80014      8547.36514
C30  26267914.70114     -4187.74814        28.30014    -75238.60714
C13  38299480.62114      -400.72914        27.50014     -6913.05014
R09  20357480.90914     -4332.92314        24.90014    -77578.98914
R19  21484108.46113     -4726.41513        22.60013    -84443.10913
> 2025 05 03 09 13 21.9999999  0 19                      
G26  20551794.08926      -278.45526        39.30026     -4973.41126
G05  23524558.58725     -1988.08125        34.50025    -37428.20625
G18  20650318.18215      -771.84415        31.80015    -14286.71515
G29  22210948.68015     -3651.34815        31.90015    -69019.35315
G23  23995102.03715      2076.69615        30.20015     39702.56615
G16  21741618.49115      1439.16515        31.00015     27667.43115
G25  24539278.11115     -4849.83615        29.80015    -91983.47015
G28  23585888.92914     -4642.18514        27.90014    -46328.12114
G31  22294221.73114     -3762.90914        24.40014    -71264.10714
G27  23836811.01913      1962.78313        17.60013     25604.98013
C26  22653555.97026      -302.57926        38.60026     -5440.27626
C29  22072598.95815     -2742.09415        33.00015    -51812.72215
R10  19357757.90315      -818.71415        30.80015    -13603.00815
C08  38617385.64015      -892.99615        30.70015    -16758.93015
C35  22406623.21814       454.74514        28.50014      9010.04914
C30  26268489.40314     -4190.08214        27.90014    -79421.41814
C13  38299325.62914      -403.31214        27.20014     -7308.60514
R09  20358085.59114     -4327.75314        24.60014    -82073.12914
R19  21484768.90413     -4726.70213        22.20013    -89244.41213
> 2025 05 03 09 13 22.9999999  0 18                      
G26  20551626.20526      -279.50226        39.20026     -5246.48326
G05  23524723.47325     -1989.16525        34.20025    -39410.88125
G18  20650247.13115      -769.81915        31.60015    -15051.00715
G23  23994487.46215      2077.78815        30.50015     41785.94215
G29  22211421.75315     -3651.12815        31.70015    -72663.75615
G25  24539986.22115     -4861.61115        29.60015    -96835.24515
G28  23586557.46614     -4644.74914        28.20014    -50965.96814
G31  22294712.49214     -3764.47614        24.60014    -75022.08214
G27  23836223.12613      1966.77013        17.50013     27575.82913
C26  22653397.08026      -303.78326        38.40026     -5737.66226
C29  22072911.94115     -2744.50915        33.20015    -54548.58915
R10  19357698.54415      -821.97915        30.80015    -14452.60515
C08  38617335.87515      -895.77115        30.70015    -17649.00215
C35  22406325.52414       451.22214        28.30014      9468.44114
C30  26269069.80114     -4192.15214        27.40014    -83606.30414
C13  38299176.33214      -406.85914        26.80014     -7708.00114
R09  20358683.37714     -4335.58514        24.30014    -86434.28614
R19  21485466.82113     -4717.19213        22.00013    -94147.47613
> 2025 05 03 09 13 23.9999999  0 19                      
G26  20551441.53326      -280.52226        39.20026     -5520.62526
G05  23524861.67725     -1990.23725        33.90025    -41394.70325
G18  20650156.29415      -773.19215        31.50015    -15817.33715
G23  23993851.60215      2074.03215        30.80015     43866.98715
G29  22211872.94015     -3648.68015        31.40015    -76307.11715
G25  24540676.34315     -4853.20815        29.50015   -101684.08215
G28  23587209.21514     -4645.86914        28.40014    -55605.26914
G16  21740620.78115      1438.71515        29.50015     30554.07815
G31  22295186.46414     -3764.87814        24.80014    -78780.76414
G27  23835598.65812      1971.02112        17.40012     29550.69012
C26  22653218.10326      -304.86426        38.30026     -6036.17226
C29  22073196.44415     -2743.01015        33.30015    -57285.15715
C08  38617272.01915      -900.18715        30.90015    -18543.40215
R10  19357615.80115      -816.61315        30.90015    -15275.54215
C35  22406000.84814       452.17714        28.00014      9926.73814
C30  26269635.51014     -4195.95914        27.00014    -87793.55614
C13  38299009.04814      -408.54814        26.50014     -8109.60714
R09  20359242.49014     -4328.16014        24.10014    -90684.69214
R19  21486096.98513     -4727.22913        21.90013    -98787.28413
> 2025 05 03 09 13 24.9999999  0 18                      
G26  20551257.76026      -281.40826        39.20026     -5795.70326
G05  23525009.47525     -1991.47625        33.70025    -43380.21925
G23  23993218.74015      2075.60715        31.20015     45948.31615
G18  20650065.15715      -772.82515        31.40015    -16584.08815
G25  24541357.77214     -4854.92114        29.40014   -106533.06814
G28  23587848.07314     -4642.64314        28.60014    -60242.89114
G16  21740106.93714      1438.44314        28.60014     31998.26414
G31  22295660.73514     -3761.65914        24.80014    -82537.52414
G29  22212332.52215     -3646.47915        30.50015    -79948.64915
C26  22653036.72926      -305.86326        38.20026     -6335.71126
C29  22073484.84415     -2743.40415        33.40015    -60022.52015
C08  38617204.86515      -894.61115        31.10015    -19433.30215
R10  19357530.66015      -821.31015        31.00015    -16086.28015
C35  22405675.87314       456.02614        27.80014     10384.47714
C30  26270205.71514     -4197.36414        26.70014    -91982.79014
C13  38298842.66314      -403.34314        26.20014     -8508.36814
R09  20359808.19814     -4318.42214        23.90014    -94971.77214
R19  21486727.74813     -4717.69513        22.30013   -103429.38413
> 2025 05 03 09 13 25.9999999  0 18                      
G26  20551094.37326      -282.38326        39.10026     -6071.70526
G05  23525167.76525     -1992.23025        33.40025    -45365.60025
G23  23992608.06315      2074.68315        31.50015     48029.16115
G18  20649996.80515      -773.28715        31.30015    -17351.25115
G25  24542061.68414     -4856.52814        29.40014   -111383.13914
G28  23588511.81314     -4646.81614        28.80014    -64882.69914
G16  21739620.07414      1437.99114        28.00014     33442.26614
G31  22296149.69714     -3764.36214        24.80014    -86295.40814
G29  22212794.80214     -3645.53114        28.70014    -83588.90314
C26  22652875.44126      -306.32726        38.00026     -6635.86626
C29  22073793.33115     -2743.25315        33.40015    -62760.43715
C08  38617158.99715      -897.32515        31.40015    -20323.17015
R10  19357456.61215      -825.71615        31.10015    -16858.08015
C35  22405373.08314       451.65814        27.50014     10844.94114
C30  26270802.60214     -4200.86514        26.40014    -96177.09014
C13  38298702.66014      -404.76814        25.90014     -8906.13914
R09  20360381.10114     -4322.42514        23.80014    -99199.22014
R19  21487404.97913     -4720.00213        22.80013   -108222.23113
> 2025 05 03 09 13 26.9999999  0 18                      
G26  20550914.79826      -283.06826        39.00026     -6348.52226
G05  23525305.37025     -1993.50225        33.20025    -47352.66625
G23  23991980.29815      2075.38015        31.80015     50110.26115
G18  20649905.06815      -773.77915        31.30015    -18118.92815
G28  23589158.46514     -4643.95914        29.10014    -69521.38014
G25  24542751.50714     -4856.47914        29.30014   -116233.58814
G16  21739108.92814      1435.46414        27.60014     34884.47414
G31  22296629.66414     -3766.17914        24.80014    -90054.92814
G29  22213243.59114     -3646.85214        27.30014    -87229.66114
C26  22652697.66426      -307.36726        37.90026     -6936.96726
C29  22074075.73515     -2744.80915        33.40015    -65499.14115
C08  38617094.84215      -898.13315        31.70015    -21215.98115
R10  19357375.06815      -825.32315        31.30015    -17687.12015
C35  22405047.20914       453.49314        27.40014     11303.51614
C30  26271362.61414     -4201.60114        26.10014   -100373.83914
C13  38298538.37414      -405.65114        25.60014     -9304.75614
R09  20360940.81414     -4332.59514        24.00014   -103454.97514
R19  21488059.72613     -4717.76413        23.10013   -112992.91913
> 2025 05 03 09 13 27.9999999  0 18                      
G26  20550751.11126      -284.25326        38.90026     -6626.35126
G05  23525467.25825     -1994.38625        33.10025    -49340.66725
G23  23991357.02915      2073.50515        32.10015     52190.24415
G18  20649836.11615      -775.26715        31.20015    -18887.72015
G28  23589827.00314     -4647.08314        29.20014    -74161.72014
G25  24543452.12214     -4853.59814        29.20014   -121082.19314
G16  21738617.56814      1434.19414        27.30014     36325.28514
G31  22297113.23014     -3768.52914        24.80014    -93816.51014
G29  22213715.46514     -3649.27814        26.20014    -90872.15514
C26  22652537.27526      -308.23326        37.70026     -7238.91426
C29  22074387.52015     -2746.90615        33.40015    -68238.47415
C08  38617043.27715      -901.31515        31.90015    -22110.50915
R10  19357309.71315      -825.13615        31.50015    -18504.68315
C35  22404731.82714       459.18314        27.20014     11766.45214
C30  26271954.10514     -4199.19514        25.90014   -104568.20214
C13  38298397.17114      -402.40014        25.30014     -9702.82114
R09  20361524.81014     -4324.02114        24.40014   -107741.25414
R19  21488719.26913     -4720.08513        23.30013   -117690.85913
> 2025 05 03 09 13 28.9999999  0 18                      
G26  20550572.13526      -284.68926        38.80026     -6904.85626
G05  23525609.36025     -1995.20825        33.00025    -51329.57725
G23  23990724.16725      2073.33925        32.20025     54269.69525
G18  20649750.07515      -778.80515        31.20015    -19659.29115
G28  23590469.75814     -4644.46914        29.20014    -78800.91814
G25  24544133.85014     -4857.76014        29.10014   -125933.00814
G16  21738118.71414      1437.07714        27.10014     37767.50414
G31  22297578.80714     -3771.11114        24.70014    -97580.55014
G29  22214184.04014     -3648.69414        25.30014    -94514.88814
C26  22652357.09926      -309.02026        37.60026     -7541.71526
C29  22074677.41915     -2745.51915        33.40015    -70978.19815
C08  38616980.62115      -900.28815        32.30015    -23005.70115
R10  19357213.48015      -827.06515        31.60015    -19255.16415
C35  22404409.25014       456.94314        27.20014     12229.06814
C30  26272518.01414     -4199.83314        25.70014   -108761.65714
C13  38298232.88514      -402.38214        25.10014    -10100.07914
R09  20362127.69214     -4326.50814        24.40014   -112226.22514
R19  21489367.72014     -4725.99014        23.60014   -122427.87114
> 2025 05 03 09 13 29.9999999  0 18                      
G26  20550382.96626      -286.11526        38.60026     -7184.52626
G05  23525750.86225     -1996.68225        32.90025    -53319.76125
G23  23990095.20325      2072.53825        32.20025     56348.44825
G18  20649655.64115      -776.87015        31.30015    -20430.48715
G28  23591123.00514     -4646.80914        29.20014    -83441.28414
G25  24544822.47314     -4856.88714        29.10014   -130783.96414
G16  21737602.77114      1434.59314        27.00014     39208.54814
G31  22298053.07914     -3772.85514        24.60014   -101346.56014
G29  22214642.72314     -3651.57014        24.70014    -98159.60514
C26  22652176.32526      -310.13926        37.40026     -7845.53526
C29  22074969.71615     -2746.50315        33.30015    -73718.94415
C08  38616913.46715      -901.27915        32.30015    -23900.20815
R10  19357140.33115      -827.68415        31.70015    -20128.44215
C35  22404084.87514       457.56614        27.10014     12692.99914
C30  26273080.42514     -4196.59214        25.60014   -112953.82214
C13  38298073.99514      -404.28414        25.00014    -10497.18814
R19  21490005.67914     -4724.30314        23.80014   -127109.00914
R09  20362712.58714     -4308.04914        24.30014   -116615.68914
> 2025 05 03 09 13 30.9999999  0 18                      
G26  20550213.58326      -286.76026        38.50026     -7464.97726
G05  23525910.05125     -1997.57325        33.10025    -55311.42625
G23  23989476.13115      2072.28515        32.20015     58426.83515
G18  20649581.29215      -778.61915        31.40015    -21202.68615
G28  23591795.74014     -4653.90814        29.20014    -88086.73414
G25  24545527.28514     -4859.19614        29.00014   -135636.47014
G16  21737105.71514      1435.58814        27.60014     40649.90114
G29  22215115.79514     -3648.50714        24.40014   -101802.90514
G31  22298569.62114     -3778.18014        24.50014   -105116.73914
C26  22652018.03426      -310.80326        37.30026     -8150.10126
C29  22075274.90515     -2747.52115        33.30015    -76460.06015
C08  38616866.99915      -901.39715        32.30015    -24795.35515
R10  19357079.77315      -826.74615        31.70015    -20972.70115
C35  22403777.58814       449.04614        27.00014     13152.89014
C30  26273666.21914     -4193.86414        25.40014   -117142.76814
C13  38297929.49514      -400.28014        24.80014    -10893.33814
R19  21490661.32514     -4724.68414        24.10014   -131786.28114
R09  20363273.79914     -4309.39714        24.20014   -120780.48414
> 2025 05 03 09 13 31.9999999  0 17                      
G26  20550026.81226      -287.90726        38.50026     -7746.50326
G05  23526055.75125     -1998.60125        33.20025    -57303.65325
G29  22215573.87815     -3648.84015        32.60015   -105446.00415
G16  21736587.97315      1434.48615        32.20015     42090.57415
G23  23988837.27415      2071.49815        32.10015     60504.52715
G18  20649490.75515      -776.16215        31.40015    -21973.63115
G25  24546210.21214     -4861.96014        29.00014   -140491.38514
G28  23592439.39414     -4652.67114        29.10014    -92733.10514
C26  22651838.45926      -312.05326        37.20026     -8455.79726
C29  22075562.70615     -2748.13115        33.30015    -79202.12615
C08  38616805.84215      -902.21815        32.20015    -25691.29415
R10  19356993.43215      -830.87515        31.70015    -21775.80815
C35  22403460.10714       448.20914        26.90014     13607.64514
R19  21491319.36914     -4723.13314        24.50014   -136575.33814
C30  26274237.02414     -4196.53414        25.30014   -121331.43014
C13  38297769.70614      -406.71114        24.70014    -11291.04914
R09  20363834.41114     -4328.62514        24.10014   -125040.82414
> 2025 05 03 09 13 32.9999999  0 17                      
G26  20549838.84326      -288.54426        38.50026     -8028.79926
G05  23526196.65325     -1999.96225        33.40025    -59297.12925
G29  22216037.65715     -3653.70315        32.60015   -109092.26515
G16  21736078.92615      1433.17515        32.40015     43530.15715
G23  23988208.30915      2071.04515        32.10015     62581.69815
G18  20649407.11315      -778.38815        31.40015    -22745.63015
G25  24546900.93414     -4852.55614        29.00014   -145340.82114
G28  23593075.55414     -4649.07314        29.10014    -97377.37014
C26  22651661.58126      -312.59326        37.20026     -8762.21826
C29  22075855.00415     -2748.11615        33.20015    -81944.50815
C08  38616747.98215      -904.12215        32.10015    -26587.73515
R10  19356921.18215      -830.13815        31.70015    -22654.42515
C35  22403134.23314       457.39214        26.80014     14067.71614
R19  21491936.34214     -4723.23114        24.90014   -141143.19714
C30  26274809.92814     -4195.79714        25.10014   -125521.95314
C13  38297614.71314      -404.44714        24.60014    -11691.06814
R09  20364422.00414     -4341.35114        24.00014   -129443.27814
> 2025 05 03 09 13 33.9999999  0 17                      
G26  20549671.25926      -289.66326        38.40026     -8312.06026
G05  23526352.84525     -2000.49225        33.40025    -61291.33825
G16  21735583.06925      1432.95825        32.50025     44969.26925
G29  22216506.23325     -3653.05925        32.60025   -112739.11425
G23  23987592.83515      2069.56815        32.00015     64657.74715
G18  20649327.96815      -779.57515        31.40015    -23518.73515
G25  24547606.64614     -4862.70714        29.00014   -150195.16114
G28  23593740.49314     -4646.99714        29.00014   -102019.51314
C26  22651503.89026      -313.57526        37.30026     -9069.49926
C29  22076163.79015     -2751.28715        33.20015    -84688.06915
C08  38616698.81615      -905.29215        32.10015    -27485.73215
R10  19356854.02915      -835.65815        31.60015    -23462.07515
C35  22402816.45314       451.96114        26.70014     14528.04514
R19  21492612.97414     -4728.05714        25.20014   -145933.75014
C13  38297473.21114      -408.87914        24.50014    -12092.22114
C30  26275393.62414     -4195.24614        24.90014   -129711.58214
R09  20365020.98914     -4341.02614        23.80014   -133811.31114
> 2025 05 03 09 13 34.9999999  0 17                      
G26  20549492.28326      -290.51026        38.40026     -8596.25826
G05  23526494.94625     -2001.71225        33.70025    -63286.65325
G16  21735068.02625      1432.19625        32.60025     46407.66825
G29  22216963.71625     -3653.55525        32.50025   -116386.53925
G23  23986963.57115      2072.33015        31.90015     66735.21415
G18  20649244.02615      -784.87615        31.30015    -24295.79115
G25  24548295.86814     -4864.75914        29.00014   -155052.55414
G28  23594390.74314     -4649.95914        28.90014   -106662.97314
C26  22651324.31426      -314.66626        37.30026     -9377.84226
C29  22076447.69315     -2751.53715        33.10015    -87431.81815
C08  38616630.46315      -904.19415        32.00015    -28384.39915
R10  19356782.07915      -836.16915        31.60015    -24342.21615
C35  22402495.37514       453.10214        26.70014     14985.91414
R19  21493269.81914     -4732.31214        25.30014   -150714.38914
C13  38297323.31514      -410.16214        24.40014    -12495.87214
C30  26275960.23114     -4194.26414        24.70014   -133901.35414
R09  20365608.88214     -4336.70814        23.70014   -138215.29314
> 2025 05 03 09 13 36.0000000  0 17                      
G26  20549338.48926      -291.26126        38.40026     -8881.25526
G05  23526667.32725     -2002.82325        33.90025    -65283.06625
G16  21734581.76215      1432.34615        32.60015     47845.94115
G29  22217454.17715     -3654.39115        32.40015   -120034.70115
G18  20649179.27115      -783.24015        31.30015    -25073.06115
G23  23986355.29215      2070.56915        31.70015     68811.99215
G25  24549009.67414     -4854.65814        28.90014   -159904.21714
G28  23595069.47314     -4655.42714        28.80014   -111310.50414
C26  22651176.81726      -315.22126        37.30026     -9686.89726
C29  22076767.57215     -2756.11415        33.00015    -90177.97615
R10  19356730.51415      -835.07915        31.60015    -25173.54515
C08  38616597.48615      -908.39915        31.90015    -29284.13915
C35  22402202.17814       452.34314        26.60014     15443.40514
R19  21493953.04614     -4730.42514        25.30014   -155478.95414
C30  26276565.51214     -4198.98214        24.50014   -138091.21214
C13  38297185.41014      -409.16014        24.30014    -12899.65614
R09  20366218.06114     -4343.56214        23.60014   -142576.48714
> 2025 05 03 09 13 36.9999999  0 17                      
G26  20549150.81926      -292.12326        38.40026     -9167.05826
G05  23526800.73525     -2003.74625        33.90025    -67280.42325
G16  21734068.51715      1432.86015        32.40015     49284.55215
G29  22217902.96615     -3654.87615        32.20015   -123683.39515
G18  20649079.44015      -787.21315        31.30015    -25853.01515
G23  23985717.63315      2070.52915        31.60015     70888.55115
G25  24549690.50314     -4859.19014        29.00014   -164756.95414
G28  23595712.82814     -4649.94614        28.80014   -115955.70314
C26  22650988.84726      -316.09526        37.20026     -9996.73726
C29  22077043.08115     -2753.81215        32.90015    -92928.78415
R10  19356627.68515      -837.61215        31.70015    -25949.91915
C08  38616522.23815      -906.71615        31.80015    -30185.58015
C35  22401873.30614       452.62314        26.80014     15900.66414
R19  21494572.71714     -4730.46514        25.20014   -160123.31514
C30  26277125.22514     -4204.49114        24.50014   -142288.03814
C13  38297021.12414      -406.46714        24.20014    -13301.63314
R09  20366749.89214     -4329.46614        23.50014   -146742.81014
> 2025 05 03 09 13 38.0000000  0 16                      
G26  20548997.32526      -292.87226        38.50026     -9453.67626
G05  23526974.61425     -2004.72025        33.90025    -69278.79325
G16  21733587.65015      1430.00015        32.30015     50721.32015
G23  23985118.34815      2066.47515        31.40015     72962.28515
G25  24550392.91714     -4863.58414        29.00014   -169613.02914
G29  22218386.83115     -3653.71215        31.90015   -127331.53915
G28  23596382.86414     -4652.07914        28.70014   -120601.59414
C26  22650839.85026      -316.93926        37.20026    -10307.44826
C29  22077368.65615     -2754.55415        32.70015    -95674.89515
R10  19356581.81715      -837.50715        31.90015    -26810.23215
C08  38616485.36315      -910.29115        31.70015    -31087.87915
C35  22401581.00814       446.95914        26.90014     16354.81314
R19  21495237.95614     -4724.58014        25.20014   -164791.43914
C30  26277723.01114     -4200.72514        24.40014   -146485.54814
C13  38296880.82114      -406.23414        24.10014    -13702.51314
R09  20367358.17114     -4330.44114        23.50014   -151099.42014
> 2025 05 03 09 13 39.0000000  0 16                      
G26  20548812.35326      -294.02526        38.50026     -9741.32426
G05  23527114.91725     -2005.63925        34.00025    -71278.10225
G29  22218842.21615     -3657.68515        31.40015   -130982.13715
G23  23984489.98315      2067.94615        31.20015     75036.07115
G25  24551092.93214     -4864.58014        29.10014   -174470.86814
G28  23597029.21714     -4651.03714        28.60014   -125247.01014
G18  20648934.04024      -787.89324        28.20024                
C26  22650663.57226      -318.01026        37.20026    -10619.15226
C29  22077660.65415     -2753.57315        32.60015    -98422.32415
R10  19356491.28015      -838.81515        31.90015    -27591.98415
C08  38616425.40515      -903.59915        31.60015    -31990.20415
C35  22401247.93914       447.94314        27.20014     16809.27114
C30  26278280.32514     -4197.98414        24.90014   -150677.81214
R19  21495879.51214     -4730.79314        25.10014   -169491.71314
C13  38296709.04014      -405.37014        24.20014    -14102.29814
R09  20367898.69713     -4338.80113        23.40013   -155251.26313
> 2025 05 03 09 13 39.9999999  0 17                      
G26  20548619.58726      -294.48526        38.50026    -10029.58426
G05  23527251.92225     -2006.62125        34.20025    -73278.34125
G18  20648830.91215      -787.02515        31.20015      -781.12615
G29  22219291.60515     -3655.07015        31.10015   -134631.77315
G23  23983841.23215      2067.55515        31.10015     77109.64915
G25  24551769.26414     -4861.27714        29.30014   -179327.05614
G28  23597657.28214     -4650.98414        28.50014   -129892.19414
G16  21732544.07315      1429.59315        29.60015     53595.47215
C26  22650477.10126      -318.04926        37.10026    -10931.17626
C29  22077940.96015     -2753.20015        32.40015   -101168.90015
R10  19356397.44515      -840.37815        31.90015    -28416.41115
C08  38616334.86815      -906.94415        31.50015    -32890.25415
C35  22400913.67014       447.55214        27.30014     17264.97814
R19  21496528.86314     -4729.95814        25.40014   -174296.04014
C30  26278829.54514     -4197.44614        25.10014   -154869.59414
C13  38296539.05814      -410.36114        24.60014    -14504.67214
R09  20368450.91514     -4343.76814        23.60014   -159528.37514
> 2025 05 03 09 13 41.0000000  0 17                      
G05  23527427.60125     -2007.59325        34.40025    -75279.58725
G26  20548471.78916      -294.78816        38.00016    -10318.30016
G18  20648769.15515      -787.13215        31.80015     -1562.35915
G29  22219776.66915     -3655.25215        31.10015   -138281.25915
G23  23983227.55715      2071.97615        30.90015     79186.05715
G25  24552485.46815     -4862.18015        29.50015   -184183.34415
G28  23598327.01814     -4652.47314        28.30014   -134538.34314
G16  21732068.30214      1426.95614        28.20014     55029.43814
C26  22650327.80426      -319.62226        36.90026    -11244.40426
C29  22078257.84015     -2754.61115        32.50015   -103916.42415
R10  19356336.88715      -839.47515        31.80015    -29198.92715
C08  38616312.68315      -906.80015        31.40015    -33793.44115
C35  22400616.57614       445.82214        27.30014     17717.63514
R19  21497195.00214     -4728.80914        25.70014   -178967.22814
C13  38296401.45314      -406.44714        24.80014    -14907.92314
C30  26279432.12814     -4197.19014        25.10014   -159061.38714
R09  20369070.28614     -4344.89914        23.80014   -163940.76014
> 2025 05 03 09 13 42.0000000  0 17                      
G26  20548286.51716      -296.60816        36.90016    -10608.36916
G05  23527567.30425     -2008.60625        34.50025    -77281.83225
G18  20648689.11015      -788.21215        32.20015     -2344.33715
G29  22220228.75615     -3656.15415        31.00015   -141931.28315
G23  23982610.58415      2066.24515        30.70015     81259.60015
G25  24553170.49415     -4864.30115        29.60015   -189041.06815
G28  23598983.26414     -4660.22614        28.20014   -139189.97114
G16  21731547.26314      1424.89514        27.50014     56461.26714
C26  22650150.62726      -320.39126        36.70026    -11558.53526
C29  22078551.93715     -2755.08215        33.10015   -106664.31515
R10  19356260.74015      -842.65815        31.80015    -30055.42615
C08  38616243.73115      -905.71815        31.30015    -34693.32015
C35  22400295.19814       439.29114        27.20014     18165.49114
R19  21497853.34614     -4731.15814        25.90014   -183757.05214
C13  38296245.56114      -408.51914        25.00014    -15309.52814
C30  26280005.03114     -4199.98614        25.00014   -163253.82814
R09  20369652.48314     -4342.48714        24.00014   -168316.47214
> 2025 05 03 09 13 43.0000000  0 17                      
G26  20548100.34626      -297.00826        36.40026    -10899.65526
G05  23527708.80625     -2009.18025        34.50025    -79284.79225
G18  20648605.76815      -790.04015        32.30015     -3127.78115
G29  22220685.04015     -3657.86615        30.90015   -145582.62815
G23  23981981.32015      2065.97015        30.60015     83332.00415
G25  24553863.91415     -4862.51015        29.60015   -193898.07715
G16  21731050.50714      1425.94714        27.50014     57893.08414
G28  23599626.31914     -4656.75614        28.00014   -143841.11014
C26  22649974.04926      -320.79526        36.70026    -11873.23526
C29  22078845.13415     -2753.49415        33.10015   -109412.44015
R10  19356192.98615      -843.56015        31.70015    -30959.21115
C08  38616177.17715      -906.62315        31.20015    -35593.81215
C35  22399976.21914       446.18014        27.10014     18615.70614
R19  21498487.40714     -4732.82914        26.00014   -188415.99314
C13  38296085.47214      -410.06614        25.00014    -15712.92914
C30  26280579.13414     -4198.69414        24.80014   -167448.23414
R09  20370228.68414     -4347.16714        24.00014   -172659.32914
> 2025 05 03 09 13 44.0000000  0 17                      
G26  20547937.85926      -297.79926        37.10026    -11191.17126
G05  23527875.79115     -2011.31015        34.50015    -81288.87415
G18  20648531.71915      -790.70015        32.30015     -3912.11715
G29  22221160.51115     -3656.22515        31.00015   -149233.28215
G23  23981364.94715      2068.26215        30.50015     85405.59315
G25  24554571.42415     -4859.14815        29.60015   -198752.56815
G16  21730563.94414      1426.60414        28.30014     59325.37214
G28  23600289.16014     -4648.00314        27.90014   -148486.21514
C26  22649814.26026      -321.67026        37.10026    -12188.67326
C29  22079156.31815     -2754.64515        33.10015   -112160.65215
R10  19356134.82715      -844.84315        31.70015    -31814.14715
C08  38616140.30215      -908.51515        31.00015    -36494.89515
C35  22399673.72914       448.49514        27.00014     19070.15814
R19  21499169.73514     -4728.76914        26.00014   -193236.39514
C13  38295942.77014      -414.33714        25.00014    -16120.05414
R09  20370802.48714     -4344.68114        24.00014   -176891.36014
C30  26281158.63214     -4195.00914        24.70014   -171638.07114
> 2025 05 03 09 13 45.0000000  0 17                      
G26  20547756.18426      -298.65026        37.20026    -11483.54726
G05  23528017.59225     -2011.06325        34.50025    -83293.88125
G18  20648453.17315      -789.96715        32.20015     -4696.31115
G29  22221622.19115     -3661.38215        31.10015   -152887.19415
G23  23980743.47715      2058.29415        30.40015     87472.88315
G25  24555252.25315     -4862.01315        29.50015   -203608.18015
G16  21730048.90014      1427.14114        28.80014     60758.12614
G28  23600934.61314     -4649.52114        27.80014   -153130.37014
C26  22649639.78126      -322.49726        37.50026    -12504.95526
C29  22079443.22015     -2754.97915        33.00015   -114910.13915
R10  19356042.49115      -842.98415        31.60015    -32586.74715
C08  38616072.24915      -910.38515        30.90015    -37398.89315
C35  22399342.75814       443.40514        27.00014     19521.52514
R19  21499824.48114     -4729.09714        26.10014   -198007.84614
C13  38295780.88314      -412.88414        24.90014    -16527.35114
C30  26281716.54614     -4200.98614        24.60014   -175830.57514
R09  20371423.05714     -4340.01714        24.20014   -181471.83814
> 2025 05 03 09 13 46.0000000  0 17                      
G26  20547575.70926      -299.60126        37.30026    -11776.83126
G05  23528164.19125     -2012.57725        34.50025    -85300.02725
G18  20648359.63815      -792.74415        32.10015     -5482.29615
G29  22222077.87615     -3656.96415        31.30015   -156539.23315
G23  23980114.21215      2066.20115        30.30015     89543.35715
G16  21729543.45014      1424.87214        29.10014     62189.53514
G25  24555935.77914     -4865.67714        29.40014   -208466.59614
G28  23601586.06214     -4649.53514        27.60014   -157774.20514
C26  22649461.70426      -323.24026        37.50026    -12822.00326
C29  22079735.21715     -2757.02115        32.90015   -117660.48315
R10  19355967.24315      -846.28815        31.60015    -33448.58415
C08  38616002.69815      -904.04615        30.80015    -38299.63615
C35  22399020.18114       442.90014        26.90014     19970.24914
R19  21500469.03514     -4717.72614        26.10014   -202723.42514
C13  38295617.79514      -412.57014        25.20014    -16934.23114
C30  26282285.55214     -4203.80714        24.60014   -180026.23514
R09  20371973.17614     -4346.56914        24.20014   -185674.10914
> 2025 05 03 09 13 47.0000000  0 17                      
G26  20547415.32026      -300.21726        37.40026    -12070.79126
G05  23528334.77325     -2012.93525        34.40025    -87306.75525
G18  20648290.68615      -792.99215        32.10015     -6269.00815
G29  22222559.34215     -3659.31315        31.30015   -160192.17815
G23  23979510.43015      2064.37415        30.20015     91613.71015
G16  21729051.79014      1425.85514        29.40014     63621.18714
G25  24556637.29414     -4869.84114        29.30014   -213328.68614
G28  23602260.59514     -4654.67014        27.40014   -162421.32014
C26  22649305.21226      -324.15426        37.60026    -13139.87926
C29  22080040.10625     -2756.22025        32.80025   -120410.85925
R10  19355905.18615      -844.67515        31.60015    -34283.69015
C08  38615965.22415      -904.00415        30.60015    -39198.65515
C35  22398716.19114       443.13414        26.90014     20417.54914
R19  21501154.36114     -4731.67014        26.00014   -207559.13814
C13  38295478.99214      -410.73314        25.20014    -17339.97914
C30  26282880.94014     -4196.91814        24.90014   -184221.12414
R09  20372589.85014     -4342.16714        24.20014   -190135.35714
> 2025 05 03 09 13 48.0000000  0 16                      
G26  20547234.84526      -301.10226        37.60026    -12365.61626
G05  23528470.57925     -2014.22825        34.40025    -89314.58725
G18  20648205.24525      -794.41125        32.10025     -7056.95525
G29  22223020.72315     -3661.10415        31.40015   -163846.66715
G16  21728532.25015      1424.04715        29.70015     65051.66715
G23  23978892.25815      2059.49715        30.00015     93680.72415
G25  24557333.11214     -4861.26114        29.20014   -218186.32914
C26  22649130.73326      -324.79326        37.80026    -13458.50626
C29  22080333.00425     -2757.60825        32.70025   -123162.19725
R10  19355837.73215      -849.94615        31.80015    -35188.24015
C08  38615903.76615      -909.14215        30.50015    -40099.79215
C35  22398397.81214       444.11414        26.90014     20866.59514
C13  38295325.19814      -415.57014        25.50014    -17748.69814
R19  21501772.83214     -4734.16014        25.90014   -212136.94714
C30  26283462.83714     -4198.82914        25.10014   -188412.63314
R09  20373169.94814     -4350.11814        24.10014   -194499.60814
> 2025 05 03 09 13 49.0000001  0 16                      
G26  20547089.44626      -301.71626        37.80026    -12661.12726
G05  23528648.35625     -2014.92325        34.40025    -91323.23825
G18  20648143.18825      -794.74025        32.10025     -7845.52325
G29  22223505.48715     -3657.36215        31.70015   -167499.16515
G16  21728062.47515      1424.72415        29.90015     66482.21915
G23  23978301.36715      2058.88915        29.90015     95746.23115
G25  24558042.72114     -4857.03614        29.00014   -223039.66114
C26  22648984.13526      -325.54126        37.90026    -13777.86926
R10  19355790.96515      -849.67215        31.90015    -36042.44815
C29  22080656.77925     -2757.93125        32.60025   -125914.05825
C08  38615862.09515      -913.05115        30.30015    -41004.86915
C35  22398102.81614       440.58114        27.20014     21315.28714
C13  38295207.67914      -414.61514        25.80014    -18156.01214
R19  21502437.47214     -4733.98814        25.80014   -216799.71514
C30  26284063.02214     -4199.37214        25.10014   -192605.29314
R09  20373776.72814     -4354.02514        24.10014   -198844.75714
> 2025 05 03 09 13 50.0000000  0 15                      
G26  20546896.67926      -302.73126        38.00026    -12957.50626
G05  23528784.76125     -2016.05125        34.40025    -93332.87825
G29  22223954.57615     -3660.74715        32.00015   -171153.21915
G18  20648041.55815      -795.92815        32.10015     -8635.05315
G16  21727549.53015      1423.30115        30.10015     67911.88315
G25  24558717.85314     -4859.19514        28.90014   -227892.95914
C26  22648799.46226      -326.46826        37.90026    -14098.06026
R10  19355689.93515      -848.85315        32.00015    -36830.26615
C29  22080936.78615     -2756.37415        32.50015   -128665.01915
C08  38615788.94615      -911.97115        30.20015    -41912.46615
C35  22397771.54514       440.96114        27.40014     21761.03214
C13  38295032.60114      -411.49914        26.00014    -18564.53914
R19  21503068.23614     -4736.95614        25.60014   -221504.54214
C30  26284609.54314     -4200.96914        25.00014   -196799.43914
R09  20374329.84514     -4353.20814        24.20014   -203127.21614
> 2025 05 03 09 13 51.0000001  0 16                      
G26  20546742.58626      -303.32326        38.20026    -13254.61726
G05  23528956.84225     -2017.04225        34.40025    -95343.55725
G29  22224445.03725     -3661.27725        32.20025   -174808.19325
G18  20647986.39615      -796.36015        32.10015     -9425.23915
G16  21727065.66515      1419.83515        30.20015     69338.89215
G25  24559421.76614     -4867.75214        28.60014   -232751.99914
G23  23977058.12814      2055.00714        29.00014     99877.66814
C26  22648653.16426      -326.94326        37.90026    -14418.89126
C29  22081257.86315     -2758.18515        32.30015   -131416.93615
R10  19355642.86715      -851.80615        32.00015    -37682.95115
C08  38615758.36715      -909.93515        30.00015    -42818.36115
C35  22397469.05514       442.47214        27.40014     22208.23014
C13  38294905.18914      -415.18314        26.10014    -18971.65314
R09  20374914.74014     -4342.95214        24.50014   -207356.22914
R19  21503756.55914     -4735.92514        25.50014   -226293.60114
C30  26285204.03214     -4202.50314        24.90014   -200994.55514
> 2025 05 03 09 13 51.9999998  0 17                      
G26  20546472.47326      -304.25126        38.40026    -13552.58026
G05  23529016.80125     -2017.73225        34.40025    -97355.03025
G29  22224820.07725     -3661.30825        32.30025   -178463.48425
G18  20647794.82925      -797.69125        32.00025    -10216.52025
G16  21726467.87915      1423.19315        30.40015     70767.26715
G25  24560028.24614     -4872.81314        28.40014   -237616.31514
G23  23976345.52114      2053.95414        28.10014    101937.48714
G31  22308733.18513     -3790.20713        21.10013     -3783.76913
C26  22648387.54826      -327.81126        37.90026    -14740.50226
C29  22081460.82325     -2759.98825        32.40025   -134170.36225
R10  19355478.58125      -852.59025        32.00025    -38550.89025
C08  38615606.37215      -908.66915        29.90015    -43722.35215
C35  22397059.23914       440.22314        27.50014     22655.88314
C13  38294662.65714      -414.70214        26.30014    -19381.10614
C30  26285679.80314     -4200.28914        24.90014   -205190.31914
R09  20375387.51314     -4346.91914        24.80014   -211628.02914
R19  21504287.79114     -4735.93114        25.40014   -230885.18714
> 2025 05 03 09 13 52.9999999  0 16                      
G26  20546325.27526      -304.91426        38.50026    -13851.26826
G05  23529195.47725     -2018.51025        34.30025    -99367.28625
G29  22225312.63625     -3662.01225        32.60025   -182119.34825
G18  20647746.56225      -798.39925        31.90025    -11008.63825
G16  21725987.31215      1423.60315        30.50015     72196.37015
G23  23975720.75414      2061.50414        27.40014    104002.33914
G31  22309238.93513     -3792.34813        21.80013     -7570.25713
C26  22648241.24926      -328.83026        38.10026    -15063.05326
C29  22081781.90025     -2759.66725        32.70025   -136924.07625
R10  19355436.91025      -853.57225        32.00025    -39431.79525
C08  38615572.79515      -911.79215        29.80015    -44626.68715
C35  22396767.24114       438.29314        27.60014     23101.74114
C13  38294530.44814      -411.78914        26.40014    -19789.60414
C30  26286275.79014     -4202.93614        25.30014   -209387.85414
R09  20376032.66614     -4346.46914        24.80014   -216177.94414
R19  21505012.98914     -4740.79814        25.20014   -235871.71814
> 2025 05 03 09 13 54.0000001  0 16                      
G26  20546220.34826      -305.95826        38.60026    -14150.85826
G05  23529416.42425     -2019.99225        34.20025   -101380.75525
G29  22225849.26525     -3662.40125        33.00025   -185775.62725
G18  20647741.46615      -799.33415        31.90015    -11801.62215
G16  21725564.30515      1421.92415        30.60015     73624.63315
G23  23975175.73114      2067.74814        27.10014    106073.06814
G31  22309804.34413     -3793.98913        21.90013    -11357.80113
C26  22648144.11626      -329.47526        38.20026    -15386.31026
C29  22082153.64325     -2760.87025        33.00025   -139678.65325
R10  19355427.31625      -854.53325        32.00025    -40228.00025
C08  38615590.78315      -913.32715        29.70015    -45533.80915
C35  22396525.00814       438.77114        27.60014     23545.51814
C13  38294452.50214      -410.13414        26.50014    -20194.23914
C30  26286932.33514     -4206.31414        25.60014   -213585.73114
R09  20376697.60614     -4345.48314        24.70014   -220577.30414
R19  21505719.00114     -4735.95214        25.00014   -240498.47414
> 2025 05 03 09 13 54.9999998  0 16                      
G26  20545951.43426      -306.73326        38.60026    -14451.31326
G05  23529469.18725     -2020.81525        34.20025   -103395.22625
G29  22226222.20725     -3663.04425        33.30025   -189433.02125
G18  20647560.69115      -800.98015        31.80015    -12596.04015
G16  21724959.62315      1418.90315        30.70015     75050.55415
G23  23974458.62814      2069.43714        26.80014    108146.83414
G25  24562102.21014     -4876.40614        25.20014   -252223.26214
C26  22647881.19826      -330.37626        38.20026    -15710.45226
C29  22082356.60325     -2760.94025        33.00025   -142433.61225
R10  19355275.32225      -855.92325        32.00025    -41161.53325
C08  38615439.08815      -920.05315        29.70015    -46445.91015
C35  22396112.19414       436.92014        27.60014     23989.00614
C13  38294201.57614      -417.02614        26.60014    -20601.88514
C30  26287408.10614     -4205.15414        25.60014   -217784.47114
R09  20377164.68214     -4353.60214        24.70014   -224817.77814
R19  21506272.71714     -4743.37014        24.80014   -245210.22914
> 2025 05 03 09 13 55.9999999  0 17                      
G26  20545798.24026      -307.24726        38.60026    -14752.38726
G05  23529641.86825     -2021.26025        34.10025   -105410.31525
G29  22226707.57125     -3663.08925        33.50025   -193090.13925
G18  20647496.83515      -804.00815        31.70015    -13392.94315
G16  21724479.05615      1418.87515        30.90015     76475.68715
G23  23973847.05114      2066.47514        26.60014    110219.64914
G31  22310720.51013     -3786.78213        21.80013    -18927.69613
G25  24562825.90914     -4873.17914        24.00014   -257091.56314
C26  22647736.09926      -330.91526        38.40026    -16035.23726
C29  22082675.28225     -2761.54625        33.00025   -145189.09025
R10  19355214.76425      -856.80325        32.00025    -41941.76125
C08  38615413.60515      -913.06415        29.70015    -47357.71315
C35  22395823.19414       440.30214        27.60014     24432.02414
C13  38294079.86014      -413.07514        26.80014    -21012.94514
C30  26288009.49014     -4204.61414        25.50014   -221984.22114
R09  20377781.95514     -4354.77614        24.60014   -229219.46714
R19  21506929.56214     -4756.01414        24.60014   -249830.90214
> 2025 05 03 09 13 56.9999999  0 17                      
G26  20545616.86526      -308.12526        38.60026    -15054.25426
G05  23529791.76425     -2022.57025        34.10025   -107426.48325
G29  22227168.35225     -3663.50125        33.80025   -196747.60525
G18  20647417.09115      -804.29115        31.60015    -14190.86315
G16  21723976.30415      1418.40215        31.00015     77900.24215
G23  23973210.29214      2066.17214        26.40014    112291.94614
G31  22311195.68113     -3786.18713        21.80013    -22708.02213
G25  24563515.13213     -4869.19313        23.20013   -261956.55213
C26  22647561.32026      -331.64226        38.40026    -16360.72026
C29  22082967.87925     -2761.96425        33.00025   -147945.02125
R10  19355141.91425      -857.68525        31.90025    -42817.32725
C08  38615338.35815      -913.16715        29.60015    -48265.77415
C35  22395499.11914       433.51014        27.60014     24876.46014
C13  38293915.57414      -414.19014        27.00014    -21421.96014
C30  26288572.50014     -4205.15614        25.40014   -226182.65114
R09  20378367.45014     -4354.36514        24.50014   -233611.98714
R19  21507609.49214     -4749.94314        24.30014   -254737.06314
> 2025 05 03 09 13 57.9999999  0 17                      
G26  20545457.07626      -308.72126        38.60026    -15356.74526
G05  23529962.04625     -2023.05025        34.10025   -109443.29525
G29  22227644.72225     -3664.12325        33.80025   -200405.56525
G16  21723482.84615      1420.74615        31.10015     79326.20415
G18  20647354.43415      -799.80715        31.60015    -14986.09515
G23  23972598.71514      2064.14414        26.20014    114362.75414
G31  22311704.72813     -3780.34413        21.70013    -26484.41613
G25  24564227.43913     -4869.62813        22.60013   -266820.69013
C26  22647406.02726      -332.23926        38.60026    -16686.79826
C29  22083282.66225     -2762.36125        32.90025   -150701.33025
R10  19355080.15725      -858.68625        32.00025    -43653.95825
C08  38615295.78715      -913.92715        29.60015    -49173.74915
C35  22395195.42914       431.08114        27.60014     25314.96814
C13  38293777.96914      -420.76014        27.00014    -21833.49714
C30  26289166.98814     -4202.90314        25.30014   -230380.67114
R09  20378954.74314     -4347.89714        24.50014   -237916.60414
R19  21508229.16314     -4739.59114        24.10014   -259221.45614
> 2025 05 03 09 13 58.9999999  0 17                      
G26  20545278.99926      -309.53826        38.70026    -15660.03726
G05  23530111.94225     -2024.29725        34.30025   -111461.20225
G29  22228101.60525     -3664.21725        33.80025   -204063.80225
G16  21722972.29915      1415.14415        31.30015     80748.85115
G18  20647267.49415      -802.94615        31.50015    -15782.57415
G23  23971966.75314      2065.08714        25.90014    116433.64514
G31  22312194.88913     -3781.58613        21.60013    -30260.37713
G25  24564919.36013     -4870.39113        22.10013   -271685.10313
C26  22647231.54826      -333.19026        38.70026    -17013.75626
C29  22083570.46225     -2763.01725        32.90025   -153458.25125
R10  19354998.31325      -859.78725        32.00025    -44481.47225
C08  38615240.92515      -918.89815        29.60015    -50084.80515
C35  22394877.04914       433.40414        27.60014     25756.07914
C13  38293620.57814      -416.67014        26.90014    -22245.77914
C30  26289742.29014     -4205.06714        25.30014   -234578.92114
R09  20379526.14814     -4356.93514        24.40014   -242232.71914
R19  21508894.10214     -4742.89814        23.90014   -264047.25214
> 2025 05 03 09 13 59.9999999  0 17                      
G26  20545095.52626      -310.31226        38.70026    -15964.10126
G05  23530256.44225     -2024.76225        34.30025   -113479.77125
G29  22228558.78925     -3664.87225        33.80025   -207722.55525
G16  21722461.75315      1417.79815        31.40015     82172.17515
G18  20647185.35115      -803.55315        31.40015    -16579.86115
G23  23971331.49314      2067.86114        25.70014    118506.42714
G31  22312683.55113     -3793.55913        21.50013    -34044.16313
G25  24565601.38813     -4871.43713        21.70013   -276550.29313
C26  22647057.66826      -333.80226        38.70026    -17341.40326
C29  22083867.85625     -2763.33225        32.90025   -156215.57525
R10  19354920.96725      -860.72825        32.00025    -45332.63225
C08  38615168.07515      -917.73115        29.60015    -50997.88715
C35  22394555.67214       435.50014        27.50014     26197.91114
C13  38293463.18714      -407.60114        26.80014    -22651.46314
C30  26290309.49714     -4201.66714        25.30014   -238774.93214
R09  20380096.95214     -4356.22414        24.60014   -246547.30714
R19  21509525.76514     -4741.44214        23.70014   -268693.94514
> 2025 05 03 09 14 00.9999998  0 17                      
G26  20544918.04926      -311.14526        38.80026    -16268.97726
G05  23530401.84225     -2026.13125        34.30025   -115499.47425
G29  22229014.77325     -3665.34825        33.80025   -211381.79825
G16  21721955.10315      1416.60315        31.50015     83594.92815
G18  20647103.80715      -804.68515        31.50015    -17378.17215
G23  23970701.92814      2067.41614        25.50014    120579.54114
G31  22313171.31313     -3796.49913        21.50013    -37832.51813
G25  24566282.21713     -4867.67713        21.60013   -281413.23413
C26  22646884.68826      -334.66326        38.70026    -17669.85526
C29  22084160.75425     -2764.10425        32.90025   -158973.54625
R10  19354850.51625      -862.15425        32.00025    -46221.92725
C08  38615116.81115      -919.39715        29.60015    -51908.80815
C35  22394227.39914       438.38114        27.50014     26640.41614
C13  38293303.09814      -411.42814        26.70014    -23055.55314
C30  26290871.00914     -4204.57614        25.70014   -242973.21314
R09  20380678.55014     -4352.32714        24.60014   -250919.19814
R19  21510183.51014     -4730.14214        23.50014   -273480.70714
> 2025 05 03 09 14 01.9999999  0 17                      
G26  20544763.65626      -311.63826        38.90026    -16574.41526
G05  23530564.62925     -2026.63125        34.20025   -117519.85125
G29  22229483.34925     -3665.45325        33.70025   -215041.23825
G18  20647036.95415      -805.71215        31.70015    -18177.47215
G16  21721469.14015      1415.32515        31.60015     85016.67515
G23  23970080.75814      2068.09214        25.20014    122653.25414
G31  22313679.76113     -3793.02713        21.60013    -41620.04413
G25  24566993.62413     -4863.18113        21.50013   -286272.39213
C26  22646729.09626      -335.09526        38.70026    -17998.82626
C29  22084472.83825     -2764.53225        32.80025   -161731.98325
R10  19354781.86325      -862.75025        32.10025    -47021.94725
C08  38615070.04315      -913.19215        29.60015    -52819.77415
C35  22393923.40914       433.66714        27.50014     27082.15814
C30  26291460.70014     -4206.34414        26.00014   -247172.80714
C13  38293168.79114      -418.85514        26.60014    -23464.56814
R09  20381244.85814     -4358.61614        24.60014   -255110.73414
R19  21510820.86913     -4736.70113        23.30013   -278060.77413
> 2025 05 03 09 14 02.9999998  0 17                      
G26  20544585.28026      -312.26126        39.10026    -16880.50626
G05  23530710.32825     -2027.35625        34.10025   -119540.98525
G29  22229939.03325     -3665.73825        33.60025   -218700.98125
G18  20646952.71215      -806.85815        31.90015    -18977.91415
G16  21720962.49115      1415.47915        31.70015     86438.14215
G23  23969441.00114      2064.16314        25.00014    124724.49814
G31  22314165.12513     -3797.26413        21.80013    -45410.16713
G25  24567690.04213     -4858.30013        21.50013   -291127.08513
C26  22646554.31726      -335.84126        38.70026    -18328.51626
C29  22084759.43925     -2764.25725        32.80025   -164490.44025
R10  19354715.30925      -863.57225        32.10025    -47931.07325
C08  38615009.78515      -915.74715        29.80015    -53729.98315
C35  22393607.72814       429.28314        27.50014     27517.45814
C30  26292028.20814     -4206.45414        26.10014   -251371.71214
C13  38293003.30514      -419.55614        26.40014    -23878.77614
R09  20381835.44914     -4359.41714        24.50014   -259531.52514
R19  21511522.98313     -4735.78613        23.10013   -283084.04413
> 2025 05 03 09 14 04.0000000  0 16                      
G26  20544439.28126      -313.19926        39.20026    -17187.42626
G05  23530885.40725     -2028.34325        34.00025   -121563.01725
G29  22230436.68925     -3666.35525        33.50025   -222361.22525
G18  20646900.24815      -807.23615        32.10015    -19778.97815
G16  21720486.72015      1417.79115        31.80015     87861.06715
G23  23968825.82714      2059.30014        24.70014    126791.68914
G31  22314676.57113     -3794.09913        21.80013    -49199.03413
C26  22646411.01626      -336.51226        38.70026    -18658.88126
C29  22085080.81725     -2765.51525        32.80025   -167249.73125
R10  19354662.54625      -864.96925        32.20025    -48753.24925
C08  38614975.60915      -914.79915        30.00015    -54642.31615
C35  22393319.62714       434.57714        27.40014     27957.02214
C30  26292626.59314     -4205.03114        26.30014   -255572.09114
C13  38292872.59614      -417.99114        26.30014    -24290.98814
R09  20382479.70314     -4359.14814        24.50014   -264077.62014
R19  21512170.83413     -4740.73113        23.00013   -287657.25913
> 2025 05 03 09 14 05.0000000  0 16                      
G26  20544259.70526      -313.75626        39.20026    -17494.99526
G05  23531042.79825     -2029.15925        33.80025   -123585.89325
G29  22230896.87025     -3666.56725        33.50025   -226021.77725
G18  20646820.20425      -807.91725        32.20025    -20580.70225
G16  21719981.27015      1413.55215        31.80015     89281.65315
G23  23968198.96114      2057.91914        24.40014    128856.60814
G31  22315152.34113     -3793.15513        21.80013    -52986.85313
C26  22646236.23726      -337.25226        38.60026    -18989.96426
C29  22085373.71425     -2765.52625        32.70025   -170009.30725
R10  19354588.19725      -865.64825        32.30025    -49620.42525
C08  38614913.25215      -915.93315        30.30015    -55553.50715
C35  22392990.15514       436.36514        27.40014     28399.86814
C30  26293200.69614     -4204.33714        26.60014   -259771.03214
C13  38292720.00214      -417.76214        26.10014    -24702.42614
R09  20383000.44214     -4359.26214        24.30014   -268123.26014
R19  21512843.86813     -4738.37813        22.80013   -292525.92013
> 2025 05 03 09 14 05.9999999  0 16                      
G26  20544068.73726      -314.47326        39.30026    -17803.22126
G29  22231350.15725     -3666.88325        33.40025   -229682.60625
G05  23531177.10525     -2029.99225        33.70025   -125609.56925
G18  20646727.56825      -808.86525        32.40025    -21383.24125
G16  21719469.52415      1412.50215        31.80015     90700.79615
G23  23967564.60014      2059.39314        24.10014    130921.79014
G31  22315612.52313     -3797.63813        21.80013    -56777.27513
C26  22646054.56326      -337.88826        38.60026    -19321.67426
C29  22085660.31625     -2766.14525        32.70025   -172769.35425
R10  19354512.65025      -866.63725        32.30025    -50543.24225
C08  38614842.50115      -917.13015        30.50015    -56465.86915
C30  26293752.91414     -4201.40514        26.70014   -263968.02314
C35  22392654.98814       436.04414        27.30014     28840.67614
C13  38292536.52914      -419.43114        26.00014    -25114.63114
R09  20383564.95214     -4359.75114        24.20014   -272466.84414
R19  21513496.51613     -4739.86813        22.60013   -297347.85213
> 2025 05 03 09 14 07.0000000  0 17                      
G26  20543920.04026      -315.10226        39.40026    -18112.13526
G29  22231844.81425     -3667.45525        33.30025   -233343.95725
G05  23531358.18025     -2030.98625        33.50025   -127634.22225
G18  20646668.20925      -809.65025        32.50025    -22187.12425
G16  21718990.45615      1414.57215        31.90015     92120.78915
G25  24570494.00124     -4871.57324        25.90024                
G23  23966978.20614      2057.11314        23.80014    132985.49014
G31  22316118.57313     -3806.47213        21.80013    -60574.50213
C26  22645910.96226      -338.47226        38.60026    -19654.03226
R10  19354461.98525      -867.84125        32.40025    -51377.62225
C29  22085978.09625     -2766.65325        32.60025   -175529.94525
C08  38614806.22615      -919.74915        30.50015    -57378.69115
C30  26294350.70014     -4203.47614        27.00014   -268165.58814
C35  22392362.39014       438.29714        27.20014     29282.51914
C13  38292412.71414      -419.28114        25.90014    -25527.33714
R09  20384170.53214     -4360.39214        24.10014   -276806.64414
R19  21514173.44813     -4730.13713        22.50013   -302076.44213
> 2025 05 03 09 14 08.0000000  0 17                      
G26  20543738.96526      -316.00926        39.50026    -18421.87026
G29  22232311.29125     -3667.61525        33.60025   -237005.57825
G05  23531505.37825     -2031.76325        33.40025   -129659.70825
G18  20646584.86725      -810.43825        32.70025    -22991.30225
G16  21718483.80715      1413.09915        31.90015     93540.09615
G25  24571202.11114     -4870.59314        26.80014     -4864.73414
G23  23966351.94014      2057.96814        23.50014    135049.27914
G31  22316595.84213     -3802.65413        21.80013    -64371.44013
C26  22645736.18326      -339.37626        38.60026    -19987.19526
R10  19354378.64225      -868.67025        32.50025    -52197.51025
C29  22086275.19025     -2766.78125        32.60025   -178290.79125
C08  38614750.76415      -922.31915        30.50015    -58292.98715
C30  26294921.20514     -4202.67114        27.00014   -272362.44914
C35  22392040.41314       430.96414        27.10014     29721.79814
C13  38292256.82214      -423.74614        25.80014    -25941.88014
R09  20384773.71514     -4369.55814        24.00014   -281292.38014
R19  21514792.21913     -4731.37013        22.40013   -306655.01613
> 2025 05 03 09 14 09.0000000  0 17                      
G26  20543559.09026      -316.33326        39.50026    -18732.09526
G29  22232769.07425     -3667.68225        33.70025   -240667.33225
G05  23531653.77525     -2032.19925        33.30025   -131685.76225
G18  20646496.12825      -810.92125        32.90025    -23796.06725
G16  21717970.56215      1413.41715        32.00015     94959.38615
G25  24571897.62914     -4868.37314        27.10014     -9727.98714
G23  23965718.17913      2059.65513        23.20013    137114.22213
G31  22317074.61113     -3805.94213        21.70013    -68170.47513
C26  22645565.00226      -339.73826        38.60026    -20320.86826
R10  19354303.39525      -869.55125        32.50025    -53060.87225
C29  22086573.18425     -2767.36025        32.50025   -181052.10825
C08  38614692.60515      -918.69315        30.40015    -59207.93515
C35  22391728.32914       436.07214        27.10014     30160.83214
C30  26295495.00814     -4199.92814        27.00014   -276556.44914
C13  38292103.02914      -424.89614        25.80014    -26360.78714
R09  20385378.69614     -4368.75514        23.90014   -285791.10414
R19  21515416.38713     -4732.49613        22.20013   -311264.20713
> 2025 05 03 09 14 10.0000000  0 17                      
G26  20543400.50026      -317.59026        39.60026    -19043.28426
G29  22233247.54325     -3668.80125        33.80025   -244329.84125
G18  20646429.57425      -812.14125        33.10025    -24601.80525
G05  23531819.26125     -2033.68625        33.30025   -133712.95925
G16  21717482.80025      1412.40325        32.00025     96378.03125
G25  24572591.34914     -4876.15914        27.30014    -14595.90114
G23  23965118.29413      2057.44713        22.90013    139178.11413
G31  22317575.56413     -3812.67713        21.50013    -71974.66013
C26  22645409.10926      -340.91126        38.60026    -20655.45626
R10  19354244.03625      -870.97325        32.60025    -53910.47025
C29  22086876.57425     -2768.18625        32.50025   -183814.09525
C08  38614642.23915      -918.97615        30.40015    -60122.14815
C30  26296077.50414     -4205.69014        26.90014   -280752.45714
C35  22391424.04014       430.27014        27.00014     30599.88214
C13  38291975.91714      -421.96614        25.70014    -26779.28314
R09  20385940.50714     -4363.48014        23.80014   -289958.95414
R19  21516079.52813     -4742.06413        22.10013   -315980.51713
> 2025 05 03 09 14 11.0000000  0 17                      
G26  20543222.12326      -318.17526        39.60026    -19355.23426
G29  22233704.42725     -3668.72125        33.80025   -247992.59725
G18  20646350.72925      -812.99625        33.20025    -25408.48525
G05  23531960.16325     -2034.36925        33.20025   -135741.04225
G16  21716971.65325      1411.79725        32.10025     97796.00825
G25  24573278.77314     -4868.99514        27.40014    -19460.64314
G23  23964484.23313      2058.39313        22.80013    141242.23813
G31  22318065.42513     -3814.48613        21.40013    -75781.81913
C26  22645239.72726      -341.35226        38.60026    -20990.69326
R10  19354175.38325      -871.91225        32.60025    -54808.15425
C29  22087173.36825     -2768.29725        32.40025   -186576.42925
C08  38614581.38215      -920.32615        30.30015    -61036.54315
C30  26296656.10414     -4204.97214        27.00014   -284951.55814
C35  22391109.25814       427.58314        27.00014     31035.43914
C13  38291820.92414      -421.94714        25.70014    -27194.88614
R09  20386547.88714     -4365.35114        23.70014   -294469.13914
R19  21516721.08413     -4755.97513        22.00013   -320681.55713
> 2025 05 03 09 14 12.0000000  0 17                      
G26  20543042.84726      -318.98426        39.60026    -19667.96526
G29  22234165.80725     -3669.45525        33.80025   -251655.91225
G18  20646265.88825      -813.78725        33.30025    -26215.99525
G05  23532120.25225     -2035.36025        33.20025   -137770.06925
G16  21716463.80525      1412.07425        32.10025     99213.95925
G25  24573965.29814     -4871.31214        27.40014    -24325.85814
G23  23963850.77113      2061.24613        22.60013    143308.35313
G31  22318558.28413     -3821.54713        21.20013    -79594.66313
C26  22645068.54526      -342.41426        38.60026    -21326.84126
C29  22087460.26925     -2769.21125        32.50025   -189339.47625
R10  19354093.24025      -872.89125        32.60025    -55634.90625
C08  38614523.82115      -919.81315        30.30015    -61950.95115
C30  26297222.71214     -4208.26514        27.00014   -289152.02114
C35  22390781.88414       429.06214        26.90014     31470.35014
C13  38291660.83514      -421.11814        25.60014    -27610.18014
R09  20387136.07914     -4364.26514        23.80014   -298874.64914
R19  21517341.35513     -4754.85413        21.80013   -325267.01913
> 2025 05 03 09 14 13.0000001  0 17                      
G26  20542894.75026      -319.45626        39.60026    -19981.27026
G29  22234654.76925     -3669.38825        34.00025   -255319.36825
G18  20646211.92525      -814.28725        33.40025    -27024.11425
G05  23532301.92625     -2035.80825        33.20025   -139799.70825
G16  21715991.63215      1409.25115        32.10015    100630.02015
G25  24574680.00314     -4874.86614        27.40014    -29193.60114
G23  23963237.69613      2059.58113        22.70013    145374.02213
G31  22319085.31913     -3823.71313        21.10013    -83410.84613
C26  22644924.04526      -342.64426        38.50026    -21663.44726
C29  22087782.24725     -2769.05025        32.50025   -192102.65225
R10  19354056.36625      -873.60025        32.60025    -56541.74425
C08  38614495.34115      -922.11015        30.20015    -62866.16915
C35  22390486.58914       432.17914        26.80014     31907.55214
C30  26297813.90214     -4210.71414        26.90014   -293355.86314
C13  38291531.02514      -422.25214        25.60014    -28026.06214
R09  20387772.53914     -4373.18914        23.80014   -303380.24914
R19  21518079.74313     -4755.75613        21.70013   -330325.49713
> 2025 05 03 09 14 14.0000000  0 17                      
G26  20542706.78026      -320.18226        39.50026    -20295.21526
G29  22235100.86025     -3670.05425        34.00025   -258983.28025
G18  20646116.89125      -815.20825        33.40025    -27833.01425
G05  23532433.53525     -2036.93025        33.10025   -141830.26425
G16  21715465.19615      1414.12915        32.00015    102048.73915
G25  24575355.43514     -4874.40614        27.40014    -34061.84214
G23  23962588.64513      2056.11313        23.20013    147437.26713
G31  22319561.68913     -3828.60913        20.90013    -87231.37013
C26  22644736.97526      -343.66026        38.40026    -22000.84626
C29  22088063.45225     -2769.75925        32.60025   -194866.30825
R10  19353965.22925      -874.93525        32.50025    -57382.18925
C08  38614421.29215      -921.01815        30.20015    -63782.17515
C35  22390162.81314       433.14614        26.70014     32346.45414
C30  26298379.61114     -4213.65914        26.80014   -297562.61814
C13  38291362.24214      -423.05014        25.70014    -28444.02714
R09  20388284.58414     -4368.99414        23.70014   -307441.89714
R19  21518747.68113     -4760.05513        21.60013   -335229.32813
> 2025 05 03 09 14 15.0000001  0 17                      
G26  20542562.28026      -321.13726        39.60026    -20610.05826
G29  22235585.02525     -3670.45925        34.00025   -262647.66225
G18  20646068.32425      -816.13425        33.40025    -28642.84025
G05  23532606.51625     -2037.89225        33.10025   -143861.81525
G16  21714987.62715      1409.25915        31.90015    103465.04815
G25  24576075.53714     -4869.48314        27.40014    -38927.01714
G23  23961997.15513      2055.55713        23.40013    149499.28413
G31  22320077.03213     -3822.04813        20.60013    -91049.01513
C26  22644596.37226      -344.22226        38.80026    -22338.93326
R10  19353930.15325      -875.73025        32.60025    -58298.94025
C29  22088391.72525     -2770.64425        32.70025   -197630.76325
C08  38614385.91715      -921.05815        30.10015    -64698.38215
C35  22389877.41014       432.06814        26.60014     32786.75114
C30  26298977.69714     -4211.90514        26.60014   -301770.96814
C13  38291233.93014      -426.94814        25.70014    -28863.91114
R09  20388907.25314     -4368.85014        23.60014   -311874.14814
R19  21519444.99813     -4747.54313        21.60013   -340067.36813
> 2025 05 03 09 14 15.9999998  0 17                      
G26  20542290.96826      -321.52426        39.80026    -20925.44626
G29  22235959.46625     -3670.54025        34.00025   -266311.74225
G18  20645889.04825      -816.55425        33.40025    -29453.24325
G05  23532667.67325     -2038.44025        33.10025   -145894.05125
G16  21714394.63715      1409.44815        31.80015    104880.69315
G25  24576676.92114     -4875.02614        27.40014    -43794.85414
G23  23961269.25814      2054.75314        23.80014    151560.36814
G31  22320486.24913     -3819.18913        20.50013    -94863.78313
C26  22644334.35426      -344.69926        39.10026    -22677.55426
R10  19353761.07025      -876.84325        32.80025    -59140.18525
C29  22088600.08025     -2770.51325        32.70025   -200395.38525
C08  38614241.71715      -920.69915        30.10015 -93731492.29315
C35  22389460.99914       428.17014        26.60014     33222.28114
C13  38290988.10114      -423.86014        25.80014    -29284.37814
C30  26299453.16714     -4207.83514        26.40014   -305974.02214
R09  20389395.91514     -4365.83614        23.80014   -316228.46614
R19  21520002.31213     -4740.59013        22.00013   -344797.49113
> 2025 05 03 09 14 16.9999999  0 17                      
G26  20542147.96726      -322.57526        39.80026    -21241.71626
G29  22236450.52615     -3671.30015        33.90015   -269976.89515
G18  20645834.18625      -817.85725        33.40025    -30264.70725
G05  23532844.25125     -2039.26125        33.10025   -147927.06225
G16  21713915.56915      1407.38415        31.80015    106294.74015
G25  24577403.91714     -4880.62814        27.30014    -48667.31114
G23  23960665.17714      2055.26214        24.50014    153621.48114
G31  22321020.47913     -3818.40913        20.30013    -98677.07113
C26  22644194.65026      -345.75026        39.10026    -23017.05526
R10  19353721.79725      -877.72925        32.80025    -60035.58125
C29  22088923.85625     -2771.03925        32.60025   -203160.41325
C08  38614206.64115      -923.25815        30.20015 -93732409.74215
C35  22389172.29914       423.92214        26.50014     33653.42014
C13  38290862.18814      -425.86214        25.90014    -29703.48014
C30  26300068.04214     -4203.73214        26.30014   -310172.50014
R09  20390019.78314     -4372.06714        24.10014   -320666.51014
R19  21520661.55613     -4744.41713        22.70013   -349431.17313
> 2025 05 03 09 14 17.9999999  0 17                      
G26  20541971.38926      -322.96626        39.80026    -21558.54226
G29  22236901.41325     -3671.25925        33.80025   -273642.21325
G18  20645751.74325      -818.22225        33.40025    -31076.76825
G05  23532993.54815     -2039.53515        33.00015   -149960.51515
G16  21713412.21815      1409.06015        31.70015    107709.37215
G25  24578096.13814     -4869.88014        27.30014    -53534.14414
G23  23960044.90614      2050.29714        24.50014    155679.29314
G31  22321493.85113     -3810.26613        20.30013   -102484.43813
C26  22644020.77126      -346.39426        39.20026    -23357.27826
R10  19353648.34825      -878.73625        32.80025    -60908.09725
C29  22089215.25425     -2771.71025        32.60025   -205926.02425
C08  38614145.78315      -923.61215        30.20015 -93733327.42715
C13  38290715.88914      -428.42114        26.10014    -30125.01514
C35  22388855.41814       424.16214        26.40014     34082.87714
C30  26300637.34814     -4199.00114        26.10014   -314368.28714
R09  20390575.59814     -4364.79914        24.30014   -324900.10314
R19  21521321.69913     -4751.00613        22.80013   -354230.18213
> 2025 05 03 09 14 18.9999998  0 17                      
G26  20541785.81826      -323.98226        39.70026    -21876.19326
G29  22237352.90125     -3671.86625        33.80025   -277308.45225
G18  20645659.70725      -819.09325        33.30025    -31889.57225
G05  23533134.75015     -2038.44215        33.00015   -151993.34915
G16  21712896.57415      1408.92315        31.70015    109124.14415
G25  24578764.07614     -4874.19714        27.20014    -58401.94314
G23  23959410.54514      2046.68214        24.50014    157733.63214
G31  22321978.61613     -3800.08113        20.20013   -106283.00513
C26  22643839.39626      -346.90726        39.30026    -23698.04826
R10  19353567.10425      -879.77025        32.80025    -61800.40525
C29  22089495.26115     -2771.18815        32.50015   -208691.44515
C08  38614064.53915      -921.72615        30.20015 -93734243.89715
C13  38290543.50814      -425.34914        26.40014    -30547.12314
C35  22388522.64814       427.36014        26.30014     34514.42014
C30  26301197.06014     -4191.43714        25.80014   -318557.57814
R09  20391136.81014     -4368.05814        24.30014   -329226.11614
R19  21521967.45213     -4751.11613        22.80013   -359015.37713
> 2025 05 03 09 14 19.9999999  0 17                      
G26  20541640.71826      -324.26826        39.80026    -22194.35926
G29  22237841.56325     -3671.94425        33.70025   -280974.43325
G18  20645606.94425      -819.81725        33.30025    -32703.15525
G16  21712422.00315      1407.32615        31.90015    110537.85015
G05  23533318.52315     -2042.32515        32.50015   -154028.61515
G25  24579480.58014     -4874.69114        27.10014    -63270.44314
G23  23958813.35914      2050.53714        24.50014    159789.33414
G31  22322482.26713     -3794.89013        20.10013   -110075.22513
C26  22643695.49626      -347.57526        39.50026    -24039.49426
R10  19353523.63425      -880.61025        32.90025    -62672.92125
C08  38614036.95815      -924.97615        30.10015 -93735162.17715
C29  22089819.63615     -2767.07615        32.30015   -211454.11015
C13  38290405.90414      -423.09014        26.60014    -30965.49114
C35  22388224.95414       428.00514        26.20014     34947.84914
C30  26301797.54414     -4192.07414        25.60014   -322741.60214
R09  20391760.67814     -4370.49814        24.30014   -333662.19214
R19  21522642.88413     -4756.49213        22.70013   -363736.31613
> 2025 05 03 09 14 20.9999999  0 17                      
G26  20541463.24126      -325.24026        40.00026    -22513.33326
G29  22238303.54325     -3672.80525        33.70025   -284641.05625
G18  20645523.90125      -820.80225        33.30025    -33517.64325
G16  21711910.25715      1406.73115        32.10015    111950.81515
G05  23533471.41715     -2042.15515        31.60015   -156064.56615
G25  24580165.30614     -4880.04714        27.00014    -68142.73514
G23  23958177.19914      2058.72314        24.90014    161850.96014
G31  22322959.23713     -3796.33613        20.00013   -113866.28313
C26  22643524.01526      -348.28626        39.70026    -24381.62726
R10  19353446.58825      -881.81225        33.10025    -63525.60525
C08  38613971.90415      -929.69515        30.00015 -93736084.19415
C29  22090116.13115     -2771.38715        31.80015   -214218.71815
C13  38290254.20914      -425.52714        26.70014    -31383.41314
C35  22387906.87514       428.05814        26.10014     35381.66614
R09  20392342.87514     -4371.73114        24.20014   -338037.13914
C30  26302365.65114     -4194.05214        25.30014   -326927.82914
R19  21523282.64113     -4763.26913        22.60013   -368426.63813
> 2025 05 03 09 14 21.9999999  0 17                      
G26  20541287.86226      -325.90326        40.00026    -22833.01726
G18  20645442.65725      -821.38125        33.40025    -34332.81725
G29  22238772.71825     -3672.84425        33.70025   -288307.92025
G16  21711408.40525      1406.55225        32.10025    113363.41425
G05  23533628.50815     -2041.74515        31.00015   -158100.47215
G25  24580855.72814     -4869.92014        26.90014    -73009.53914
G23  23957558.12814      2056.71114        25.10014    163913.21914
G31  22323448.19813     -3796.97613        20.00013   -117657.37913
C26  22643355.23126      -349.02926        39.70026    -24724.48426
R10  19353375.23725      -882.59725        33.10025    -64409.56125
C08  38613912.84415      -927.56415        29.90015 -93737006.03615
C29  22090416.82315     -2775.65015        31.00015   -216986.81615
C13  38290094.41914      -428.43114        26.70014    -31804.82314
C35  22387571.40714       424.40214        25.90014     35813.74914
R09  20392929.26914     -4374.57714        24.60014   -342434.24514
C30  26302930.46014     -4207.32014        25.10014   -331121.87414
R19  21523923.59813     -4751.41913        22.50013   -373124.61213
> 2025 05 03 09 14 22.9999999  0 17                      
G26  20541132.87026      -326.56826        40.00026    -23153.34526
G18  20645388.09525      -822.22825        33.70025    -35148.74925
G29  22239249.08825     -3673.07125        33.60025   -291974.97825
G16  21710921.54225      1405.84325        32.20025    114775.45525
G05  23533790.99615     -2044.44615        30.50015   -160138.12715
G25  24581562.63814     -4869.91214        26.80014    -77874.47214
G23  23956949.24914      2058.30914        25.40014    165976.79114
G31  22323938.65913     -3797.66713        19.90013   -121448.91213
C26  22643202.03726      -349.67726        39.70026    -25067.97826
R10  19353324.57225      -883.74325        33.10025    -65305.68425
C08  38613874.47115      -925.41715        29.70015 -93737926.35315
C29  22090727.70715     -2773.75015        30.50015   -219754.77415
C13  38289959.51314      -430.82414        26.60014    -32227.52414
R09  20393535.44914     -4373.84414        24.90014   -346840.48014
C35  22387267.41714       427.71814        25.70014  31258206.20114
C30  26303523.74914     -4209.60414        24.90014   -335325.77714
R19  21524546.26713     -4746.59413        22.30013   -377624.31113
> 2025 05 03 09 14 23.9999999  0 17                      
G26  20540954.79326      -327.15626        39.90026    -23474.32926
G18  20645306.85125      -822.75625        33.80025    -35965.33525
G29  22239717.36425     -3673.46025        33.50025   -295642.40925
G16  21710416.09225      1405.53525        32.50025    116187.05625
G05  23533941.19215     -2044.95615        30.10015   -162176.75315
G25  24582262.05414     -4878.55714        26.70014    -82744.59414
G23  23956314.88814      2058.44314        25.40014    168040.84214
G31  22324426.72113     -3796.98213        19.80013   -125240.18313
C26  22643032.05526      -350.26426        39.60026    -25412.12526
R10  19353254.42125      -884.51025        33.10025    -66194.21625
C08  38613817.21115      -923.04615        29.60015 -93738844.62815
C29  22091031.09715     -2777.64815        29.90015   -222525.33215
C13  38289802.72114      -427.08514        26.60014    -32652.78114
R09  20394101.45714     -4374.41914        25.20014   -351128.32914
C35  22386960.13014       426.48314        25.50014  31258637.88014
C30  26304091.55614     -4211.79414        24.80014   -339530.72814
R19  21525216.60313     -4738.96013        22.20013   -382478.42713
> 2025 05 03 09 14 24.9999999  0 17                      
G26  20540778.51526      -327.86326        39.80026    -23795.99026
G18  20645228.90525      -823.70225        33.80025    -36782.75625
G29  22240181.74315     -3673.88315        33.50015   -299309.73415
G16  21709917.53725      1405.02725        32.80025    117598.18425
G05  23534097.38315     -2045.19115        29.80015   -164215.84815
G25  24582947.97914     -4882.37814        26.70014    -87618.98014
G23  23955683.52514      2055.26114        25.40014    170102.94214
G31  22324900.69313     -3799.06813        19.70013   -129032.74513
C26  22642859.67426      -350.91426        39.60026    -25756.91026
R10  19353183.97025      -885.58325        33.00025    -67083.51025
C08  38613756.05314      -924.13214        29.40014 -93739762.93514
C29  22091316.80014     -2775.39114        29.30014   -225295.24014
C13  38289646.82914      -429.77914        26.50014    -33074.19414
R09  20394699.24414     -4375.97614        25.70014   -355585.79314
C30  26304662.06114     -4208.29814        24.70014   -343734.72814
C35  22386646.24714       422.17714        25.40014  31259067.10014
R19  21525857.85913     -4735.98813        22.10013   -387177.93413
> 2025 05 03 09 14 26.0000000  0 17                      
G26  20540629.81826      -328.64226        39.60026    -24118.39626
G18  20645176.44225      -824.42825        33.90025    -37600.94025
G16  21709446.86325      1404.66425        33.00025    119008.91325
G29  22240673.10215     -3672.37015        33.50015   -302976.68215
G05  23534282.95515     -2046.66115        29.50015   -166256.07915
G25  24583666.58214     -4880.58514        26.60014    -92493.59314
G23  23955096.53214      2053.31114        25.80014    172163.09314
G31  22325425.33013     -3807.99813        19.50013   -132831.69013
C26  22642718.47226      -351.63326        39.50026    -26102.38726
R10  19353132.70525      -886.57025        33.00025    -67913.31425
C08  38613727.27314      -926.45114        29.30014 -93740682.79814
C29  22091624.98614     -2773.78614        28.80014   -228063.86114
R09  20395304.82414     -4376.47814        26.00014   -359926.35814
C13  38289519.11714      -435.81614        26.50014    -33501.56314
C30  26305264.04514     -4210.80914        24.80014   -347937.18714
C35  22386352.75014       419.66914        25.20014  31259494.01514
R19  21526532.09213     -4741.94913        21.90013   -391891.21713
> 2025 05 03 09 14 27.0000000  0 17                      
G26  20540455.93826      -329.06626        39.50026    -24441.33426
G18  20645095.49825      -824.89825        34.00025    -38419.69225
G16  21708936.61625      1404.20825        33.20025    120419.20425
G05  23534436.14914     -2043.71014        29.30014   -168294.72214
G29  22241142.57715     -3673.19315        33.00015   -306643.88715
G25  24584356.70414     -4875.27414        26.60014    -97364.74014
G23  23954464.86914      2051.88814        25.90014    174221.64614
G31  22325917.28913     -3815.76213        19.30013   -136637.94013
C26  22642547.89026      -352.17226        39.50026    -26448.45426
R10  19353069.74925      -887.41425        32.90025    -68840.74525
C08  38613669.11314      -927.29014        29.20014 -93741603.73914
C29  22091916.08514     -2769.53014        28.30014   -230829.21714
R09  20395879.52614     -4378.79614        26.20014   -364260.04814
C13  38289355.73114      -433.07814        26.30014    -33930.25514
C30  26305830.65214     -4207.01914        24.90014   -352138.81014
C35  22386049.36114       418.13314        25.10014  31259918.26714
R19  21527196.13213     -4746.61113        21.80013   -396712.42413
> 2025 05 03 09 14 28.0000000  0 17                      
G26  20540298.84726      -329.72126        39.50026    -24764.84926
G18  20645036.73825      -825.81025        34.20025    -39239.20425
G16  21708447.05525      1403.77625        33.50025    121829.09725
G29  22241612.95215     -3673.86315        31.90015   -310311.58715
G05  23534607.33014     -2046.23714        29.10014   -170334.48214
G25  24585065.11414     -4874.42314        26.50014   -102234.12814
G23  23953854.49214      2049.26614        26.10014    176277.95314
G31  22326408.34913     -3820.16313        19.20013   -140449.52113
C26  22642395.29626      -352.66726        39.50026    -26795.01226
R10  19353010.39025      -888.08125        32.90025    -69691.86625
C08  38613628.64114      -923.43914        29.10014 -93742522.43714
R09  20396497.09914     -4375.63714        26.40014   -368726.64314
C29  22092235.36414     -2773.53014        28.00014   -233596.11314
C13  38289219.32514      -431.11014        26.20014    -34357.35214
C30  26306421.24414     -4210.02014        25.20014   -356340.55514
C35  22385738.47614       419.89914        25.00014  31260343.19814
R19  21527888.65313     -4765.39613        21.60013   -401587.17113
> 2025 05 03 09 14 29.0000000  0 17                      
G26  20540122.86926      -330.26326        39.50026    -25088.96626
G18  20644954.89525      -826.17625        34.40025    -40059.26325
G16  21707943.10425      1403.60925        33.70025    123238.69825
G29  22242063.24015     -3674.68115        31.10015   -313980.04615
G05  23534771.91614     -2052.03014        28.90014   -172378.52714
G25  24585756.73514     -4878.10414        26.50014   -107105.43314
G23  23953215.33414      2050.55514        26.10014    178334.32414
G31  22326909.00313     -3822.09413        19.00013   -144264.21713
C26  22642226.21326      -353.13826        39.70026    -27142.09626
R10  19352936.94125      -889.07825        33.10025    -70563.61925
C08  38613565.68514      -923.77014        29.00014 -93743440.65614
R09  20397076.59814     -4377.07314        27.00014   -373087.07214
C29  22092530.65914     -2773.31914        27.60014   -236363.43214
C30  26306994.44714     -4209.85414        25.50014   -360546.78314
C13  38289064.33214      -428.31414        26.00014    -34781.00014
C35  22385422.79414       423.70214        24.90014  31260770.47414
R19  21528481.04313     -4758.04513        21.40013   -406024.91113
> 2025 05 03 09 14 30.0000000  0 17                      
G26  20539946.29126      -331.08526        39.50026    -25413.81926
G18  20644874.25125      -827.30825        34.70025    -40880.24525
G16  21707439.45225      1402.88325        33.70025    124647.73025
G29  22242525.82015     -3675.43415        30.50015   -317649.24915
G05  23534923.01214     -2052.77514        28.70014   -174424.48314
G23  23952602.25914      2055.82214        26.20014    180394.23914
G25  24586452.85314     -4874.64214        26.40014   -111975.05614
G31  22327391.66813     -3822.56513        18.90013   -148080.25213
C26  22642055.33126      -354.16326        40.00026    -27490.02626
R10  19352865.29025      -890.28425        33.10025    -71445.28725
C08  38613501.82914      -928.52814        28.90014 -93744361.87414
R09  20397654.29814     -4381.05014        27.60014   -377437.57514
C29  22092825.65514     -2774.86014        27.30014   -239131.90614
C30  26307555.95814     -4209.07914        25.70014   -364750.13914
C13  38288903.04414      -424.30714        25.80014    -35202.06614
C35  22385096.32014       423.66714        24.80014  31261200.68314
R19  21529106.71013     -4751.52513        21.20013   -410638.69313
> 2025 05 03 09 14 31.0000000  0 17                      
G26  20539772.71126      -331.91226        39.50026    -25739.47026
G18  20644795.70525      -828.15525        34.90025    -41702.10125
G16  21706929.50525      1402.29025        33.70025    126056.17725
G29  22242987.50015     -3675.70115        30.20015   -321318.87715
G05  23535060.61714     -2049.17514        28.60014   -176468.67814
G23  23951967.89814      2058.30514        26.30014    182456.99114
G25  24587140.87714     -4876.36614        26.30014   -116845.26914
G31  22327885.72613     -3821.86613        18.80013   -151896.26713
C26  22641886.54826      -354.73626        40.10026    -27838.62026
R10  19352794.23925      -891.17625        33.10025    -72330.00525
C08  38613443.66914      -928.02114        28.70014 -93745283.75514
R09  20398249.98514     -4379.18914        27.90014   -381885.10514
C30  26308133.35814     -4207.21814        25.80014   -368952.23214
C29  22093126.34714     -2777.14314        27.00014   -241902.28814
C35  22384773.44414       425.28914        24.80014  31261631.64714
C13  38288756.74514      -423.65514        25.60014    -35619.89414
R19  21529718.28613     -4753.55413        21.00013   -415178.99813
> 2025 05 03 09 14 32.0000001  0 17                      
G26  20539626.41326      -332.29326        39.50026    -26065.64026
G18  20644745.64025      -828.36825        34.90025    -42524.39025
G16  21706454.93425      1401.93025        33.70025    127464.18925
G29  22243479.16015     -3677.12115        30.00015   -324989.59315
G05  23535230.89914     -2051.48714        28.40014   -178513.82714
G23  23951369.21214      2055.22514        26.30014    184518.63414
G25  24587850.78514     -4874.65214        26.30014   -121714.53414
G31  22328413.36113     -3814.52613        18.80013   -155707.38313
C26  22641746.84526      -355.28326        40.10026    -28187.80026
R10  19352760.06315      -891.87215        33.10015    -73251.33415
R09  20398840.57714     -4377.18714        28.20014   -386143.91614
C08  38613411.89114      -928.33714        28.60014 -93746206.06714
C30  26308734.74214     -4207.66314        25.80014   -373153.84714
C29  22093454.62014     -2780.05814        26.70014   -244675.24814
C13  38288629.63314      -430.69314        25.40014    -36043.11014
C35  22384483.24514       418.35814        24.70014  31262058.63714
R19  21530515.13513     -4757.70813        20.80013   -420548.99113
> 2025 05 03 09 14 33.0000000  0 17                      
G26  20539440.84126      -333.11226        39.40026    -26392.49226
G18  20644655.10325      -829.52325        34.90025    -43347.55625
G16  21705937.19225      1401.63625        33.80025    128871.89625
G29  22243918.95515     -3674.70815        30.30015   -328659.02715
G05  23535362.80714     -2056.10614        28.30014   -180562.33614
G23  23950734.85114      2048.18014        26.30014    186575.24814
G25  24588539.10914     -4875.76514        26.20014   -126584.19014
G31  22328881.33713     -3815.16413        18.80013   -159517.25413
C26  22641565.17126      -355.97826        40.10026    -28537.60326
R09  20399416.17815     -4383.55015        30.40015   -390545.57015
R10  19352676.42125      -893.08225        33.00025    -74131.43925
C08  38613341.44014      -925.32014        28.50014 -93747126.47614
C30  26309289.35814     -4210.61214        25.80014   -377356.51514
C29  22093750.21514     -2783.59814        26.50014   -247451.39214
C13  38288457.85214      -434.46214        25.30014    -36468.14914
C35  22384158.56914       418.09414        24.70014  31262482.84114
R19  21531120.71513     -4758.62713        20.70013   -425119.10913
> 2025 05 03 09 14 34.0000001  0 17                      
G26  20539299.93926      -333.51026        39.40026    -26719.88726
G18  20644590.34725      -830.10425        34.90025    -44171.45125
G16  21705457.22525      1401.12425        33.80025    130279.11225
G29  22244422.00715     -3673.15315        30.30015   -332327.04515
G05  23535550.47714     -2051.73814        28.10014   -182609.10214
G23  23950133.46814      2052.66114        26.30014    188633.12514
G25  24589263.40714     -4879.59514        26.10014   -131456.57714
G31  22329409.27213     -3814.42613        18.80013   -163326.26613
C26  22641425.46726      -356.52326        40.10026    -28888.02426
R09  20400036.44915     -4381.00515        33.50015   -394964.83315
R10  19352628.75425      -893.88425        33.00025    -74981.83625
C08  38613316.85714      -922.16914        28.40014 -93748044.19714
C30  26309896.43814     -4214.62014        25.80014   -381563.40814
C29  22094071.89214     -2778.90114        26.20014   -250225.51414
C35  22383868.07114       420.44114        24.90014  31262907.60414
C13  38288337.33614      -436.43414        25.20014    -36899.04814
R19  21531800.04513     -4757.65013        20.50013   -429860.71213
> 2025 05 03 09 14 34.9999998  0 17                      
G26  20539030.42526      -334.29026        39.40026    -27047.96926
G18  20644417.96725      -830.87725        34.90025    -44996.09325
G16  21704858.83925      1400.70625        33.90025    131685.89725
G29  22244791.05215     -3677.05815        30.50015   -335997.18315
G05  23535615.23314     -2052.09414        28.00014   -184655.51214
G23  23949409.46914      2053.59214        26.30014    190692.05514
G25  24589852.79914     -4882.28114        26.00014   -136331.65514
G31  22329810.39413     -3807.92013        18.70013   -167130.64413
C26  22641164.64826      -357.16026        40.10026    -29239.06526
R10  19352481.55625      -895.02625        33.00025    -75940.53925
R09  20400526.31015     -4381.95115        33.40015   -399326.02915
C08  38613160.36514      -922.72514        28.20014 -93748961.38214
C29  22094282.94614     -2777.08914        26.00014   -252997.74214
C30  26310375.80614     -4217.09914        25.70014   -385773.28314
C35  22383466.64814       419.80914        25.00014  31263334.11914
C13  38288087.60914      -433.58514        25.10014    -37327.46914
R19  21532365.15413     -4750.83913        20.40013   -434633.69613
> 2025 05 03 09 14 35.9999999  0 17                      
G26  20538884.12626      -335.05026        39.30026    -27376.78826
G18  20644363.40525      -831.28325        35.00025    -45821.25425
G16  21704389.06425      1400.26025        34.00025    133092.24225
G29  22245279.11415     -3674.67315        31.00015   -339666.43815
G05  23535802.00314     -2054.78914        27.90014   -186703.60114
G23  23948806.58614      2043.44314        26.30014    192744.57014
G25  24590572.00114     -4881.83414        26.00014   -141207.33014
G31  22330332.03313     -3811.60713        18.90013   -170935.93413
C26  22641026.44426      -357.89726        40.20026    -29590.80426
R10  19352435.98725      -895.49825        33.00025    -76802.37625
R09  20401132.79015     -4385.52715        33.20015   -403672.70615
C08  38613136.98214      -932.21014        28.10014 -93749884.71014
C29  22094614.51714     -2775.86214        25.90014   -255768.52014
C35  22383174.05114       415.98714        25.20014  31263758.81614
C30  26310981.68614     -4215.64614        25.60014   -389982.89514
C13  38287955.70014      -430.34414        25.00014    -37752.04014
R19  21533078.96013     -4752.76913        20.30013   -439560.52513
> 2025 05 03 09 14 37.0000001  0 17                      
G26  20538792.09026      -335.67026        39.20026    -27706.22926
G18  20644359.20825      -832.48125        35.00025    -46647.35025
G16  21703964.85825      1399.68525        34.10025    134498.09325
G29  22245819.04015     -3680.25715        31.20015   -343339.08315
G05  23536034.04314     -2056.68014        27.90014   -188753.47314
G23  23948252.27014      2051.02214        26.20014    194800.03614
G25  24591347.56414     -4884.74814        25.90014   -146085.11114
G31  22330900.43913     -3815.41813        19.00013   -174744.03313
C26  22640934.40726      -358.34126        40.20026    -29943.03426
R10  19352435.38825      -896.62225        33.00025    -77645.10825
R09  20401778.84215     -4384.80915        32.90015   -407968.15715
C08  38613155.56914      -931.32214        27.90014 -93750809.45914
C29  22094988.65814     -2778.49214        25.90014   -258540.53314
C35  22382930.62014       414.37614        25.20014  31264181.18214
C13  38287876.85414      -421.20514        25.00014    -38172.76614
C30  26311615.74714     -4215.87714        25.50014   -394192.92414
R19  21533749.29613     -4750.38613        20.20013   -443995.16713
> 2025 05 03 09 14 37.9999998  0 16                      
G26  20538527.07426      -336.01826        39.20026    -28036.15826
G05  23536096.99915     -2053.57715        31.80015   -190801.91915
G18  20644182.63025      -832.64925        35.00025    -47473.91825
G16  21703362.87525      1399.66225        34.10025    135903.71525
G29  22246183.88715     -3676.02815        31.20015   -347010.08915
G23  23947533.96714      2054.33914        26.30014    196858.64914
G25  24591951.34614     -4887.18614        25.80014   -150965.26814
G31  22331289.57013     -3821.32613        19.00013   -178557.05513
C26  22640673.88826      -358.92426        40.30026    -30295.86626
R10  19352275.59825      -897.21925        33.00025    -78538.21625
C08  38613007.47114      -931.06014        27.80014 -93751734.55414
C29  22095190.11814     -2781.35314        25.90014   -261314.91314
C35  22382524.70114       415.57214        25.20014  31264602.29214
C13  38287631.62414      -422.50314        24.90014    -38588.46614
C30  26312091.51814     -4203.94514        25.40014   -398396.32714
R19  21534343.78413     -4753.19313        20.10013   -448925.05913
> 2025 05 03 09 14 38.9999999  0 17                      
G26  20538383.77326      -336.90626        39.10026    -28366.83026
G05  23536278.67326     -2057.64126        36.30026   -192852.58826
G18  20644144.55625      -833.75525        35.00025    -48301.36925
G16  21702890.10225      1398.97825        34.10025    137308.81825
G29  22246675.54715     -3679.23115        31.20015   -350682.67115
G23  23946949.37214      2049.68614        26.70014    198915.22014
G25  24592678.34314     -4880.63814        25.70014   -155841.83914
G31  22331817.80413     -3822.47213        19.00013   -182372.47013
C26  22640536.28326      -359.66926        40.30026    -30649.38326
R10  19352245.31925      -898.75925        33.00025    -79480.13825
C08  38612974.49414      -926.87414        27.80014 -93752656.96214
C29  22095507.89814     -2782.10014        26.20014   -264090.56714
C35  22382241.09714       417.08514        25.20014  31265024.84314
C30  26312681.80914     -4202.80814        25.20014   -402593.67014
C13  38287502.11414      -426.68714        24.90014    -39006.16214
R09  20402920.45215     -4382.43615        30.90015   -416918.99315
R19  21535048.29613     -4755.44913        20.30013   -453802.13713
> 2025 05 03 09 14 39.9999999  0 17                      
G26  20538209.89326      -337.40926        39.10026    -28698.08426
G05  23536429.76926     -2057.47926        36.30026   -194903.88926
G18  20644073.20625      -834.18525        34.90025    -49129.40125
G16  21702394.24525      1398.42225        34.10025    138713.37725
G29  22247135.72815     -3679.76015        31.30015   -354356.13215
G23  23946338.69514      2042.98614        26.70014    200966.64514
G25  24593362.46914     -4880.93114        25.60014   -160717.41014
G31  22332299.87113     -3822.57813        18.90013   -186188.75313
C26  22640369.29826      -360.21526        40.30026    -31003.49226
R10  19352173.96925      -899.30025        32.90025    -80364.09525
C08  38612918.73314      -929.16114        27.70014 -93753580.00014
C29  22095801.99514     -2777.12514        26.40014   -266863.33114
C35  22381910.12614       415.97114        25.20014  31265447.28914
C30  26313255.31214     -4198.82914        25.10014   -406788.09814
C13  38287346.82114      -431.36014        24.80014    -39428.35514
R09  20403485.26114     -4384.15214        29.20014   -421200.72614
R19  21535714.13513     -4760.28413        20.50013   -458632.52813
> 2025 05 03 09 14 40.9999999  0 17                      
G26  20538033.01626      -338.13726        39.10026    -29030.01826
G05  23536580.26526     -2058.29826        36.20026   -196955.94726
G18  20643993.46125      -835.08225        34.80025    -49958.22525
G16  21701896.29025      1398.29025        34.10025    140117.66625
G29  22247593.21215     -3677.88715        31.30015   -358028.63715
G23  23945700.73614      2042.49114        26.70014    203016.02314
G25  24594039.10114     -4877.00014        25.50014   -165590.02814
G31  22332785.23413     -3818.02413        18.80013   -190002.29013
C26  22640199.91626      -360.81026        40.20026    -31358.19526
R10  19352095.72325      -900.23525        32.90025    -81210.67825
C08  38612859.97314      -934.79314        27.70014 -93754507.00114
C29  22096100.58814     -2780.04314        26.50014   -269637.07514
R09  20404054.26714     -4386.57914        28.10014   -425505.38214
C35  22381591.74614       418.25114        25.30014  31265869.52614
C13  38287190.62914      -435.95514        24.70014    -39857.02314
C30  26313828.21614     -4203.42414        24.90014   -410983.64114
R19  21536338.90313     -4761.21113        20.50013   -463241.71713
> 2025 05 03 09 14 41.9999999  0 17                      
G26  20537879.82226      -338.73326        39.10026    -29362.54026
G05  23536754.44426     -2059.39826        36.10026   -199008.95426
G18  20643931.10425      -835.64225        34.80025    -50787.64925
G16  21701412.72525      1397.59525        34.10025    141521.43825
G29  22248078.87515     -3679.30515        31.20015   -361701.73115
G23  23945100.85214      2051.03814        26.60014    205070.45514
G25  24594746.61114     -4878.02614        25.50014   -170462.30814
G31  22333291.28413     -3817.68513        18.70013   -193814.64913
C26  22640048.22126      -361.47626        40.10026    -31713.50426
R10  19352044.15925      -901.34425        32.80025    -82100.69825
C08  38612819.50114      -930.11114        27.80014 -93755432.16614
C29  22096405.47714     -2783.25114        26.50014   -272413.24914
R09  20404663.44514     -4386.04214        27.50014   -429925.37114
C35  22381299.14914       413.32014        25.30014  31266291.33714
C13  38287056.32214      -435.66814        24.60014    -40288.00914
C30  26314401.71914     -4204.43814        24.70014   -415180.95714
R19  21537036.22013     -4758.23613        20.50013   -468142.48513
> 2025 05 03 09 14 42.9999999  0 17                      
G26  20537705.64226      -339.51326        39.00026    -29695.82626
G05  23536908.53726     -2059.62426        35.90026   -201062.97726
G18  20643857.95525      -836.76825        34.70025    -51618.07325
G16  21700910.27225      1397.11125        34.10025    142924.66725
G29  22248536.35915     -3680.19215        31.20015   -365375.66315
G23  23944466.49114      2049.79914        26.50014    207125.69614
G25  24595444.22814     -4876.34514        25.40014   -175333.40414
G31  22333786.24213     -3821.02413        18.70013   -197628.88913
C26  22639879.43826      -362.24426        40.00026    -32069.57526
R10  19351977.60525      -902.19725        32.80025    -83009.82325
C08  38612754.44614      -930.39214        27.90014 -93756356.95514
C29  22096705.56914     -2785.53914        26.70014   -275191.80714
R09  20405245.34314     -4386.41214        27.20014   -434298.79514
C35  22380971.17614       415.43914        25.50014  31266712.08714
C13  38286908.82514      -433.69914        24.90014    -40716.86914
C30  26314961.73114     -4207.13714        24.50014   -419379.91114
R19  21537664.88513     -4752.02013        20.70013   -472773.10513
> 2025 05 03 09 14 43.9999999  0 17                      
G26  20537532.96226      -340.26026        39.10026    -30029.85326
G05  23537065.62926     -2060.83726        35.70026   -203117.46826
G18  20643779.10925      -837.22925        34.70025    -52449.12525
G16  21700400.92525      1396.77425        34.10025    144327.50325
G29  22249004.63515     -3676.32415        31.20015   -369047.28215
G23  23943828.23314      2044.66114        26.60014    209177.79314
G25  24596127.45514     -4872.81714        25.30014   -180201.74114
G31  22334270.40613     -3819.75513        18.60013   -201442.90013
C26  22639713.05326      -362.86726        40.00026    -32426.30426
R10  19351913.14925      -903.15925        32.90025    -83931.15225
C08  38612695.38714      -931.32414        28.00014 -93757282.22814
C29  22096997.56714     -2784.17614        26.70014   -277970.23814
R09  20405832.33614     -4391.74014        27.10014   -438698.95414
C35  22380664.18914       416.82014        25.90014  31267134.11214
C13  38286755.93014      -432.47114        25.20014    -41144.09914
C30  26315523.54214     -4209.19114        24.30014   -423581.94414
R19  21538320.83113     -4745.35813        20.80013   -477551.44713
> 2025 05 03 09 14 45.0000000  0 17                      
G26  20537391.76026      -340.54426        39.30026    -30364.31626
G05  23537251.20026     -2061.36226        35.50026   -205172.63226
G18  20643727.24525      -837.89725        34.80025    -53280.83225
G16  21699921.25725      1396.36425        34.10025    145729.93325
G29  22249500.19215     -3679.07115        31.20015   -372719.96215
G23  23943232.24514      2047.49514        26.60014    211230.73214
G25  24596841.26114     -4871.58814        25.10014   -185068.33914
G31  22334786.64913     -3823.76813        18.60013   -205259.50713
C26  22639571.55126      -363.27326        40.20026    -32783.52226
R10  19351870.27925      -903.91825        33.10025    -84805.19225
C08  38612662.41014      -932.22714        28.20014 -93758208.26414
C29  22097331.83514     -2781.25114        26.60014   -280746.67714
C35  22380368.29314       415.84014        26.20014  31267556.72414
R09  20406443.01314     -4388.21014        26.90014   -443066.26314
C13  38286631.21714      -432.69614        25.60014    -41570.91214
C30  26316129.72214     -4210.64614        24.00014   -427786.01214
R19  21538986.97013     -4744.49413        20.80013   -482221.86913
> 2025 05 03 09 14 46.0000000  0 16                      
G26  20537222.07726      -341.57226        39.40026    -30699.60926
G18  20643649.59925      -838.78025        34.80025    -54113.34625
G05  23537401.39625     -2062.56025        35.40025   -207228.81925
G16  21699412.50925      1395.75025        34.10025    147131.81925
G29  22249958.27415     -3681.30215        31.30015   -376394.48315
G23  23942604.48014      2047.21014        26.60014    213283.76114
G25  24597523.88914     -4873.78314        25.00014   -189935.82114
G31  22335278.30913     -3826.29213        18.50013   -209078.66513
C26  22639403.96726      -364.18426        40.20026    -33141.51126
R10  19351814.81725      -905.22725        33.30025    -85774.57325
C08  38612609.94614      -933.42614        28.50014 -93759135.35414
C13  38286482.81914      -432.63914        26.20014    -41998.53514
C35  22380053.81114       410.87514        26.20014  31267976.66414
C29  22097627.73114     -2782.62114        26.60014   -283523.36614
R09  20407037.50214     -4392.48114        26.60014   -447507.68714
C30  26316706.22314     -4216.88514        23.80014   -431994.09914
> 2025 05 03 09 14 47.0000000  0 16                      
G26  20537064.08626      -341.80626        39.60026    -31035.29926
G18  20643587.84225      -839.04525        34.80025    -54946.26925
G05  23537566.28225     -2062.70925        35.20025   -209285.41025
G16  21698927.74525      1395.59925        34.10025    148533.46025
G29  22250435.24415     -3681.07315        31.40015   -380069.42915
G23  23941994.40214      2052.66514        26.70014    215340.49414
G25  24598242.49114     -4876.43414        24.90014   -194805.32714
G31  22335790.65413     -3827.70213        18.50013   -212899.57513
C26  22639254.07126      -364.55126        40.30026    -33499.96526
R10  19351762.05425      -905.78225        33.40025    -86659.25525
C08  38612565.27714      -929.95314        28.60014 -93760060.44314
C13  38286346.71414      -431.98914        26.70014    -42426.45914
C35  22379755.81714       410.46414        26.40014  31268394.03714
R09  20407634.98814     -4390.07514        26.50014   -451865.78314
C29  22097934.71814     -2784.12714        26.50014   -286301.10514
C30  26317300.11214     -4214.31714        23.50014   -436204.24714
> 2025 05 03 09 14 48.0000000  0 16                      
G26  20536887.80826      -342.76226        39.60026    -31371.80826
G18  20643508.69625      -840.27825        34.80025    -55780.19925
G05  23537716.77815     -2064.79215        35.00015   -211343.07315
G16  21698432.78825      1394.94825        34.10025    149934.53725
G29  22250896.92515     -3676.61815        31.40015   -383741.59515
G23  23941359.44214      2050.86714        26.80014    217397.21414
G25  24598931.11414     -4877.48714        24.80014   -199676.25914
G31  22336293.70613     -3828.82313        18.50013   -216721.86613
C26  22639088.28526      -365.35926        40.30026    -33859.16126
R10  19351689.50425      -906.84525        33.50025    -87536.34625
C08  38612508.01714      -935.66114        28.90014 -93760988.71914
C13  38286190.52214      -434.06714        26.90014    -42853.43714
R09  20408222.88114     -4394.90714        26.60014   -456270.53014
C35  22379438.63714       413.66114        26.60014  31268813.19214
C29  22098232.71214     -2777.76814        26.30014   -289075.00414
C30  26317883.20913     -4212.35113        23.20013   -440411.76413
> 2025 05 03 09 14 49.0000000  0 16                      
G26  20536714.52826      -343.01226        39.70026    -31708.74326
G18  20643429.25125      -840.60025        34.80025    -56614.66825
G05  23537869.97215     -2063.91615        34.80015   -213401.16315
G16  21697928.53725      1394.74925        34.00025    151335.30525
G29  22251357.70615     -3684.36015        31.50015   -387417.98415
G23  23940714.58814      2048.00114        26.90014    219452.03114
G25  24599624.83414     -4880.70114        24.70014   -204549.79814
G31  22336788.06313     -3819.71513        18.60013   -220538.53213
C26  22638919.50226      -365.61526        40.30026    -34218.76426
R10  19351622.35125      -907.62725        33.60025    -88440.89625
C08  38612453.15514      -934.29714        28.90014 -93761917.13614
C13  38286038.52714      -435.95114        27.40014    -43282.69414
R09  20408813.77214     -4391.35614        27.00014   -460692.08614
C35  22379121.75614       411.70514        26.80014  31269229.40014
C29  22098525.00914     -2773.49614        26.20014   -291844.76314
C30  26318463.90713     -4207.83513        23.00013   -444616.13013
> 2025 05 03 09 14 50.0000000  0 16                      
G26  20536543.64726      -343.95626        39.80026    -32046.45026
G18  20643353.70425      -841.61225        34.90025    -57449.99025
G16  21697421.88725      1394.24925        34.00025    152735.63625
G05  23538031.86025     -2065.75425        34.70025   -215460.45525
G29  22251826.88115     -3682.34215        31.50015   -391094.43415
G23  23940091.02014      2050.93714        26.90014    221508.17214
G25  24600314.65714     -4884.16714        24.50014   -209426.51614
G31  22337276.72513     -3818.19113        18.70013   -224352.30913
C26  22638751.91826      -366.61026        40.30026    -34579.16526
R10  19351556.99625      -908.49625        33.80025    -89356.12225
C08  38612393.49614      -936.55714        29.00014 -93762847.10714
C13  38285883.23514      -433.14714        27.70014    -43713.33314
R09  20409403.16414     -4393.02414        27.60014   -465105.99814
C35  22378812.37114       409.47814        27.00014  31269647.17914
C29  22098831.09814     -2767.81514        26.00014   -294609.35414
C30  26319023.91913     -4204.33113        22.80013   -448815.42013
> 2025 05 03 09 14 51.0000001  0 16                      
G26  20536401.54526      -344.51426        39.90026    -32384.78726
G18  20643305.13725      -841.86925        34.90025    -58285.76925
G16  21696943.41925      1393.79325        34.00025    154135.51825
G05  23538217.13115     -2064.67615        34.50015   -217519.42815
G29  22252324.53615     -3680.32515        31.50015   -394769.56115
G23  23939496.53114      2054.92414        26.80014    223567.41114
G25  24601034.15814     -4883.60614        24.40014   -214303.92014
G31  22337795.66613     -3820.30813        18.80013   -228166.53213
C26  22638612.21526      -366.93926        40.40026    -34940.05126
R10  19351524.91825      -909.66525        33.90025    -90290.41725
C08  38612368.31414      -931.84114        29.20014 -93763774.45214
R09  20410002.15014     -4391.89814        28.10014   -469409.89114
C13  38285761.21914      -437.47914        27.90014    -44142.24714
C35  22378516.17614       409.97314        27.20014  31270063.61314
C29  22099164.76714     -2776.90614        25.80014   -297378.28214
C30  26319625.30313     -4207.74913        22.60013   -453015.26113
> 2025 05 03 09 14 52.0000000  0 16                      
G26  20536218.37226      -345.11926        39.90026    -32723.69926
G18  20643216.09925      -842.96025        34.90025    -59122.39025
G16  21696430.47425      1393.34925        34.00025    155534.99125
G05  23538365.82815     -2067.28315        34.30015   -219579.99715
G29  22252776.32415     -3683.62715        31.50015   -398446.41015
G23  23938857.37414      2048.98214        26.90014    225623.75914
G25  24601716.78614     -4888.99214        24.30014   -219185.10614
G31  22338284.02813     -3822.67513        19.10013   -231982.44713
C26  22638434.13826      -367.74526        40.40026    -35301.60126
R10  19351436.77925      -910.43425        33.90025    -91145.35325
C08  38612292.46614      -937.63114        29.40014 -93764704.74514
R09  20410575.95214     -4394.34514        28.40014   -473801.60914
C13  38285594.53414      -439.31714        28.00014    -44573.44114
C35  22378188.80214       413.46214        27.20014  31270479.52914
C29  22099447.17114     -2787.52214        25.60014   -300155.69814
C30  26320177.52013     -4207.02913        22.50013   -457216.55913
> 2025 05 03 09 14 53.0000001  0 16                      
G26  20536078.36926      -345.87126        39.90026    -33063.35426
G18  20643163.63525      -843.82825        34.90025    -59959.92025
G16  21695954.40325      1392.82825        34.20025    156933.93125
G05  23538538.20925     -2067.85525        34.00025   -221641.52825
G29  22253267.08415     -3681.83915        31.60015   -402122.69115
G23  23938263.48514      2047.90514        26.90014    227678.37514
G25  24602442.28414     -4887.48114        24.20014   -224066.59514
G31  22338801.47013     -3826.51313        19.50013   -235801.53213
C26  22638296.23426      -368.42126        40.40026    -35663.87026
R10  19351403.20225      -911.28425        33.90025    -92071.25725
C08  38612260.68815      -935.19515        29.50015 -93765634.44515
R09  20411196.52314     -4392.58914        28.40014   -478221.63414
C13  38285467.42214      -433.28514        28.10014    -45004.47914
C35  22377898.60314       413.11514        27.20014  31270900.26514
C29  22099777.84214     -2787.32214        25.90014   -302935.85814
C30  26320784.00013     -4206.69313        22.30013   -461417.51813
> 2025 05 03 09 14 53.9999998  0 16                      
G26  20535813.95226      -346.27826        39.90026    -33403.51626
G18  20642998.15025      -843.97325        34.80025    -60797.83725
G16  21695363.21325      1392.79125        34.30025    158332.68225
G05  23538609.26025     -2067.95725        33.80025   -223703.43525
G29  22253639.72615     -3678.72915        31.70015   -405796.69815
G23  23937546.68114      2047.78014        27.10014    229732.34414
G25  24603051.76214     -4880.84114        24.10014   -228943.74614
G31  22339200.79313     -3823.29213        19.50013   -239619.51513
C26  22638039.31126      -368.61826        40.30026    -36026.49926
R10  19351244.31225      -912.26525        33.90025    -92967.41725
C08  38612114.09015      -934.06215        29.60015 -93766563.18115
R09  20411676.79014     -4397.00914        28.40014   -482533.16614
C13  38285223.69114      -441.33014        28.10014    -45436.20114
C35  22377493.58414       409.94614        27.10014  31271318.62814
C29  22099987.39714     -2789.50414        26.50014   -305718.37614
C30  26321279.85713     -4205.83713        22.10013   -465617.59413
> 2025 05 03 09 14 54.9999999  0 17                      
G26  20535670.05126      -347.04126        39.80026    -33744.35526
G18  20642945.98625      -844.95525        34.80025    -61636.53825
G16  21694895.83625      1392.00125        34.40025    159730.84225
G05  23538795.13125     -2069.28225        33.60025   -225766.85125
G29  22254127.78815     -3681.55915        31.70015   -409471.83215
G23  23936952.49314      2050.84614        27.30014    231788.14114
G25  24603766.46714     -4880.72814        24.00014   -233819.37514
G31  22339719.73413     -3819.82313        19.50013   -243434.81713
C26  22637903.50626      -369.63526        40.20026    -36389.92526
R10  19351214.03325      -913.22225        33.90025    -93908.57725
C08  38612093.40415      -932.18015        29.60015 -93767490.34015
C13  38285102.57514      -438.93914        28.10014    -45869.42814
R09  20412339.63114     -4393.24814        28.40014   -487178.59314
C35  22377212.67814       411.63814        27.10014  31271737.39414
C29  22100316.86914     -2784.14814        26.80014   -308498.10914
C30  26321885.13813     -4206.78813        21.90013   -469818.81813
R19  21545551.52513     -4754.38913        21.20013    -14444.54213
> 2025 05 03 09 14 55.9999999  0 17                      
G26  20535499.17026      -347.54526        39.80026    -34085.75626
G18  20642875.53525      -845.54725        34.80025    -62475.89425
G16  21694394.58325      1391.90425        34.50025    161128.74125
G05  23538953.42225     -2069.62325        33.40025   -227830.33125
G29  22254585.27115     -3683.31215        31.70015   -413148.51115
G23  23936318.13214      2046.64814        27.50014    233841.74814
G25  24604457.48914     -4885.13914        23.90014   -238697.43814
G31  22340204.79813     -3823.91713        19.40013   -247251.95613
C26  22637738.32026      -370.00226        40.10026    -36753.86226
R10  19351139.08525      -913.86925        33.90025    -94774.22825
C08  38612029.54815      -936.72015        29.60015 -93768420.00015
C13  38284941.58614      -436.72714        28.10014    -46300.71014
R09  20412899.64414     -4403.51214        28.30014   -491435.11514
C35  22376894.89814       408.00814        27.00014  31272152.89214
C29  22100622.35814     -2783.37214        26.90014   -311276.39614
C30  26322453.54513     -4207.08413        21.80013   -474020.16313
R19  21546231.75413     -4753.24113        21.20013    -19352.23713
> 2025 05 03 09 14 56.9999999  0 17                      
G26  20535321.69326      -348.33826        39.80026    -34427.87326
G18  20642796.68925      -846.49025        34.80025    -63316.09825
G16  21693888.83325      1391.07325        34.60025    162526.00025
G05  23539115.01025     -2070.69325        33.30025   -229894.71225
G29  22255053.24715     -3680.85915        31.60015   -416824.07015
G23  23935688.86714      2043.17414        27.70014    235892.31014
G25  24605141.01514     -4880.22614        23.90014   -243573.03714
G31  22340690.46213     -3821.22313        19.30013   -251067.91113
C26  22637569.23726      -370.79526        40.00026    -37118.49826
R10  19351075.82925      -915.02225        33.80025    -95699.37025
C08  38611972.58815      -938.54515        29.70015 -93769351.71115
C13  38284791.09114      -434.89714        28.10014    -46730.45114
R09  20413482.74014     -4397.10614        28.20014   -495813.87914
C35  22376575.31914       410.66414        27.10014  31272569.03814
C29  22100908.06014     -2786.36114        26.90014   -314056.19414
C30  26323033.34313     -4206.02013        21.60013   -478221.36813
R19  21546868.51313     -4766.54913        21.20013    -24026.48713
> 2025 05 03 09 14 57.9999999  0 17                      
G26  20535167.89926      -349.00426        39.70026    -34770.63626
G18  20642737.33025      -847.11725        34.80025    -64156.96525
G16  21693405.86825      1390.76825        34.60025    163922.87725
G05  23539292.78725     -2071.51125        33.20025   -231959.90225
G29  22255534.71415     -3684.36815        31.50015   -420501.55815
G23  23935074.59314      2047.66814        28.00014    237944.88914
G25  24605849.12514     -4885.17414        23.80014   -248451.07614
G31  22341188.71713     -3821.75413        19.20013   -254883.78713
C26  22637420.54026      -371.44126        39.90026    -37483.76126
R10  19351029.36125      -916.03525        33.80025    -96619.13625
C08  38611930.91615      -936.68415        29.70015 -93770282.82815
C13  38284655.28514      -437.35214        28.10014    -47159.78614
C35  22376273.42814       409.47414        27.30014  31272983.26714
R09  20414120.99814     -4395.02014        28.00014   -500389.73314
C29  22101221.94214     -2782.64714        26.90014   -316833.98314
C30  26323627.83213     -4207.46913        21.50013   -482422.90413
R19  21547564.03213     -4772.52113        21.10013    -28916.54013
> 2025 05 03 09 14 58.9999999  0 17                      
G26  20534995.21926      -349.78026        39.70026    -35114.18126
G18  20642658.48525      -848.01825        34.80025    -64998.70425
G16  21692902.81625      1390.16625        34.60025    165319.17725
G05  23539443.58225     -2072.24325        33.10025   -234025.89825
G29  22255997.89315     -3687.96115        31.40015   -424182.13315
G23  23934449.82514      2046.61614        28.20014    239997.39014
G25  24606544.04414     -4883.41514        23.80014   -253328.80514
G31  22341686.07313     -3823.60313        19.10013   -258700.92013
C26  22637252.35626      -372.22026        39.80026    -37849.80126
R10  19350961.30825      -917.12325        33.90025    -97519.87225
C08  38611877.55315      -939.73015        29.70015 -93771215.82715
C13  38284496.09514      -437.91714        28.10014    -47591.00014
C35  22375967.04014       407.56014        27.30014  31273397.89014
R09  20414689.10514     -4403.82414        27.80014   -504690.57614
C29  22101512.14214     -2776.22114        26.90014   -319606.86714
C30  26324207.33013     -4208.73913        21.50013   -486625.09613
R19  21548194.79513     -4782.13813        21.00013    -33558.64413
> 2025 05 03 09 14 59.9999999  0 17                      
G26  20534826.73526      -350.36326        39.70026    -35458.36226
G18  20642582.93725      -848.58825        34.90025    -65841.10125
G16  21692402.16225      1389.85925        34.60025    166715.09325
G05  23539600.37425     -2073.13725        33.10025   -236092.74725
G29  22256464.37015     -3684.25415        31.20015   -427861.25415
G23  23933818.16214      2046.97314        28.20014    242050.11614
G25  24607241.96114     -4884.14314        23.70014   -258206.90414
G31  22342172.63613     -3824.13413        19.00013   -262518.81413
C26  22637085.67226      -372.72426        39.70026    -38216.42426
R10  19350898.35225      -917.81325        33.90025    -98447.30325
C08  38611809.50115      -940.02015        29.70015 -93772149.63315
C13  38284342.60114      -436.98814        28.10014    -48021.94914
C35  22375649.86014       411.57714        27.40014  31273811.61214
R09  20415292.88714     -4406.66214        27.60014   -509180.89114
C29  22101805.33914     -2784.36014        26.90014   -322383.53014
C30  26324770.94013     -4211.84813        21.50013   -490830.36213
R19  21548835.15213     -4789.18213        20.80013    -38253.55813
> 2025 05 03 09 15 00.9999998  0 17                      
G26  20534657.05326      -351.06526        39.60026    -35803.22426
G18  20642508.88825      -849.43425        34.90025    -66684.28125
G16  21691895.21325      1389.18725        34.60025    168110.43325
G05  23539761.36225     -2073.92625        33.10025   -238160.40725
G29  22256931.44715     -3683.57115        31.10015   -431539.43515
G23  23933193.99514      2040.46114        28.20014    244098.57514
G25  24607932.98214     -4882.23314        23.70014   -263083.85214
G31  22342670.89113     -3820.05813        18.90013   -266334.24313
C26  22636918.98726      -373.30726        39.70026    -38583.63026
R10  19350825.20225      -918.93225        33.90025    -99322.86925
C08  38611749.54215      -936.56515        29.60015 -93773081.40615
C13  38284187.30914      -438.37214        28.10014    -48454.04514
C35  22375328.18314       408.15214        27.40014  31274227.76014
R09  20415866.98914     -4399.13614        27.40014   -513513.81214
C29  22102097.63614     -2790.59114        26.80014   -325165.60714
C30  26325349.54013     -4209.08413        21.50013   -495035.93013
R19  21549503.08913     -4786.68613        20.70013    -43096.19413
> 2025 05 03 09 15 02.0000000  0 18                      
G26  20534514.95126      -351.59326        39.60026    -36148.66426
G18  20642463.92025      -850.14525        35.00025    -67528.19525
G16  21691425.43925      1388.97725        34.60025    169505.44025
G05  23539943.33625     -2074.60725        33.10025   -240228.79025
G29  22257414.11315     -3689.05315        31.00015   -435220.95615
G23  23932589.31314      2046.95014        28.20014    246149.93814
G25  24608654.88314     -4878.80914        23.60014   -267958.13414
G28  23651332.72313     -4681.16113        20.80013   -214651.76513
G31  22343196.72713     -3821.38113        18.80013   -270149.73313
C26  22636782.28226      -374.09426        39.60026    -38951.55526
R10  19350794.92325      -919.83725        33.90025   -100265.55425
C08  38611724.06015      -936.56315        29.50015 -93774012.50015
C13  38284068.29114      -437.21214        28.00014    -48887.69514
C35  22375045.17914       409.61014        27.60014  31274642.40014
R09  20416486.36114     -4399.01214        27.30014   -517926.20114
C29  22102419.31414     -2794.52014        26.70014   -327952.10714
C30  26325950.32413     -4203.48313        21.40013   -499236.48313
R19  21550196.50913     -4793.05313        20.50013    -47912.80713
> 2025 05 03 09 15 02.9999998  0 18                      
G26  20534332.97726      -352.24326        39.60026    -36494.69426
G18  20642375.78125      -850.53525        35.10025    -68372.57925
G16  21690907.09725      1388.52625        34.60025    170900.07225
G05  23540083.33925     -2075.48525        33.00025   -242297.96325
G29  22257865.60015     -3683.73415        30.90015   -438900.00915
G23  23931947.15814      2043.35014        28.10014    248199.90614
G25  24609345.30514     -4885.32014        23.80014   -272835.83314
G28  23651961.08813     -4682.10713        20.80013   -219327.97613
G31  22343673.99613     -3823.84813        18.80013   -273966.85213
C26  22636604.80526      -374.54626        39.50026    -39319.98426
R10  19350708.88325      -920.62025        33.90025   -101132.69225
C08  38611656.60615      -935.96115        29.50015 -93774942.93015
C13  38283899.50814      -438.45214        28.00014    -49321.25014
C35  22374712.10914       408.98714        27.70014  31275058.42614
R09  20417035.58014     -4407.11014        27.10014   -522187.26914
C29  22102708.01414     -2790.92914        26.60014   -330737.65214
C30  26326507.33813     -4200.52213        21.30013   -503431.00213
R19  21550843.46213     -4804.00413        20.30013    -52704.12513
> 2025 05 03 09 15 04.0000000  0 18                      
G26  20534192.97426      -352.79126        39.50026    -36841.33526
G18  20642326.91425      -851.52725        35.10025    -69217.82825
G16  21690432.82625      1388.10825        34.60025    172294.25225
G05  23540271.90925     -2076.00525        33.00025   -244367.79525
G29  22258365.35415     -3684.09315        30.70015   -442578.52715
G23  23931354.46814      2040.92514        28.10014    250247.74314
G25  24610061.50914     -4883.76314        23.80014   -277713.68014
G28  23652647.01313     -4683.76713        20.90013   -224005.32913
G31  22344203.73013     -3833.70813        18.70013   -277791.13513
C26  22636467.50026      -375.13926        39.50026    -39689.02626
R10  19350682.50125      -921.54225        33.90025   -102095.97025
C08  38611627.22714      -942.16614        29.40014 -93775877.32314
C13  38283778.39214      -442.12814        28.00014    -49756.92114
C35  22374429.70514       407.17814        27.80014  31275473.96814
R09  20417661.84714     -4402.07314        27.00014   -526637.85514
C29  22103040.18414     -2783.15714        26.50014   -333517.74514
C30  26327088.03613     -4201.77213        21.20013   -507626.02913
R19  21551528.48713     -4807.66613        20.10013    -57476.34413
> 2025 05 03 09 15 05.0000000  0 18                      
G26  20534024.49126      -353.36626        39.50026    -37188.55126
G18  20642253.16525      -851.93125        35.10025    -70063.62425
G16  21689937.56925      1387.86525        34.50025    173688.13225
G05  23540430.79925     -2076.64425        33.00025   -246438.26125
G29  22258828.23415     -3683.70615        30.60015   -446256.59715
G23  23930731.20014      2047.74714        28.00014    252299.43014
G25  24610750.13214     -4883.48814        23.80014   -282591.38114
G28  23653304.75813     -4681.87313        21.00013   -228681.78913
G31  22344705.28213     -3832.18213        18.50013   -281616.77813
C26  22636301.11526      -375.56726        39.40026    -40058.54426
R10  19350618.04625      -922.51925        33.90025   -103016.53825
C08  38611575.06314      -940.41714        29.30014 -93776811.85914
C13  38283618.00314      -439.50114        28.00014    -50192.03914
C35  22374112.82414       405.53314        27.80014  31275883.50214
R09  20418251.53914     -4404.40814        26.90014   -531052.53314
C29  22103341.17514     -2787.08814        26.50014   -336298.63014
C30  26327660.04013     -4201.96713        21.10013   -511820.95813
R19  21552179.63713     -4813.35913        19.80013    -62227.89813
> 2025 05 03 09 15 06.0000000  0 18                      
G26  20533856.60726      -354.31726        39.40026    -37536.59226
G18  20642178.51725      -853.13125        35.10025    -70910.40125
G16  21689436.61525      1387.04525        34.50025    175081.36525
G05  23540587.29125     -2077.84025        33.00025   -248509.73525
G29  22259298.30815     -3684.48515        30.60015   -449935.03715
G23  23930098.63714      2052.12014        28.00014    254355.31514
G25  24611439.35514     -4884.64214        23.80014   -287469.80414
G28  23653964.00113     -4677.17113        21.10013   -233354.81713
G31  22345178.95513     -3827.21013        18.40013   -285439.55813
C26  22636137.42826      -376.70326        39.40026    -40428.98026
R10  19350549.99325      -923.42025        33.80025   -103916.51025
C08  38611512.10614      -936.65014        29.30014 -93777743.93214
C35  22373793.84514       406.27214        27.80014  31276295.20514
C13  38283471.10414      -441.30714        27.90014    -50624.80414
R09  20418851.72314     -4399.85114        27.00014   -535523.75114
C29  22103645.76414     -2789.29114        26.40014   -339081.24714
C30  26328220.35213     -4202.09413        20.90013   -516016.39713
R19  21552852.97013     -4806.38413        19.60013    -67097.32213
> 2025 05 03 09 15 07.0000000  0 18                      
G26  20533690.52226      -354.81526        39.40026    -37885.24026
G18  20642094.27525      -853.51225        35.10025    -71757.75925
G16  21688935.36225      1386.74125        34.50025    176474.17925
G05  23540750.07825     -2078.38425        33.00025   -250581.90825
G29  22259762.98715     -3687.11115        30.50015   -453615.35115
G23  23929475.96914      2042.48814        27.90014    256406.17914
G25  24612130.97614     -4877.26914        24.00014   -292343.55114
G28  23654627.44213     -4675.02513        21.10013   -238025.27013
G31  22345671.21413     -3830.50913        18.20013   -289263.58413
C26  22635971.34326      -377.01226        39.30026    -40799.92626
R10  19350482.83925      -924.55925        33.80025   -104823.34825
C08  38611452.74714      -938.17814        29.20014 -93778676.20214
C35  22373473.96614       402.48714        27.80014  31276706.23414
C13  38283307.71814      -440.09314        27.80014    -51059.35714
R09  20419421.62914     -4404.33014        27.00014   -539832.22814
C29  22103952.75214     -2793.33314        26.50014   -341867.13614
C30  26328791.15713     -4204.42513        20.80013   -520213.24813
R19  21553511.31513     -4807.42613        19.30013    -71887.14613
> 2025 05 03 09 15 08.0000001  0 18                      
G26  20533548.42026      -355.66726        39.30026    -38234.65926
G18  20642056.20225      -854.52125        35.10025    -72605.98425
G16  21688464.68825      1386.13725        34.50025    177866.45225
G05  23540932.05225     -2079.69025        33.10025   -252655.18525
G29  22260251.94815     -3686.09115        30.50015   -457295.60915
G23  23928878.48214      2041.55014        27.90014    258454.74314
G25  24612863.36914     -4879.32314        24.00014   -297217.10914
G28  23655311.26913     -4678.55013        21.10013   -242697.21513
G31  22346196.75013     -3833.42913        18.10013   -293089.97213
C26  22635836.13726      -378.02326        39.30026    -41171.71726
R10  19350445.66525      -925.39425        33.80025   -105727.89725
C08  38611428.76414      -940.72214        29.10014 -93779610.23414
C35  22373193.36114       406.02614        27.70014  31277116.22114
C13  38283181.80514      -443.12314        27.70014    -51495.13614
R09  20420046.69614     -4405.77414        27.00014   -544275.94014
C29  22104273.53014     -2792.74414        26.60014   -344653.72314
C30  26329403.63313     -4205.63313        20.60013   -524412.59313
R19  21554189.14513     -4811.41613        19.00013    -76621.09613
> 2025 05 03 09 15 09.0000000  0 18                      
G26  20533364.94726      -356.08526        39.30026    -38584.57726
G18  20641969.56225      -855.21025        35.00025    -73454.92125
G16  21687942.75025      1385.82925        34.50025    179258.37425
G05  23541075.05325     -2079.83525        33.10025   -254728.88925
G29  22260708.23215     -3687.89115        30.50015   -460977.01315
G23  23928240.82414      2040.51314        28.10014    260501.88714
G25  24613526.21014     -4883.71514        24.10014   -302093.49514
G28  23655957.62113     -4676.04613        21.10013   -247367.95113
G31  22346675.21913     -3832.98013        18.00013   -296916.81113
C26  22635659.55926      -378.25226        39.20026    -41543.90626
R10  19350378.21225      -926.24025        33.80025   -106694.18825
C08  38611360.71114      -940.76014        29.10014 -93780544.84214
C35  22372864.48814       408.00314        27.70014  31277530.16614
R09  20420591.41914     -4408.29414        27.20014   -548514.08514
C13  38283019.61714      -439.44214        27.60014    -51931.21814
C29  22104552.93614     -2780.62814        26.70014   -347432.42914
C30  26329969.34213     -4202.38413        20.50013   -528609.91713
R19  21554882.86513     -4816.08413        18.70013    -81663.46313
> 2025 05 03 09 15 10.0000001  0 18                      
G26  20533224.64426      -356.63226        39.20026    -38935.07526
G18  20641922.79425      -855.68325        35.00025    -74304.45925
G16  21687472.97525      1385.53525        34.50025    180649.93625
G05  23541258.52625     -2080.67125        33.10025   -256803.34225
G29  22261195.39515     -3688.61815        30.50015   -464659.33115
G23  23927636.44214      2043.45214        28.30014    262550.46614
G25  24614245.41214     -4883.69714        24.20014   -306970.86114
G28  23656636.65113     -4680.90513        21.10013   -252041.57213
G31  22347182.76713     -3832.28513        17.90013   -300743.38613
C26  22635521.65426      -378.84926        39.10026    -41916.67426
R10  19350338.63925      -927.19525        33.80025   -107588.06025
C08  38611331.33214      -941.18914        29.10014 -93781479.97714
C35  22372574.28914       404.51714        27.60014  31277941.88014
R09  20421231.77514     -4402.00914        27.30014   -553038.78114
C13  38282894.30414      -437.70014        27.50014    -52363.88214
C29  22104889.00414     -2790.19514        26.80014   -350214.93514
C30  26330561.13213     -4201.27113        20.30013   -532806.20113
R19  21555614.35913     -4811.86313        18.40013    -86682.90413
> 2025 05 03 09 15 10.9999998  0 18                      
G26  20532965.62426      -357.12826        39.20026    -39286.08426
G18  20641757.90825      -856.18625        35.00025    -75154.52125
G16  21686878.78625      1385.11425        34.50025    182041.10925
G05  23541331.07625     -2081.36525        33.00025   -258878.49625
G29  22261570.73515     -3687.74715        30.40015   -468341.36215
G23  23926919.33814      2044.64114        28.60014    264600.33014
G25  24614843.79814     -4886.20114        24.30014   -311850.21114
G28  23657187.37013     -4681.28913        21.10013   -256716.39913
G31  22347580.59213     -3830.06213        17.90013   -304568.37913
C26  22635268.33026      -379.44226        39.00026    -42290.01826
R10  19350187.84425      -927.70825        33.80025   -108526.93025
C08  38611181.43514      -943.69614        29.10014 -93782416.94614
C35  22372172.26714       403.38514        27.60014  31278352.49514
R09  20421713.54214     -4401.90414        27.30014   -557357.96114
C13  38282656.56814      -435.86414        27.40014    -52795.12814
C29  22105089.56514     -2794.98914        26.90014   -353001.89114
C30  26331042.29913     -4206.99113        20.10013   -537004.08113
R19  21556243.62313     -4795.67513        18.20013    -91798.78513
> 2025 05 03 09 15 11.9999999  0 18                      
G26  20532818.72526      -358.10826        39.20026    -39637.91726
G18  20641711.44125      -857.05825        34.90025    -76005.33925
G16  21686407.21325      1384.82825        34.50025    183431.96225
G05  23541512.45025     -2082.42825        33.00025   -260954.59125
G29  22262053.40115     -3694.48815        30.40015   -472027.79015
G23  23926329.64714      2045.38414        28.80014    266651.11714
G25  24615569.29614     -4878.36814        24.30014   -316724.99914
G28  23657871.79613     -4688.20213        21.00013   -261396.23613
G31  22348086.34213     -3831.10713        17.80013   -308393.54113
C26  22635134.02326      -380.01526        39.00026    -42663.93626
R10  19350155.16625      -929.02825        33.70025   -109457.41325
C08  38611153.25514      -939.90614        29.10014 -93783352.00114
C35  22371894.36014       404.39414        27.60014  31278760.67714
R09  20422353.29914     -4409.54014        27.30014   -561878.84114
C29  22105419.93614     -2795.22214        26.90014   -355790.48514
C13  38282527.95714      -446.53614        27.30014    -53229.24514
C30  26331641.88413     -4206.52313        20.00013   -541204.51413
R19  21556910.36113     -4780.65513        18.00013    -96473.79713
> 2025 05 03 09 15 12.9999999  0 18                      
G26  20532648.74326      -358.43326        39.10026    -39990.24226
G18  20641634.69425      -857.67525        34.90025    -76856.82025
G16  21685906.85925      1384.18225        34.50025    184822.27725
G05  23541670.14125     -2082.80925        32.90025   -263031.25525
G29  22262523.17615     -3685.71915        30.30015   -475709.83915
G23  23925708.17714      2042.97314        28.90014    268700.60514
G25  24616264.21514     -4880.79714        24.30014   -321599.88714
G28  23658518.14913     -4689.27713        20.90013   -266078.46013
G31  22348583.39813     -3824.46813        17.80013   -312214.33313
C26  22634969.73726      -380.69126        38.90026    -43038.49626
R10  19350097.00725      -929.70025        33.70025   -110410.01325
C08  38611098.39314      -938.44814        29.10014 -93784285.44514
C35  22371575.08114       404.71714        27.60014  31279172.41514
R09  20422918.40814     -4407.85014        27.20014   -566163.62914
C29  22105720.32814     -2793.07814        26.80014   -358578.19714
C13  38282375.96314      -443.60314        27.10014    -53669.91914
C30  26332200.99713     -4205.95413        19.80013   -545404.01213
R19  21557574.70213     -4773.08913        17.80013   -101295.00013
> 2025 05 03 09 15 13.9999999  0 17                      
G26  20532476.06326      -359.17326        39.10026    -40343.22326
G18  20641556.74825      -858.36925        34.80025    -77708.98525
G16  21685400.80925      1383.93425        34.50025    186212.24825
G05  23541835.02725     -2083.64325        32.80025   -265108.66325
G29  22262997.44815     -3686.77815        30.30015   -479391.13415
G23  23925078.61314      2042.03814        28.90014    270749.03614
G25  24616957.63514     -4882.28914        24.30014   -326475.80314
G28  23659166.30013     -4688.38913        20.80013   -270760.88813
G31  22349073.85813     -3829.02613        17.80013   -316036.70813
C26  22634802.15326      -381.20526        38.90026    -43413.61426
R10  19350019.06125      -930.59625        33.70025   -111258.88325
C08  38611038.43414      -940.64214        29.10014 -93785219.81514
C35  22371251.90514       405.71914        27.60014  31279583.08614
R09  20423513.79614     -4405.49414        27.10014   -570608.10614
C29  22106023.11914     -2795.33214        26.80014   -361367.11814
C30  26332775.39913     -4209.96313        19.70013   -549606.33213
R19  21558222.85313     -4768.20913        17.70013   -106031.24613
> 2025 05 03 09 15 14.9999999  0 17                      
G26  20532322.86926      -359.86026        39.00026    -40696.84526
G18  20641503.98425      -859.42225        34.80025    -78562.04325
G16  21684919.64325      1383.20525        34.50025    187601.65425
G05  23542014.90225     -2084.76825        32.80025   -267187.03425
G29  22263471.41915     -3687.03215        30.20015   -483072.31015
G23  23924470.33414      2039.13114        28.90014    272795.21314
G25  24617669.34214     -4884.32514        24.30014   -331353.38214
G28  23659830.94013     -4684.49613        20.80013   -275440.75113
G31  22349598.49513     -3824.49913        17.70013   -319856.55613
C26  22634656.15426      -382.26126        38.80026    -43789.58426
R10  19349981.28725      -931.90525        33.70025   -112222.88725
C08  38611000.06114      -941.35814        29.10014 -93786154.93414
C35  22370964.40414       400.79714        27.60014  31279991.38314
R09  20424134.66614     -4413.22314        27.10014   -575091.51314
C29  22106331.60514     -2798.37314        26.80014   -364158.43214
C30  26333359.09513     -4210.11313        19.60013   -553809.71413
R19  21558926.16613     -4760.74213        18.00013   -110962.62913
> 2025 05 03 09 15 15.9999999  0 17                      
G26  20532152.88626      -360.40726        39.00026    -41051.09426
G18  20641436.23125      -859.67625        34.80025    -79415.61725
G16  21684418.98925      1383.26325        34.50025    188990.86225
G05  23542180.08825     -2085.13825        32.70025   -269266.02025
G29  22263939.99515     -3693.57015        30.30015   -486757.85315
G23  23923850.06314      2047.42014        28.80014    274846.11714
G25  24618366.95914     -4891.98414        24.20014   -336236.67014
G28  23660488.08513     -4684.21213        20.80013   -280119.61913
G31  22350088.95513     -3825.44813        18.00013   -323676.24213
C26  22634491.56826      -382.23926        38.80026    -44165.87326
R10  19349904.84025      -932.43925        33.70025   -113079.38625
C08  38610944.89914      -943.97214        29.00014 -93787092.09514
C35  22370647.82314       402.03814        27.60014     58439.17114
R09  20424737.54814     -4409.99714        27.00014   -579577.24914
C29  22106631.69714     -2792.65714        26.70014   -366946.78114
C30  26333918.50813     -4206.06213        19.50013   -558011.08913
R19  21559513.45913     -4752.84013        18.20013   -115373.58113
> 2025 05 03 09 15 16.9999999  0 18                      
G26  20531982.60426      -361.05726        38.90026    -41405.97326
G18  20641363.98125      -860.49625        34.90025    -80269.89725
G16  21683924.33225      1382.35725        34.50025    190379.41325
G05  23542330.28425     -2085.96525        32.70025   -271345.75225
G29  22264405.57315     -3687.64615        30.50015   -490440.89115
G23  23923225.59614      2040.60014        28.80014    276894.06214
G25  24619068.47414     -4895.12114        24.20014   -341123.94114
G28  23661149.72713     -4679.62813        20.70013   -284795.08813
G31  22350592.30713     -3830.55813        18.20013   -327499.27013
C26  22634327.28126      -383.15026        38.80026    -44542.86226
R10  19349846.98025      -933.45125        33.60025   -114034.27525
C08  38610889.43714      -943.82614        29.00014 -93788029.82614
C35  22370330.04314       401.47814        27.60014     58846.45914
R09  20425279.57314     -4409.97714        26.90014   -583738.25814
C29  22106923.09614     -2783.09714        26.60014   -369727.75714
C13  38281787.77014      -445.58314        25.50014      -870.80514
C30  26334478.52013     -4211.96213        19.40013   -562212.83913
R19  21560107.64813     -4746.03013        18.50013   -119819.74113
> 2025 05 03 09 15 18.0000000  0 18                      
G26  20531843.80026      -361.40526        38.90026    -41761.29426
G18  20641324.40825      -861.10325        35.00025    -81124.81725
G16  21683450.06025      1382.51125        34.50025    191767.84625
G05  23542528.14725     -2086.50525        32.70025   -273426.09125
G29  22264903.52815     -3687.08515        30.70015   -494122.72115
G23  23922636.20414      2038.79314        28.80014    278939.81514
G25  24619791.57314     -4893.92814        24.20014   -346011.74314
G28  23661835.65213     -4672.60613        20.80013   -289464.74113
G31  22351134.93113     -3831.94213        18.40013   -331324.33313
C26  22634192.97426      -383.57726        38.80026    -44920.37026
R10  19349817.00025      -934.12125        33.60025   -114978.48425
C08  38610860.95714      -946.02114        29.00014 -93788969.21114
C35  22370036.84614       403.13214        27.50014     59254.85014
R09  20425926.82514     -4409.83814        26.80014   -588300.40214
C13  38281666.95314      -444.83814        26.10014     -1309.83414
C29  22107254.06614     -2777.35814        26.40014   -372502.44914
C30  26335087.39813     -4209.22913        19.30013   -566416.94413
R19  21560756.69913     -4745.56013        18.70013   -124399.84513
> 2025 05 03 09 15 19.0000000  0 18                      
G26  20531677.11626      -362.45226        38.80026    -42117.46126
G18  20641251.55925      -862.02325        35.10025    -81980.56425
G16  21682950.30625      1381.62325        34.50025    193155.64925
G05  23542689.73525     -2087.55525        32.70025   -275507.33325
G29  22265370.00515     -3688.79115        30.90015   -497805.28415
G23  23922002.74214      2038.70614        28.90014    280984.78014
G25  24620486.49214     -4890.88414        24.30014   -350897.69414
G28  23662497.29413     -4668.85413        21.00013   -294129.95613
G31  22351624.49213     -3829.21513        18.70013   -335148.25813
C26  22634028.38826      -384.44326        38.80026    -45298.62926
R10  19349758.54125      -935.28025        33.60025   -115931.08425
C08  38610809.69314      -946.30914        29.00014 -93789909.33914
C35  22369730.45814       401.12514        27.50014     59662.27014
C13  38281526.05114      -440.56614        26.50014     -1746.01414
R09  20426499.12914     -4412.58614        26.80014   -592621.86214
C29  22107543.06614     -2788.57314        26.30014   -375282.52414
C30  26335660.90113     -4206.12313        19.20013   -570617.30113
R19  21561394.35713     -4749.67613        18.70013   -129078.68713
> 2025 05 03 09 15 19.9999999  0 18                      
G26  20531494.54226      -362.76726        38.70026    -42474.08226
G18  20641165.81825      -862.42825        35.20025    -82836.82025
G16  21682445.15625      1381.34025        34.40025    194543.09025
G05  23542830.93725     -2088.16925        32.60025   -277589.24925
G29  22265827.78815     -3690.52015        31.10015   -501489.20915
G23  23921360.58714      2041.43314        28.90014    283031.33714
G25  24621162.82414     -4888.03414        24.30014   -355781.09114
G28  23663146.64413     -4670.69313        21.10013   -298794.87913
G31  22352106.25913     -3830.76313        18.80013   -338972.79813
C26  22633853.90926      -384.72726        38.80026    -45677.29026
R10  19349680.59525      -936.09525        33.60025   -116841.69825
C08  38610738.64214      -942.50914        29.00014 -93790847.14514
C35  22369409.08014       399.11314        27.40014     60068.06214
C13  38281365.96214      -441.78514        26.80014     -2182.02214
R09  20427062.73914     -4412.26114        26.70014   -596960.10314
C29  22107828.46914     -2798.16814        26.10014   -378070.75314
C30  26336221.51313     -4208.07313        19.20013   -574817.37213
R19  21562020.02413     -4750.50413        18.70013   -133756.72513
> 2025 05 03 09 15 21.0000000  0 18                      
G26  20531353.04026      -363.45626        38.70026    -42831.36426
G18  20641118.75125      -863.44925        35.30025    -83693.97525
G16  21681973.88225      1380.83325        34.40025    195930.02225
G05  23543016.20925     -2089.06725        32.70025   -279672.03625
G29  22266317.34915     -3693.53615        31.10015   -505175.64615
G23  23920749.90914      2041.22914        28.80014    285078.24014
G25  24621882.02614     -4885.84014        24.50014   -360662.22214
G28  23663831.67013     -4673.38113        21.10013   -303461.54713
G31  22352624.00013     -3841.96413        19.00013   -342805.05913
C26  22633718.70326      -385.47526        38.80026    -46056.63326
R10  19349647.31825      -937.07325        33.50025   -117767.60325
C08  38610712.26014      -943.87914        29.00014 -93791785.13914
C35  22369124.57714       398.56314        27.40014     60472.89714
C13  38281243.34714      -445.68014        27.00014     -2620.61714
R09  20427700.99714     -4419.46914        26.60014   -601473.34614
C29  22108163.33714     -2803.10014        26.00014   -380865.03614
C30  26336816.30113     -4207.47613        19.10013   -579017.91113
R19  21562653.18613     -4759.85913        18.60013   -138250.34113
> 2025 05 03 09 15 22.0000000  0 18                      
G26  20531184.55726      -364.41526        38.60026    -43189.49326
G18  20641046.20125      -864.13125        35.30025    -84551.87225
G16  21681482.82215      1380.75415        34.40015    197316.74615
G05  23543173.30025     -2089.94125        32.80025   -281755.68525
G29  22266790.72215     -3693.96315        31.10015   -508863.19415
G23  23920129.93914      2039.43114        28.90014    287124.07114
G25  24622574.54614     -4887.50314        24.50014   -365543.69514
G28  23664493.31213     -4677.83113        21.10013   -308131.75113
G31  22353108.16513     -3851.11013        19.00013   -346645.98013
C26  22633555.91526      -386.20926        38.70026    -46436.68026
R10  19349587.06025      -938.23525        33.50025   -118710.28925
C08  38610656.49914      -944.17614        29.10014 -93792723.38114
C35  22368808.89614       397.09114        27.30014     60876.44214
C13  38281082.95814      -443.24714        27.00014     -3058.44014
R09  20428284.09314     -4428.36214        26.60014   -605853.64514
C29  22108463.42914     -2799.12314        25.90014   -383658.67514
R19  21563291.44413     -4773.33513        18.90013   -142933.00913
C30  26337390.70413     -4211.19913        19.10013   -583222.20013
> 2025 05 03 09 15 23.0000000  0 18                      
G26  20531018.77126      -364.44526        38.50026    -43547.92426
G18  20640972.75225      -864.45225        35.30025    -85410.23125
G16  21680975.57315      1376.87915        34.30015    198700.81615
G05  23543333.68925     -2090.28525        32.90025   -283839.85025
G23  23919497.37714      2043.45614        29.20014    289172.22914
G29  22267241.60915     -3697.62915        30.90015   -512553.55615
G25  24623259.27214     -4885.58914        24.50014   -370424.00614
G28  23665135.16813     -4684.75413        21.30013   -312807.74813
G31  22353592.33013     -3853.52313        19.00013   -350491.39513
C26  22633393.12826      -386.67026        38.60026    -46817.27026
R10  19349528.60025      -938.53025        33.40025   -119662.12625
C08  38610599.53814      -947.38314        29.20014 -93793663.84514
C35  22368491.71514       397.59714        27.40014     61279.89514
C13  38280935.16014      -441.47214        27.00014     -3494.82314
R09  20428870.78714     -4411.47214        26.50014   -610252.26814
C29  22108761.72314     -2795.88814        26.10014   -386449.94114
R19  21563942.59313     -4777.21613        19.20013   -147683.79813
C30  26337960.60913     -4213.93413        19.10013   -587429.62513
> 2025 05 03 09 15 24.0000000  0 18                      
G26  20530847.89026      -365.60126        38.50026    -43907.22626
G18  20640899.00325      -865.51025        35.30025    -86269.44825
G05  23543494.07825     -2091.30925        32.90025   -285924.87025
G23  23918871.11014      2042.07714        29.40014    291220.24314
G29  22267707.18715     -3691.58215        30.40015   -516240.82415
G16  21680472.22115      1372.21615        33.70015    200080.89315
G25  24623947.29614     -4889.49814        24.40014   -375306.53514
G28  23665783.91913     -4687.05713        21.60013   -317487.21313
G31  22354095.08213     -3860.37613        18.90013   -354342.87713
C26  22633229.14226      -387.58926        38.50026    -47198.65326
R10  19349471.04025      -939.81025        33.40025   -120620.06425
C08  38610541.37814      -943.05714        29.20014 -93794602.16514
C35  22368179.63114       391.41314        27.40014     61679.19514
C13  38280774.47114      -440.23314        26.90014     -3929.89914
C29  22109060.61614     -2796.42514        26.30014   -389240.77414
R09  20429451.78514     -4415.70514        26.40014   -614620.34414
R19  21564580.25213     -4770.66313        20.10013   -152363.40413
C30  26338535.91113     -4215.35013        19.40013   -591639.37113
> 2025 05 03 09 15 25.0000001  0 18                      
G26  20530716.58126      -365.76826        38.50026    -44266.93026
G18  20640856.13325      -865.79325        35.30025    -87129.14125
G05  23543683.84725     -2091.86025        32.90025   -288010.54225
G23  23918274.22314      2040.97514        29.40014    293267.47414
G16  21680008.44215      1375.73915        32.20015    201461.98715
G29  22268210.83815     -3688.51815        29.50015   -519925.01815
G25  24624663.50014     -4892.25114        24.40014   -380191.63914
G28  23666459.65113     -4689.70513        22.20013   -322169.59713
G31  22354617.92013     -3866.06313        18.90013   -358200.17313
C26  22633095.43426      -387.62326        38.40026    -47580.32226
R10  19349431.16825      -940.59725        33.40025   -121513.17325
C08  38610516.49614      -950.51614        29.40014 -93795544.74214
C35  22367894.22914       395.36614        27.30014     62079.74614
C13  38280654.55414      -445.35514        26.90014     -4367.95514
C29  22109392.78614     -2796.91814        26.50014   -392031.79214
R09  20430084.34714     -4416.76614        26.30014   -619106.07814
R19  21565288.66113     -4764.86413        20.60013   -157261.91313
C30  26339136.69513     -4216.02913        19.60013   -595848.26913
> 2025 05 03 09 15 25.9999998  0 18                      
G26  20530456.96026      -366.85926        38.70026    -44627.49626
G18  20640687.05025      -867.04125        35.30025    -87989.82425
G05  23543753.99825     -2092.68025        32.90025   -290096.97825
G23  23917571.51014      2042.31314        29.40014    295315.33614
G16  21679411.25615      1380.04715        30.90015    202846.29215
G29  22268586.77814     -3689.98614        28.80014   -523609.16714
G25  24625274.17714     -4887.36214        24.40014   -385074.34214
G28  23667016.36613     -4691.32413        22.50013   -326854.03613
G31  22355026.83713     -3874.42613        18.80013   -362064.98313
C26  22632839.41126      -388.64826        38.30026    -47962.77126
R10  19349277.67425      -941.63625        33.30025   -122436.79125
C08  38610365.10014      -945.29314        29.40014 -93796485.25714
C35  22367484.41314       395.62814        27.20014     62480.88914
C13  38280417.11914      -446.44014        26.90014     -4807.72714
C29  22109595.14614     -2796.45314        26.70014   -394822.56214
R09  20430592.79514     -4415.06914        26.20014   -623567.36214
R19  21565789.31513     -4763.62413        21.10013   -161690.47013
C30  26339626.25613     -4213.77113        20.20013   -600057.22313
> 2025 05 03 09 15 27.0000001  0 18                      
G26  20530399.10026      -367.00626        38.70026    -44988.41026
G18  20640716.13025      -867.15725        35.30025    -88850.87825
G05  23544032.80525     -2093.48825        33.00025   -292184.17125
G16  21679013.73115      1379.15215        30.30015    204231.10815
G23  23917053.46814      2040.73314        29.40014    297362.39214
G29  22269146.49114     -3691.33714        28.30014   -527294.16314
G25  24626084.21714     -4882.04014        24.40014   -389952.66014
G28  23667786.23313     -4688.10813        22.50013   -331536.97713
G31  22355626.42213     -3878.06413        18.60013   -365934.68413
C26  22632785.74826      -389.01026        38.20026    -48345.68526
R10  19349337.93225      -942.42725        33.20025   -123445.79425
C08  38610409.77014      -946.25114        29.40014 -93797425.68714
C13  38280369.45214      -443.68314        26.80014     -5246.19814
C29  22109996.26814     -2802.58514        26.70014   -397617.30014
C35  22367282.95214       400.60214        27.10014     62885.58114
R09  20431250.24014     -4420.53814        26.10014   -627766.54514
R19  21566566.67713     -4773.14113        21.10013   -166536.89513
C30  26340302.28813     -4212.05713        20.40013   -604264.20213
> 2025 05 03 09 15 27.9999998  0 18                      
G26  20530143.67726      -367.88226        38.70026    -45350.07326
G18  20640550.34425      -868.13425        35.30025    -89712.75625
G05  23544105.65525     -2094.21625        33.00025   -294272.15025
G16  21678419.54215      1379.49315        30.80015    205616.27315
G23  23916334.86614      2039.51714        29.30014    299408.32014
G29  22269512.53714     -3689.91414        28.00014   -530978.54414
G25  24626684.40114     -4885.61114        24.50014   -394831.94714
G28  23668349.24313     -4695.39213        22.50013   -336224.32513
G31  22356020.64913     -3879.21313        18.30013   -369806.83313
C26  22632533.02326      -389.66826        38.20026    -48729.24126
R10  19349177.24325      -943.34725        33.20025   -124331.27625
C08  38610267.06814      -947.76214        29.40014 -93798367.14414
C13  38280132.61614      -445.42714        27.10014     -5685.44514
C35  22366876.13414       399.29414        27.00014     63290.53514
C29  22110209.42114     -2806.36214        26.70014   -400415.92714
R09  20431749.39414     -4417.74114        25.90014   -632178.16014
C30  26340783.15513     -4209.85613        20.50013   -608468.60013
R19  21567083.51913     -4779.92113        21.10013   -171051.94213
> 2025 05 03 09 15 28.9999999  0 17                      
G26  20530006.37226      -368.29326        38.70026    -45712.24726
G18  20640508.07425      -868.71525        35.30025    -90575.28425
G05  23544296.62325     -2094.88125        33.10025   -296360.82325
G16  21677955.16415      1376.59515        31.60015    206999.63515
G23  23915732.88314      2045.96514        29.30014    301458.18314
G29  22270009.89314     -3692.25214        27.90014   -534664.26514
G25  24627406.30114     -4886.43714        24.60014   -399712.09314
G28  23669032.47013     -4694.67113        22.40013   -340912.64813
G31  22356558.47713     -3883.30213        18.10013   -373682.51013
C26  22632396.61826      -390.38926        38.20026    -49113.47926
R10  19349150.56225      -944.13525        33.20025   -125293.79125
C08  38610242.18614      -951.21814        29.30014 -93799311.23614
C13  38280009.40114      -450.13714        27.20014     -6128.07914
C35  22366588.93314       394.54014        26.90014     63692.42014
C29  22110539.79214     -2804.09114        26.60014   -403214.32514
R09  20432348.08014     -4409.10714        25.80014   -636480.52214
C30  26341386.93713     -4207.47013        20.70013   -612670.95913
> 2025 05 03 09 15 29.9999999  0 17                      
G26  20529835.79026      -369.01626        38.70026    -46075.07426
G18  20640436.12325      -869.24425        35.20025    -91438.38125
G05  23544452.21525     -2095.52325        33.20025   -298450.15425
G16  21677453.61115      1377.85615        31.90015    208383.23615
G23  23915117.40914      2039.05514        29.20014    303504.75014
G29  22270472.47314     -3693.33314        27.80014   -538351.15414
G25  24628085.63114     -4883.00714        24.80014   -404590.24114
G28  23669684.21913     -4688.86313        22.30013   -345597.42513
G31  22357075.01913     -3884.65913        18.00013   -377560.26813
C26  22632235.92926      -390.61226        38.20026    -49498.09326
R10  19349087.00625      -945.04425        33.20025   -126218.17125
C08  38610183.72614      -943.85314        29.30014 -93800251.29614
C13  38279848.71214      -448.52714        27.20014     -6570.76914
C35  22366280.44614       390.33014        26.80014     64090.47514
C29  22110844.38114     -2802.68414        26.50014   -406011.70914
R09  20432977.64414     -4411.70714        25.60014   -641108.37314
C30  26341955.04413     -4210.75713        20.80013   -616872.86313
> 2025 05 03 09 15 30.9999999  0 15                      
G26  20529662.81026      -369.83926        38.70026    -46438.66726
G18  20640362.07525      -870.41625        35.20025    -92302.45025
G05  23544614.70225     -2096.70725        33.30025   -300540.49525
G16  21676950.26015      1376.47215        32.10015    209765.99315
G23  23914495.33914      2038.11614        29.20014    305549.59314
G29  22270929.95614     -3695.66214        27.70014   -542039.98414
G25  24628782.94814     -4885.84514        24.80014   -409469.61414
G28  23670327.87313     -4689.45313        22.20013   -350281.41313
C26  22632074.34126      -391.82726        38.30026    -49883.64326
R10  19349019.85225      -946.35025        33.10025   -127124.24625
C08  38610131.26214      -946.28014        29.20014 -93801191.62914
C13  38279698.21614      -445.69214        27.30014     -7011.58814
C35  22365963.26614       392.28914        26.60014     64488.56014
C29  22111143.87414     -2790.03314        26.40014   -408800.32014
R09  20433540.05514     -4416.65214        25.40014   -645377.88314
> 2025 05 03 09 15 31.9999999  0 15                      
G26  20529494.92626      -370.35126        38.70026    -46802.85726
G18  20640280.83125      -871.01825        35.20025    -93167.24325
G05  23544775.39125     -2097.23425        33.30025   -302631.52325
G16  21676448.70725      1376.35125        32.20025    211148.39025
G23  23913865.17614      2040.90814        29.10014    307595.72314
G29  22271391.93614     -3694.07714        27.70014   -545728.40614
G25  24629480.86514     -4888.02114        24.80014   -414350.84514
G28  23670983.21913     -4688.24113        22.20013   -354964.33013
C26  22631909.15526      -392.00626        38.40026    -50269.62426
R10  19348964.99025      -947.40425        33.10025   -128095.91525
C08  38610077.89914      -948.01214        29.10014 -93802133.20914
C13  38279537.52814      -444.86214        27.30014     -7451.22914
C35  22365652.38114       397.58714        26.50014     64890.18614
C29  22111449.96214     -2791.77114        26.20014   -411587.16514
R09  20434089.57414     -4421.90014        25.30014   -649577.86214
> 2025 05 03 09 15 32.9999999  0 15                      
G26  20529347.42926      -371.11426        38.60026    -47167.71726
G18  20640231.36525      -871.71125        35.10025    -94032.70325
G05  23544953.16825     -2098.11325        33.30025   -304723.33025
G16  21675965.44125      1375.86325        32.40025    212530.37725
G23  23913244.90514      2034.64314        29.10014    309638.14014
G29  22271877.90014     -3691.39314        27.60014   -549414.86414
G25  24630185.97714     -4889.99014        24.80014   -419233.97314
G28  23671658.05213     -4689.18213        22.10013   -359647.48013
C26  22631765.55526      -393.04026        38.40026    -50656.40126
R10  19348917.32325      -947.43025        33.20025   -129008.05325
C08  38610043.42314      -948.85614        29.10014 -93803075.73114
C13  38279413.11414      -450.68614        27.40014     -7894.32314
C35  22365362.48214       392.66614        26.50014     65289.74914
C29  22111774.93714     -2798.42814        26.10014   -414377.82414
R09  20434736.52614     -4419.12714        25.10014   -654201.08814
> 2025 05 03 09 15 33.9999999  0 15                      
G26  20529179.24526      -371.66626        38.60026    -47533.21826
G18  20640167.80925      -872.21725        35.10025    -94898.77225
G05  23545114.75625     -2098.66025        33.20025   -306815.81125
G16  21675460.59125      1375.31825        32.60025    213911.81525
G23  23912627.93214      2038.86214        29.10014    311682.08514
G29  22272352.17114     -3694.74314        27.80014   -553102.95114
G25  24630875.50014     -4884.18114        24.80014   -424113.90914
G28  23672297.21013     -4685.40813        22.10013   -364328.24113
C26  22631602.46826      -393.16526        38.40026    -51043.57626
R10  19348865.45925      -948.92825        33.20025   -129994.97525
C08  38609985.56314      -947.02314        29.00014 -93804017.39314
C13  38279261.11914      -452.43114        27.40014     -8339.78214
C35  22365040.80414       389.52514        26.40014     65686.48114
C29  22112084.62214     -2804.70114        26.00014   -417173.98514
R09  20435338.80914     -4424.01314        24.90014   -658682.24514
> 2025 05 03 09 15 35.0000000  0 15                      
G26  20529042.83926      -372.34226        38.60026    -47899.37126
G18  20640124.93925      -873.23925        35.00025    -95765.71225
G05  23545312.02025     -2099.75725        33.20025   -308909.23525
G16  21674990.81625      1374.90425        32.80025    215292.80625
G23  23912027.74814      2041.03014        29.10014    313727.99714
G29  22272850.72614     -3691.83414        28.30014   -556789.62814
G25  24631609.69114     -4885.48014        24.80014   -428993.63414
G28  23672978.63813     -4688.77113        22.00013   -369010.43613
C26  22631470.55926      -394.28326        38.40026    -51431.61626
R10  19348842.07525      -949.94125        33.20025   -130974.27025
C08  38609958.58214      -944.43514        28.90014 -93804957.03114
C13  38279140.60214      -452.36614        27.40014     -8785.97214
C35  22364759.59914       392.29914        26.30014     66084.13114
C29  22112413.79414     -2799.43914        25.90014   -419968.45914
R09  20435936.89514     -4423.84614        24.80014   -662982.31514
> 2025 05 03 09 15 36.0000000  0 15                      
G26  20528878.85326      -372.85026        38.60026    -48266.08026
G18  20640052.38925      -873.56925        35.00025    -96633.16325
G05  23545472.70825     -2100.14325        33.20025   -311003.23125
G16  21674496.75825      1374.68825        33.00025    216673.50525
G23  23911411.37414      2038.86614        29.10014    315773.12114
G29  22273317.80314     -3696.79814        28.60014   -560479.14714
G25  24632292.31914     -4888.99314        24.80014   -433875.63214
G28  23673654.37013     -4692.13713        22.00013   -373695.35313
C26  22631309.27126      -394.44726        38.40026    -51820.05426
R10  19348770.12525      -950.46925        33.30025   -131854.41225
C08  38609896.22514      -945.63714        28.80014 -93805896.79514
C13  38278982.31214      -446.30314        27.40014     -9228.36414
C35  22364437.62214       393.15114        26.20014     66482.65514
C29  22112718.38414     -2801.02814        25.80014   -422763.43114
R09  20436551.17014     -4420.14914        24.60014   -667528.40614
> 2025 05 03 09 15 37.0000000  0 15                      
G26  20528713.36726      -373.63726        38.60026    -48633.49926
G18  20639981.63825      -874.61025        35.00025    -97501.47825
G16  21673996.10525      1374.18625        33.10025    218053.27225
G05  23545629.80015     -2100.52115        33.20015   -313097.16915
G23  23910782.41014      2038.02214        29.20014    317817.42114
G29  22273784.58014     -3697.35814        28.80014   -564169.98514
G25  24632996.83114     -4896.34814        24.90014   -438763.29014
G28  23674314.51313     -4698.46413        22.00013   -378385.39513
C26  22631144.98426      -395.34726        38.40026    -52209.22526
R10  19348712.56525      -951.77925        33.40025   -132811.58925
C08  38609845.26014      -952.67414        28.80014 -93806841.29314
C13  38278825.22114      -446.63814        27.30014     -9669.71414
C35  22364128.53614       396.72314        26.10014     66883.85214
C29  22113011.88014     -2805.31014        25.70014   -425561.42314
R09  20437151.65414     -4423.35514        24.50014   -672001.15814
> 2025 05 03 09 15 38.0000000  0 15                      
G26  20528541.88626      -374.15826        38.60026    -49001.50226
G18  20639906.99025      -875.01925        34.90025    -98370.35525
G16  21673497.25025      1373.73025        33.30025    219433.09125
G05  23545796.18415     -2102.38515        33.20015   -315192.99815
G23  23910151.04714      2041.61914        29.20014    319863.84314
G29  22274250.45714     -3694.62614        28.90014   -567859.44214
G25  24633686.35414     -4893.27914        25.00014   -443650.79014
G28  23674955.46913     -4703.23113        21.90013   -383080.32313
C26  22630982.49726      -395.83126        38.40026    -52598.96326
R10  19348647.21025      -952.32325        33.40025   -133726.05325
C08  38609787.40014      -953.09714        29.00014 -93807787.65114
C13  38278676.22414      -444.87214        27.20014    -10109.53814
C35  22363817.95114       392.33114        26.10014     67283.01214
C29  22113296.08414     -2799.62914        25.60014   -428356.63414
R09  20437741.04614     -4431.48914        24.40014   -676413.54614
> 2025 05 03 09 15 39.0000001  0 16                      
G26  20528409.37826      -374.81426        38.60026    -49370.13726
G18  20639863.52015      -873.94115        34.90015    -99238.19915
G16  21673027.77525      1373.31025        33.60025    220812.48025
G05  23545993.74815     -2106.05515        33.10015   -317291.73615
G23  23909557.15814      2037.81314        29.30014    321908.43514
G29  22274752.31014     -3689.92014        29.10014   -571545.30014
G25  24634402.55814     -4891.43114        25.20014   -448537.00314
G28  23675652.18713     -4698.45513        21.90013   -387773.69613
C26  22630852.38726      -396.41926        38.40026    -52989.28226
R10  19348626.52525      -953.35025        33.40025   -134720.60225
C08  38609758.92014      -950.95914        29.20014 -93808733.20314
C13  38278557.80614      -443.16514        27.10014    -10547.71714
C35  22363525.35414       388.98814        26.00014     67679.26514
C29  22113615.36314     -2797.97814        25.60014   -431149.81814
R09  20438359.81814     -4432.82814        24.60014   -680823.63914
C30  26347174.13113     -4214.09613        21.30013    -25223.27113
> 2025 05 03 09 15 40.0000000  0 16                      
G26  20528228.30326      -375.34526        38.50026    -49739.30026
G18  20639779.87815      -876.76215        34.80015   -100108.21015
G16  21672522.92525      1372.95125        34.00025    222191.52325
G05  23546137.04915     -2100.39215        33.00015   -319387.63215
G29  22275199.60014     -3696.57114        29.40014   -575234.35714
G23  23908915.30214      2036.44814        29.40014    323951.54514
G25  24635081.88814     -4888.41714        25.30014   -453420.74314
G28  23676290.14513     -4695.23813        21.90013   -392464.36913
C26  22630680.00626      -397.09726        38.40026    -53380.21026
R10  19348543.18225      -954.66125        33.30025   -135601.47125
C08  38609703.75814      -949.64014        29.20014 -93809677.57214
C13  38278389.32214      -451.94414        26.90014    -10991.16314
C35  22363188.98614       395.61014        26.00014     68078.99914
C29  22113906.16114     -2801.08614        25.50014   -433944.36214
R09  20438933.62114     -4427.89814        24.90014   -685216.12114
C30  26347719.45313     -4213.65713        22.20013    -29431.08513
> 2025 05 03 09 15 41.0000001  0 16                      
G26  20528091.59826      -376.05526        38.50026    -50109.16126
G16  21672055.24825      1372.45225        34.40025    223570.06925
G18  20639745.70125      -877.42925        34.70025   -100979.27125
G05  23546316.62415     -2105.46315        32.90015   -321486.01115
G29  22275694.25815     -3694.09315        29.60015   -578922.87715
G23  23908312.72014      2038.83214        29.40014    325995.70114
G25  24635799.89114     -4888.16414        25.30014   -458303.53814
G28  23676980.26813     -4691.84513        22.20013   -397151.92913
C26  22630546.59926      -397.58726        38.50026    -53771.71626
R10  19348519.19925      -954.96925        33.30025   -136576.95225
C08  38609668.68314      -947.30514        29.10014 -93810620.03714
C13  38278266.40814      -454.05514        26.80014    -11437.82114
C35  22362905.08314       393.79614        25.90014     68478.63614
C29  22114230.53714     -2798.66914        25.50014   -436737.79514
R09  20439560.48714     -4433.56614        25.00014   -689669.77114
C30  26348321.73613     -4212.96413        22.90013    -33638.47313
> 2025 05 03 09 15 41.9999998  0 16                      
G26  20527833.17726      -376.62126        38.60026    -50479.62026
G16  21671468.55525      1372.08825        34.60025    224948.22025
G18  20639585.91225      -877.77925        34.60025   -101850.90125
G05  23546397.56815     -2110.57715        32.80015   -323588.61415
G29  22276073.19515     -3696.59515        29.70015   -582612.87315
G23  23907609.40614      2036.87814        29.40014    328038.91414
G25  24636394.07914     -4890.89814        25.30014   -463187.82914
G28  23677536.08313     -4685.83113        22.50013   -401834.43013
C26  22630294.47326      -398.21526        38.50026    -54163.82226
R10  19348377.39725      -956.14925        33.30025   -137565.40025
C08  38609525.08214      -947.35014        29.10014 -93811561.88614
C13  38278025.97414      -452.90814        26.70014    -11884.77314
C29  22114441.89014     -2804.93514        25.50014   -439535.02514
C35  22362502.46214       391.96614        25.80014     68877.03214
R09  20440088.42114     -4431.21514        25.00014   -694234.96414
C30  26348805.00213     -4210.26513        23.30013    -37843.90813
> 2025 05 03 09 15 42.9999999  0 16                      
G26  20527699.76926      -377.22726        38.70026    -50850.68326
G16  21670999.37925      1371.70225        34.70025    226325.98125
G18  20639543.64125      -878.61625        34.50025   -102723.28125
G05  23546599.02915     -2103.46015        32.60015   -325687.88115
G29  22276564.55515     -3696.88315        29.70015   -586303.55415
G23  23907017.31614      2038.51514        29.40014    330082.90614
G25  24637114.78014     -4893.36314        25.30014   -468074.26114
G28  23678223.80713     -4682.39413        22.50013   -406512.95313
C26  22630163.16426      -398.89326        38.50026    -54556.57926
R10  19348356.11225      -957.04525        33.40025   -138555.37325
C08  38609504.69614      -949.11814        28.90014 -93812504.70814
C29  22114777.95814     -2807.82514        26.00014   -442335.44614
C13  38277907.25614      -449.43614        26.60014    -12329.50714
C35  22362231.74914       389.35014        25.70014     69273.27214
R09  20440676.61414     -4437.88414        25.00014   -698482.32014
C30  26349402.48814     -4216.53614        23.80014    -42052.87214
> 2025 05 03 09 15 43.9999999  0 16                      
G26  20527532.48526      -378.04926        38.80026    -51222.49426
G16  21670501.72425      1371.08225        34.70025    227703.19925
G18  20639470.49225      -879.23425        34.40025   -103596.32225
G05  23546759.71715     -2103.02915        32.50015   -327785.74815
G29  22277024.13715     -3692.40915        29.70015   -589991.48015
G23  23906397.34614      2035.99114        29.40014    332125.47314
G25  24637806.70114     -4887.44614        25.30014   -472957.46314
G28  23678870.75913     -4682.66113        22.60013   -411190.32913
C26  22630003.07526      -399.57626        38.40026    -54950.01026
R10  19348293.75525      -958.03225        33.40025   -139487.38025
C08  38609460.02714      -947.25414        28.80014 -93813446.61214
C29  22115081.34814     -2803.76114        26.30014   -445134.22114
C13  38277743.86914      -449.26514        26.40014    -12773.38914
C35  22361915.46814       384.94214        25.50014     69665.85314
R09  20441271.40214     -4433.09714        25.00014   -702922.97114
C30  26349973.59314     -4216.15514        24.10014    -46262.75914
> 2025 05 03 09 15 44.9999999  0 16                      
G26  20527363.40226      -378.08026        39.00026    -51594.57726
G16  21669998.67225      1371.17425        34.70025    229080.29825
G18  20639407.53525      -879.63925        34.30025   -104469.85325
G05  23546917.70815     -2106.86515        32.30015   -329885.70615
G29  22277481.02115     -3693.75515        29.60015   -593679.38515
G23  23905773.17814      2039.38914        29.40014    334169.83114
G25  24638502.81914     -4890.05814        25.30014   -477841.32914
G28  23679514.71313     -4683.26313        22.60013   -415867.72313
C26  22629842.38626      -399.61126        38.30026    -55343.68726
R10  19348233.49725      -958.51925        33.50025   -140429.30225
C08  38609403.96614      -953.51314        28.60014 -93814392.38214
C29  22115381.44014     -2798.01214        26.40014   -447928.61614
C13  38277596.07214      -451.24114        26.20014    -13218.30414
R09  20441876.98314     -4423.58414        25.20014   -707423.21714
C35  22361605.78214       387.65814        25.50014     70059.02514
C30  26350552.19214     -4212.82114        24.50014    -50470.73114
> 2025 05 03 09 15 45.9999999  0 15                      
G26  20527198.21626      -379.12326        39.10026    -51967.44426
G16  21669495.02125      1370.62425        34.80025    230456.98925
G18  20639338.58325      -880.68025        34.30025   -105344.24225
G05  23547079.89615     -2105.39115        32.20015   -331985.37815
G23  23905159.80214      2044.40614        29.30014    336218.13114
G25  24639200.43614     -4892.18414        25.30014   -482726.83514
G28  23680172.15813     -4686.50913        22.60013   -420547.28713
C26  22629676.30126      -400.72626        38.20026    -55738.19126
R10  19348172.03925      -959.76125        33.50025   -141367.41125
C08  38609342.80814      -957.29514        28.40014 -93815341.96314
C29  22115692.32514     -2804.01914        26.70014   -450725.55514
R09  20442473.57014     -4426.80214        25.80014   -711876.86614
C13  38277440.47914      -448.41014        26.10014    -13661.67614
C35  22361288.90214       393.96314        25.40014     70456.59814
C30  26351122.39814     -4215.04314        24.70014    -54679.54514
> 2025 05 03 09 15 46.9999999  0 16                      
G26  20527046.22226      -379.60226        39.10026    -52340.85626
G16  21669016.25225      1370.01825        34.90025    231833.17825
G18  20639285.52025      -881.19125        34.30025   -106219.22025
G05  23547257.07315     -2110.26115        32.10015   -334088.16515
G23  23904545.52714      2038.29014        29.20014    338263.70414
G29  22278431.06314     -3702.56414        28.70014   -601066.09514
G25  24639907.94714     -4886.66114        25.20014   -487609.16714
G28  23680840.69513     -4686.60313        22.60013   -425227.60113
C26  22629535.09926      -401.03426        38.10026    -56133.13926
R10  19348129.16925      -960.35725        33.60025   -142303.19425
C08  38609301.13714      -944.51514        28.20014 -93816284.25714
C29  22116017.89914     -2808.64714        26.90014   -453526.39114
R09  20443080.35014     -4431.56314        26.20014   -716283.10414
C35  22360993.00714       390.12514        25.40014     70853.11614
C30  26351720.48414     -4215.39514        25.00014    -58888.83914
C13  38277307.07214      -451.05014        25.90014    -14106.25714
> 2025 05 03 09 15 47.9999999  0 16                      
G26  20526881.33626      -380.13426        39.20026    -52714.85326
G16  21668513.20025      1369.86525        35.00025    233209.04825
G18  20639221.36425      -881.73725        34.30025   -107094.80925
G05  23547421.65915     -2108.32215        31.90015   -336190.74715
G23  23903913.86514      2032.63114        29.00014    340304.54714
G29  22278897.84014     -3700.47414        27.80014   -604760.70814
G25  24640593.87214     -4888.64614        25.20014   -492491.81514
G28  23681509.23213     -4691.16713        22.90013   -429911.25613
C26  22629374.71026      -401.56026        38.00026    -56528.63426
R10  19348081.20225      -961.32725        33.60025   -143312.99825
C29  22116312.89514     -2805.36814        27.40014   -456326.38914
C08  38609237.88114      -950.34114        28.00014 -93817228.05514
R09  20443671.24114     -4433.04114        26.70014   -720706.18514
C35  22360683.32114       392.88014        25.30014     71251.07014
C30  26352287.39114     -4214.78214        25.10014    -63097.93414
C13  38277167.06914      -456.08714        25.70014    -14554.64814
> 2025 05 03 09 15 48.9999999  0 16                      
G26  20526716.15026      -380.72426        39.20026    -53089.42626
G16  21668012.84725      1369.47325        35.10025    234584.56325
G18  20639150.61325      -882.39225        34.30025   -107971.02425
G05  23547588.34415     -2105.67215        31.80015   -338291.48115
G23  23903282.20214      2031.68014        28.90014    342343.19114
G29  22279349.02814     -3698.33814        27.30014   -608453.89814
G25  24641287.29214     -4892.98114        25.20014   -497377.44514
G28  23682176.87013     -4691.02113        23.10013   -434595.91513
C26  22629213.42226      -402.28826        37.90026    -56924.78526
R10  19348022.44325      -962.25925        33.60025   -144263.31025
C29  22116609.99014     -2803.06914        28.10014   -459124.56314
R09  20444262.13214     -4433.55614        27.40014   -725127.74414
C08  38609176.12414      -943.82214        27.80014 -93818167.99614
C35  22360374.83514       390.16214        25.40014     71647.70314
C13  38277022.86814      -456.16014        25.50014    -15004.34514
C30  26352855.49814     -4209.42714        25.10014    -67303.37914
> 2025 05 03 09 15 50.0000000  0 16                      
G26  20526579.44526      -381.57126        39.20026    -53464.75626
G16  21667540.37425      1368.78025        35.20025    235959.49825
G18  20639113.43925      -883.40725        34.30025   -108848.12625
G05  23547782.60915     -2111.46115        31.60015   -340395.45915
G23  23902685.61514      2036.38714        28.80014    344384.24114
G29  22279842.48614     -3697.33114        27.70014   -612145.94114
G25  24642015.48814     -4895.21514        25.20014   -502265.55914
G28  23682863.69514     -4688.22314        23.50014   -439279.04314
C26  22629084.21126      -403.02026        37.70026    -57321.64226
C29  22116932.26615     -2807.36015        30.40015   -461924.98915
R10  19347995.76125      -963.19425        33.60025   -145224.29925
R09  20444873.40914     -4436.24514        27.60014   -729497.33814
C08  38609148.54314      -943.98214        27.50014 -93819106.75814
C13  38276900.25314      -451.37714        25.70014    -15451.28914
C35  22360101.72414       385.17214        25.70014     72040.56814
C30  26353458.98014     -4207.57714        25.00014    -71506.37414
> 2025 05 03 09 15 51.0000000  0 16                      
G26  20526413.95926      -382.25326        39.20026    -53840.79326
G16  21667051.71225      1368.33425        35.30025    237333.94225
G18  20639042.38825      -883.95925        34.30025   -109725.89025
G05  23547947.79515     -2113.88115        31.40015   -342502.13115
G23  23902061.44714      2035.24214        28.90014    346425.32914
G29  22280305.66514     -3696.17114        28.20014   -615836.83014
G25  24642703.21214     -4888.29514        25.20014   -507149.88714
G28  23683517.24214     -4690.82514        23.80014   -443963.39714
C26  22628921.12426      -403.59526        37.60026    -57719.11726
C29  22117230.26016     -2806.48216        36.10016   -464725.58016
R10  19347935.20325      -964.45425        33.60025   -146166.22325
R09  20445480.48814     -4432.54114        27.70014   -734005.23114
C08  38609101.17514      -960.15214        27.30014 -93820055.90714
C13  38276753.65514      -452.79414        26.20014    -15898.26014
C35  22359785.74214       387.62014        25.90014     72433.81114
C30  26354026.48714     -4216.95314        24.90014    -75714.80314
> 2025 05 03 09 15 52.0000000  0 16                      
G26  20526254.77026      -382.62926        39.20026    -54217.31626
G16  21666549.86026      1368.16626        35.50026    238708.11026
G18  20638977.33325      -884.74125        34.30025   -110604.39725
G05  23548120.47515     -2110.61515        31.30015   -344607.52415
G23  23901437.27914      2033.78114        29.00014    348465.45614
G29  22280787.43214     -3702.37914        28.30014   -619531.47214
G25  24643396.03214     -4890.04614        25.10014   -512034.12114
G28  23684174.98714     -4696.02314        23.90014   -448651.62414
C26  22628761.33526      -404.05326        37.40026    -58117.10526
C29  22117533.95016     -2806.50416        36.00016   -467526.24116
R10  19347874.34525      -964.71225        33.60025   -147105.09325
R09  20446065.08414     -4434.37714        27.80014   -738393.17014
C13  38276605.85714      -450.65214        26.40014    -16343.81214
C08  38609048.11214      -961.18514        27.10014 -93821009.20814
C35  22359472.75914       382.87914        26.20014     72824.01814
C30  26354602.68814     -4218.22914        24.90014    -79925.89414
> 2025 05 03 09 15 53.0000001  0 17                      
G26  20526121.96126      -383.34926        39.30026    -54594.48126
G16  21666081.28426      1367.53226        35.70026    240081.76326
G18  20638936.86115      -885.26815        34.20015   -111483.50315
G05  23548313.54215     -2112.29015        31.20015   -346713.60815
G23  23900840.09314      2032.63914        29.00014    350504.50014
G29  22281279.69114     -3700.74714        28.50014   -623226.27714
G25  24644120.33114     -4895.51714        25.10014   -516921.97014
G28  23684858.81314     -4692.75514        24.00014   -453338.96314
C26  22628635.12226      -404.72626        37.30026    -58515.71226
C29  22117869.71726     -2806.92626        35.90026   -470327.20726
R10  19347845.26525      -966.02525        33.60025   -148053.11725
R09  20446687.15314     -4440.17114        27.80014   -742820.07614
C13  38276487.43914      -453.31514        26.80014    -16790.66614
C08  38609031.32414      -957.37314        26.90014 -93821961.35014
C35  22359188.25614       379.91314        26.20014     73211.23614
C30  26355207.07014     -4217.46314        25.00014    -84137.36214
R19  21583669.83614     -4780.24814        23.70014     -4796.71214
> 2025 05 03 09 15 54.0000000  0 17                      
G26  20525945.98326      -383.91526        39.30026    -54972.20126
G16  21665570.73726      1367.41426        35.90026    241455.20326
G18  20638858.31615      -885.94715        34.20015   -112363.22515
G05  23548469.43415     -2114.21315        31.20015   -348821.16715
G29  22281742.27114     -3698.61614        29.00014   -626919.68014
G23  23900203.33414      2034.27514        29.00014    352544.31214
G25  24644804.75714     -4897.47514        25.10014   -521812.29314
G28  23685506.06514     -4690.72014        24.00014   -458024.61314
C26  22628457.34526      -405.16826        37.10026    -58914.78326
C29  22118155.71926     -2807.32926        35.60026   -473128.50726
R10  19347788.00525      -966.59125        33.60025   -149074.32425
R09  20447257.95814     -4438.69714        27.70014   -747197.27714
C13  38276322.25314      -453.42814        27.10014    -17237.99314
C35  22358864.48014       386.64914        26.20014     73601.98414
C08  38608967.16814      -956.59814        26.80014 -93822912.55414
C30  26355768.58114     -4212.46614        25.20014    -88345.58814
R19  21584311.39214     -4781.02014        23.80014     -9558.94414
> 2025 05 03 09 15 55.0000000  0 17                      
G26  20525781.69726      -384.55626        39.30026    -55350.58226
G16  21665072.48226      1366.78826        36.00026    242828.10626
G18  20638783.66725      -886.76025        34.10025   -113243.74325
G05  23548630.12315     -2116.50715        31.10015   -350930.79515
G29  22282213.84414     -3702.25114        29.20014   -630615.08614
G23  23899582.76314      2036.87114        29.00014    354586.06114
G25  24645502.07414     -4894.89514        25.10014   -526701.77014
G28  23686156.01514     -4691.00014        24.00014   -462709.93614
C26  22628300.55326      -405.94826        37.00026    -59314.57826
C29  22118459.40925     -2807.82925        35.40025   -475930.30025
R10  19347730.44525      -967.87925        33.50025   -150030.73825
R09  20447858.44214     -4435.04014        27.70014   -751669.25814
C13  38276173.85614      -454.00714        27.20014    -17685.91314
C35  22358557.19314       386.50714        26.30014     73993.76714
C08  38608912.00614      -952.59714        26.70014 -93823860.82514
C30  26356337.28714     -4212.14714        25.40014    -92552.56914
R19  21584991.62114     -4779.41714        24.00014    -14465.87314
> 2025 05 03 09 15 56.0000001  0 17                      
G26  20525643.49326      -385.22426        39.30026    -55729.61626
G16  21664607.50426      1366.25526        36.00026    244200.48626
G18  20638740.19725      -887.41225        34.00025   -114124.94825
G05  23548816.29415     -2114.66415        31.10015   -353039.87315
G29  22282703.40514     -3701.98014        29.20014   -634310.96814
G23  23898982.57914      2037.14514        29.00014    356628.65014
G25  24646223.67414     -4890.03814        25.10014   -531587.71414
G28  23686862.32614     -4690.28814        23.90014   -467394.66214
C26  22628171.34326      -406.80426        36.90026    -59715.17326
C29  22118791.87925     -2808.08525        35.10025   -478732.41625
R10  19347701.96525      -968.74825        33.50025   -150984.10225
R09  20448477.51414     -4437.23614        27.60014   -756081.64214
C13  38276055.73814      -453.85614        27.20014    -18133.91714
C08  38608880.22814      -950.16514        26.60014 -93824806.48614
C35  22358273.58914       387.04814        26.30014     74386.26714
C30  26356936.57214     -4214.67014        25.80014    -96760.80514
R19  21585632.57814     -4774.38314        24.20014    -19003.11514
> 2025 05 03 09 15 56.9999998  0 17                      
G26  20525387.47026      -385.95426        39.30026    -56109.35526
G16  21664019.01226      1365.77426        36.00026    245572.37126
G18  20638575.01225      -888.19525        33.90025   -115006.90525
G05  23548895.43915     -2115.38615        31.40015   -355149.24815
G29  22283088.93914     -3697.22714        29.10014   -638003.84014
G23  23898274.46914      2034.05114        29.00014    358669.45814
G25  24646835.85114     -4884.96414        25.10014   -536469.09914
G28  23687407.04914     -4697.64514        23.80014   -472084.09514
C26  22627917.71926      -407.07226        36.90026    -60116.21326
C29  22119002.03425     -2808.44725        34.90025   -481534.88125
R10  19347555.66625      -969.47225        33.50025   -151945.85325
R09  20448991.95714     -4438.18314        27.60014   -760574.25814
C13  38275806.91014      -451.58614        27.20014    -18580.43514
C08  38608738.42714      -955.69714        26.60014 -93825754.96514
C35  22357867.07114       382.86014        26.30014     74776.21314
C30  26357412.64314     -4219.54114        26.00014   -100972.70714
R19  21586203.68214     -4777.91714        24.40014    -23805.95014
> 2025 05 03 09 15 57.9999999  0 17                      
G26  20525252.86326      -386.34426        39.30026    -56489.58926
G16  21663549.53726      1365.75326        36.10026    246944.07826
G18  20638539.33725      -888.65725        33.80025   -115889.42025
G05  23549089.70415     -2114.51615        31.70015   -357258.14315
G29  22283576.40114     -3697.55914        29.10014   -641695.92914
G23  23897686.57614      2034.28114        29.00014    360709.82414
G25  24647560.14914     -4887.32614        25.00014   -541350.53814
G28  23688087.87814     -4699.99314        23.80014   -476776.66114
C26  22627787.90826      -407.56426        37.00026    -60517.72926
C29  22119333.60425     -2808.64725        34.80025   -484337.59525
R10  19347519.09125      -970.39025        33.50025   -152855.74225
R09  20449618.22414     -4436.16414        27.60014   -765024.84014
C13  38275676.50114      -456.22214        27.10014    -19029.54914
C08  38608713.24414      -957.16914        26.70014 -93826705.36414
C30  26358014.02714     -4212.93614        26.30014   -105181.42714
C35  22357592.46114       379.06114        26.30014     75162.77614
R19  21586861.72714     -4779.97714        24.40014    -28435.04014
> 2025 05 03 09 15 58.9999999  0 17                      
G26  20525085.57926      -386.80726        39.20026    -56870.29626
G16  21663051.88126      1365.28826        36.10026    248315.41526
G18  20638467.68625      -889.08625        33.80025   -116772.40725
G05  23549249.19415     -2114.96515        31.80015   -359367.17715
G29  22284035.68314     -3698.68014        29.10014   -645388.50514
G23  23897050.11614      2033.28614        29.00014    362749.38014
G25  24648251.77014     -4887.72614        25.00014   -546232.26314
G28  23688754.31714     -4697.77014        23.90014   -481468.79014
C26  22627627.51926      -408.18626        37.00026    -60919.81926
C29  22119632.19725     -2808.95425        34.60025   -487140.59725
R10  19347464.82925      -971.25625        33.50025   -153830.46225
C13  38275529.00314      -456.46114        27.10014    -19479.68814
R09  20450180.63514     -4432.93014        27.50014   -769293.58614
C08  38608658.68214      -955.81114        26.80014 -93827655.49914
C30  26358591.72714     -4213.18814        26.70014   -109389.25414
C35  22357276.48014       380.03114        26.30014     75548.85814
R19  21587531.76314     -4778.82914        24.40014    -33287.62614
> 2025 05 03 09 15 59.9999999  0 17                      
G26  20524920.09326      -387.75226        39.20026    -57251.79126
G16  21662553.92626      1364.75626        36.20026    249686.27426
G18  20638402.93125      -890.28125        33.70025   -117656.34825
G05  23549409.88315     -2119.78615        31.80015   -361479.47115
G23  23896428.94614      2033.62514        29.10014    364788.89214
G29  22284488.96914     -3699.77414        29.10014   -649081.97314
G25  24648948.78814     -4898.41214        25.00014   -551121.20614
G28  23689405.46614     -4695.59214        23.90014   -486159.32214
C26  22627469.82926      -408.95626        37.20026    -61322.61326
C29  22119931.69025     -2809.52825        34.50025   -489944.07825
R10  19347413.26525      -972.24925        33.50025   -154818.14625
C30  26359164.93014     -4213.73414        27.10014   -113597.14914
C13  38275372.81114      -455.93414        27.10014    -19929.81714
C08  38608602.62114      -956.71414        26.80014 -93828606.14714
R09  20450777.22214     -4440.53714        27.30014   -773744.94514
C35  22356962.29714       379.10714        26.20014     75934.16414
R19  21588219.78614     -4782.94014        24.50014    -38235.88714
> 2025 05 03 09 16 00.9999998  0 17                      
G26  20524760.30426      -387.95926        39.10026    -57633.68726
G16  21662058.96926      1364.45126        36.30026    251056.77126
G18  20638333.67925      -890.67525        33.60025   -118540.87025
G05  23549576.86715     -2119.96715        31.80015   -363592.97315
G23  23895794.58614      2034.54014        29.20014    366829.00014
G29  22284950.05014     -3702.12514        29.00014   -652777.30614
G25  24649634.11314     -4893.94614        24.90014   -556009.57814
G28  23690050.61914     -4692.19314        23.90014   -490847.05514
C26  22627313.33726      -409.20026        37.30026    -61725.80426
C29  22120228.18525     -2809.64225        34.50025   -492747.79425
R10  19347354.50525      -972.83825        33.50025   -155768.45825
C30  26359729.43914     -4213.95814        27.50014   -117805.21414
C08  38608553.45514      -956.09714        27.00014 -93829556.55514
C13  38275226.81214      -450.96014        27.00014    -20376.62714
R09  20451382.50314     -4442.83014        27.20014   -778243.66714
C35  22356651.71214       382.21214        26.10014     76321.28014
R19  21588881.42814     -4777.17114        24.70014    -43042.54914
> 2025 05 03 09 16 01.9999999  0 17                      
G26  20524612.50626      -388.85226        39.10026    -58016.27526
G16  21661576.90226      1364.10526        36.40026    252426.95226
G18  20638280.91525      -891.27925        33.50025   -119425.95225
G05  23549760.64015     -2118.77215        31.90015   -365706.04415
G23  23895184.20814      2033.28614        29.30014    368868.50614
G29  22285439.31114     -3701.03914        28.90014   -656472.49914
G25  24650344.32214     -4890.58314        24.90014   -560895.48114
G28  23690720.65514     -4691.38714        23.90014   -495533.28014
C26  22627170.33626      -410.07026        37.40026    -62129.67226
C29  22120550.16225     -2810.00025        34.40025   -495551.79125
R10  19347307.73825      -973.97525        33.50025   -156685.93625
C30  26360322.12914     -4216.41214        27.80014   -122014.93614
C08  38608515.38114      -960.58114        27.10014 -93830509.83614
C13  38275089.50714      -455.34614        27.00014    -20825.21814
R09  20451984.48614     -4440.14814        27.10014   -782626.21214
C35  22356359.41414       382.31314        26.00014     76709.10514
R19  21589525.38314     -4783.44414        24.90014    -47658.09814
> 2025 05 03 09 16 02.9999998  0 17                      
G26  20524449.41926      -389.32926        39.10026    -58399.46126
G16  21661079.54726      1363.43526        36.50026    253796.53426
G18  20638205.96725      -891.96225        33.50025   -120311.72425
G05  23549930.32215     -2120.01915        32.00015   -367819.85215
G23  23894560.94014      2035.07614        29.40014    370908.95614
G29  22285916.88114     -3704.57214        28.80014   -660170.05014
G25  24651041.93914     -4894.29314        24.80014   -565783.08414
G28  23691384.09614     -4696.15514        23.90014   -500222.23114
C26  22627008.44826      -410.66126        37.50026    -62534.20826
C29  22120854.45125     -2810.46725        34.40025   -498356.24225
R10  19347260.97025      -974.51925        33.40025   -157701.07925
C30  26360891.73414     -4212.00614        28.10014   -126222.32214
C08  38608468.31414      -956.95914        27.20014 -93831461.70814
C13  38274942.60914      -457.59314        26.90014    -21275.95014
R09  20452546.59714     -4441.57614        26.90014   -786894.20514
C35  22356041.63414       384.56214        25.90014     77098.61514
R19  21590188.82314     -4784.21214        25.00014    -52474.71014
> 2025 05 03 09 16 04.0000000  0 17                      
G26  20524313.31426      -390.19826        39.00026    -58783.41326
G16  21660612.17026      1363.17026        36.60026    255165.75126
G18  20638168.49325      -892.99525        33.40025   -121198.40325
G05  23550128.18625     -2121.36825        32.10025   -369934.79225
G23  23893962.55415      2028.89815        29.50015    372945.61515
G29  22286419.03314     -3701.59014        28.70014   -663866.38714
G25  24651755.74514     -4890.25014        24.80014   -570668.54514
G28  23692055.03214     -4694.35314        23.80014   -504910.87714
C26  22626880.43726      -411.33126        37.60026    -62939.40026
C29  22121184.82225     -2810.84225        34.30025   -501161.08225
R10  19347231.29025      -976.13025        33.40025   -158646.81425
C30  26361499.41414     -4216.44314        28.30014   -130431.87514
C08  38608436.53614      -951.82714        27.20014 -93832409.67714
C13  38274811.30014      -457.33814        26.90014    -21727.21314
R09  20453174.36214     -4450.61014        26.70014   -791351.66514
C35  22355760.42914       382.56014        25.80014     77487.36614
R19  21590893.03614     -4781.15014        25.10014    -57350.25414
> 2025 05 03 09 16 05.0000000  0 17                      
G26  20524145.13026      -390.53626        39.00026    -59167.84626
G16  21660111.81726      1362.88426        36.70026    256534.65526
G18  20638098.64225      -893.32925        33.20025   -122085.60725
G05  23550289.47425     -2121.69825        32.30025   -372050.33025
G23  23893336.58715      2029.14815        29.50015    374981.17715
G29  22286876.51614     -3699.42014        28.60014   -667560.87214
G25  24652449.46414     -4897.47614        24.70014   -575558.11014
G28  23692695.38814     -4693.54214        23.80014   -509598.88114
C26  22626721.24726      -411.59126        37.70026    -63344.98526
C29  22121485.21425     -2811.00725        34.30025   -503966.16125
R10  19347176.12925      -976.16125        33.30025   -159615.43125
C30  26362064.22314     -4215.46514        28.50014   -134641.49914
C08  38608381.97314      -959.22214        27.20014 -93833361.27514
C13  38274671.29614      -457.08114        26.80014    -22178.48214
R09  20453812.32014     -4441.56614        26.50014   -796023.82514
R19  21591517.20414     -4783.55614        25.30014    -61956.38514
C35  22355454.34114       378.74814        25.70014     77873.32214
> 2025 05 03 09 16 06.0000000  0 17                      
G26  20523983.54226      -391.35526        38.90026    -59552.98526
G16  21659618.35826      1362.24226        36.70026    257903.02726
G05  23550460.95525     -2122.56725        32.50025   -374166.64625
G18  20638035.98525      -894.29825        33.10025   -122973.63125
G23  23892709.42115      2029.66615        29.50015    377016.71815
G29  22287344.19314     -3703.02214        28.60014   -671257.14114
G25  24653140.78614     -4895.86814        24.70014   -580447.97114
G28  23693359.42914     -4691.63214        23.80014   -514285.39714
C26  22626564.75526      -412.67626        37.70026    -63751.42426
C29  22121790.40325     -2811.60725        34.20025   -506771.72025
R10  19347126.66325      -978.00025        33.30025   -160616.08325
C30  26362632.32914     -4212.69514        28.70014   -138849.29914
C08  38608324.71314      -953.18214        27.20014 -93834310.05714
C13  38274522.30014      -456.33914        26.70014    -22629.25714
R09  20454379.22814     -4442.70814        26.30014   -800317.02014
R19  21592170.15214     -4781.59914        25.40014    -66717.88514
C35  22355144.95514       377.16614        25.60014     78257.29114
> 2025 05 03 09 16 07.0000000  0 17                      
G26  20523824.05226      -391.95726        38.90026    -59938.76026
G16  21659115.60626      1361.89626        36.70026    259270.99226
G05  23550627.64025     -2123.31825        32.70025   -376283.72225
G18  20637960.43725      -894.97425        33.00025   -123862.38125
G23  23892085.55315      2032.91815        29.50015    379054.42015
G29  22287810.07014     -3700.53814        28.70014   -674952.35014
G25  24653840.80114     -4895.33814        24.70014   -585337.57714
G28  23694021.97014     -4691.36414        23.80014   -518971.23914
C26  22626407.66426      -412.92826        37.70026    -64158.31626
C29  22122090.49525     -2811.80725        34.20025   -509577.57325
R10  19347068.20325      -978.25625        33.20025   -161568.68325
C30  26363201.93514     -4214.78914        28.80014   -143057.88814
C08  38608270.15114      -956.58914        27.20014 -93835260.17014
C13  38274375.70114      -454.12914        26.70014    -23078.39614
R09  20454966.52114     -4443.80214        26.10014   -804718.71414
R19  21592826.69714     -4781.50014        25.50014    -71497.76014
C35  22354834.67014       379.50514        25.50014     78642.15814
> 2025 05 03 09 16 08.0000001  0 17                      
G26  20523688.54626      -392.56826        38.80026    -60325.15626
G16  21658650.92826      1361.35226        36.80026    260638.45826
G05  23550818.90725     -2124.22225        32.80025   -378401.65525
G18  20637918.16725      -895.60525        32.80025   -124751.79225
G23  23891480.87214      2031.97914        29.40014    381092.21714
G29  22288315.52014     -3706.39114        28.90014   -678651.10614
G25  24654566.59914     -4888.18814        24.60014   -590222.33114
G28  23694703.99814     -4688.36114        23.70014   -523654.85414
C26  22626276.35526      -413.83026        37.70026    -64565.96026
C29  22122424.76425     -2812.34225        34.10025   -512383.88025
R10  19347049.31625      -979.64825        33.10025   -162572.38525
C30  26363808.11514     -4215.67214        28.90014   -147267.32714
C08  38608249.16514      -959.85214        27.20014 -93836212.90414
C13  38274247.39014      -455.56414        26.70014    -23527.94514
R19  21593525.81314     -4779.80914        25.50014    -76347.28114
R09  20455609.27614     -4445.15714        26.00014   -809259.45714
C35  22354562.45814       375.15414        25.40014     79024.42314
> 2025 05 03 09 16 09.0000000  0 17                      
G26  20523514.66626      -393.15326        38.80026    -60712.11126
G16  21658140.68126      1361.13626        36.90026    262005.65026
G05  23550972.10125     -2124.81125        32.90025   -380520.22825
G18  20637836.02325      -896.21325        32.70025   -125641.79325
G23  23890846.21114      2033.08114        29.40014    383130.81714
G29  22288772.70414     -3702.06414        29.20014   -682348.12314
G25  24655248.92614     -4894.06814        24.60014   -595109.35214
G28  23695349.15114     -4689.66514        23.70014   -528338.55914
C26  22626107.57226      -414.06226        37.70026    -64973.97426
C29  22122719.46025     -2812.49925        34.10025   -515190.40725
R10  19346978.56525      -980.18425        33.10025   -163519.60925
C30  26364367.52814     -4215.11114        29.00014   -151476.64014
C08  38608181.71214      -960.05614        27.40014 -93837166.61014
C13  38274086.10214      -462.99014        26.80014    -23982.54514
R19  21594176.36314     -4784.57114        25.50014    -81156.20914
R09  20456198.66814     -4451.85114        25.80014   -813732.93614
C35  22354227.89014       386.00914        25.30014     79413.09414
> 2025 05 03 09 16 10.0000001  0 17                      
G26  20523385.75626      -393.76326        38.80026    -61099.70826
G16  21657670.90626      1360.52326        37.00026    263372.29326
G05  23551170.86425     -2125.56725        33.00025   -382639.56825
G18  20637797.95025      -896.75725        32.50025   -126532.40225
G29  22289266.76215     -3703.06415        29.50015   -686045.27715
G23  23890244.82814      2032.37614        29.40014    385169.16514
G25  24655969.02814     -4895.60614        24.60014   -599998.20214
G28  23696052.76414     -4690.62414        23.60014   -533022.98314
C26  22625978.96126      -414.94426        37.70026    -65382.74626
C29  22123048.63225     -2812.85625        34.10025   -517997.29325
R10  19346962.97625      -981.06425        33.00025   -164543.14125
C30  26364963.81514     -4216.78014        29.00014   -155687.07214
C08  38608158.02814      -958.56314        27.50014 -93838119.69314
C13  38273970.68114      -458.64114        26.90014    -24435.97914
R19  21594849.39714     -4784.85114        25.60014    -85865.66714
R09  20456830.03114     -4451.78414        25.70014   -818212.55514
C35  22353949.08314       381.47314        25.30014     79800.82814
> 2025 05 03 09 16 10.9999998  0 17                      
G26  20523131.23226      -394.62226        38.80026    -61488.08026
G16  21657087.81026      1360.23026        37.10026    264738.57026
G05  23551241.61525     -2126.44125        33.10025   -384759.73525
G18  20637639.36015      -899.59215        32.40015   -127425.09115
G29  22289646.89915     -3705.49215        29.80015   -689744.08315
G23  23889533.42014      2029.27914        29.40014    387205.37714
G25  24656572.51014     -4894.45814        24.60014   -604886.88414
G28  23696607.98014     -4694.67614        23.50014   -537710.33614
C26  22625728.93426      -415.56926        37.70026    -65792.17726
C29  22123259.38625     -2813.42325        34.00025   -520804.66525
R10  19346821.47425      -982.27125        33.00025   -165531.58925
C30  26365452.47714     -4219.88814        29.00014   -159899.93714
C08  38608018.92514      -961.51614        27.60014 -93839074.52614
C13  38273729.34914      -458.67114        27.00014    -24889.03114
R19  21595425.89814     -4785.48514        25.60014    -90698.35214
R09  20457313.29714     -4446.40114        25.60014   -822538.59914
C35  22353541.96514       378.91614        25.20014     80186.55714
> 2025 05 03 09 16 11.9999999  0 17                      
G26  20522998.42426      -394.81526        38.80026    -61876.83826
G16  21656622.83226      1359.87926        37.20026    266104.49126
G05  23551443.37525     -2126.93925        33.30025   -386880.50825
G18  20637594.69015      -899.85815        32.30015   -128318.65115
G29  22290143.35515     -3704.33715        30.30015   -693442.66915
G23  23888945.22715      2029.34815        29.50015    389240.92315
G25  24657288.11514     -4897.52514        24.60014   -609777.55514
G28  23697285.51114     -4699.54914        23.50014   -542401.91214
C26  22625601.52226      -415.85426        37.70026    -66202.01726
C29  22123593.35525     -2813.63125        34.00025   -523612.33825
R10  19346796.29225      -982.84525        32.90025   -166500.96925
C30  26366049.96314     -4214.22514        28.90014   -164109.83714
C08  38607990.44414      -961.76214        27.80014 -93840030.10514
C13  38273609.73114      -457.67014        27.30014    -25341.28914
R19  21596106.72614     -4789.44614        25.60014    -95448.37714
R09  20457962.64714     -4443.27214        25.60014   -827112.20114
C35  22353272.75114       379.36314        25.20014     80571.91514
> 2025 05 03 09 16 12.9999999  0 17                      
G26  20522838.33526      -395.78026        38.80026    -62266.36926
G16  21656123.97726      1359.18826        37.30026    267469.83326
G05  23551603.46425     -2127.97325        33.40025   -389002.17425
G18  20637535.03215      -898.85915        32.20015   -129211.83515
G29  22290606.83415     -3702.97215        30.60015   -697140.27215
G23  23888312.06615      2031.67215        29.50015    391277.79615
G25  24657998.02314     -4901.12114        24.60014   -614671.28714
G28  23697931.56314     -4706.20114        23.50014   -547099.33214
C26  22625441.43326      -416.87526        37.80026    -66612.67426
C29  22123893.74725     -2814.01425        34.00025   -526420.36725
R10  19346738.43225      -984.20025        32.90025   -167456.62025
C30  26366618.67014     -4209.60114        28.90014   -168315.66714
C08  38607940.97914      -960.78714        27.90014 -93840985.28314
C13  38273458.63614      -463.88014        27.40014    -25797.42114
R19  21596795.05014     -4788.76914        25.60014   -100399.69714
R09  20458547.84214     -4446.04314        25.50014   -831502.43114
C35  22352950.77414       379.15914        25.20014     80957.01414
> 2025 05 03 09 16 13.9999999  0 17                      
G26  20522674.64826      -396.39626        38.90026    -62656.56826
G16  21655631.41826      1358.91026        37.50026    268834.79626
G05  23551774.64625     -2128.61025        33.50025   -391124.56225
G18  20637461.88215      -898.56715        32.10015   -130104.70015
G29  22291078.40815     -3702.17115        31.00015   -700837.01315
G23  23887688.49715      2032.64515        29.60015    393315.76115
G25  24658684.84814     -4892.60014        24.60014   -619560.35814
G28  23698593.50514     -4707.13114        23.50014   -551799.32014
C26  22625285.84126      -417.31026        38.00026    -67023.89326
C29  22124190.84125     -2814.34325        34.00025   -529228.73325
R10  19346680.57225      -984.86525        32.90025   -168411.50925
C30  26367189.17514     -4215.37114        28.80014   -172523.98714
C08  38607886.11714      -958.46614        28.10014 -93841938.78014
C13  38273300.94514      -460.77414        27.50014    -26252.77614
R19  21597451.29614     -4784.15014        25.60014   -105177.27314
R09  20459140.53214     -4449.57214        25.40014   -835933.15514
C35  22352641.68814       376.48614        25.20014     81340.24514
> 2025 05 03 09 16 14.9999999  0 17                      
G26  20522511.26126      -397.18526        38.90026    -63047.51626
G16  21655136.16126      1358.32826        37.60026    270199.24626
G05  23551942.52925     -2129.62825        33.70025   -393247.86825
G18  20637407.62015      -904.11815        32.00015   -131001.15815
G29  22291539.78815     -3705.53515        31.20015   -704535.71015
G23  23887070.32515      2031.65115        29.70015    395353.42615
G25  24659378.86714     -4891.10614        24.70014   -624446.87914
G28  23699250.65013     -4701.12113        23.40013   -556496.15713
C26  22625125.75126      -418.16726        38.00026    -67435.87126
C29  22124494.23125     -2815.05525        34.00025   -532037.68625
R10  19346643.99725      -986.05125        32.80025   -169480.04225
C30  26367760.87914     -4215.72014        28.70014   -176733.37014
C08  38607835.75114      -963.50114        28.10014 -93842895.07414
C13  38273158.84314      -455.57014        27.50014    -26704.40014
R19  21598084.75714     -4785.61514        25.60014   -109833.92014
R09  20459748.51114     -4456.50114        25.50014   -840446.40314
C35  22352329.90414       382.43814        25.10014     81726.82114
> 2025 05 03 09 16 16.0000000  0 17                      
G26  20522378.75326      -397.61726        39.00026    -63439.00226
G16  21654666.38626      1357.97126        37.80026    271563.28526
G05  23552135.29625     -2130.10525        33.80025   -395371.80025
G18  20637368.04715      -900.21215        31.90015   -131896.21115
G29  22292036.24415     -3705.43715        31.50015   -708234.99315
G23  23886483.63115      2026.73815        29.70015    397387.71715
G25  24660098.96914     -4896.64414        24.70014   -629336.24214
G28  23699926.98213     -4700.79113        23.30013   -561191.72313
C26  22624996.84126      -418.52026        38.10026    -67848.33726
C29  22124828.80025     -2815.06425        33.90025   -534846.84125
R10  19346615.21725      -986.65125        32.80025   -170430.35325
C30  26368364.66114     -4214.02814        28.70014   -180941.97814
C08  38607805.77214      -962.13514        28.30014 -93843851.38914
C13  38273037.42814      -459.99314        27.60014    -27157.73114
R19  21598761.08914     -4788.01714        25.60014   -114559.44914
R09  20460383.77114     -4457.09114        25.50014   -844943.59914
C35  22352046.90014       375.13314        25.10014     82109.64214
> 2025 05 03 09 16 16.9999999  0 17                      
G26  20522202.77526      -398.39726        39.00026    -63831.14926
G16  21654162.13526      1357.39126        37.90026    272926.83926
G05  23552296.58425     -2131.08625        33.90025   -397496.55625
G29  22292492.22915     -3706.52415        31.70015   -711935.16115
G18  20637290.70115      -903.77915        31.80015   -132793.13615
G23  23885847.47215      2028.13115        29.80015    399421.84715
G25  24660789.99014     -4895.75614        24.70014   -634225.92414
G28  23700573.33513     -4698.05013        23.20013   -565885.00313
C26  22624830.15626      -419.36226        38.10026    -68261.49126
C29  22125118.69925     -2815.78525        33.90025   -537656.50825
R10  19346542.36725      -987.92125        32.80025   -171367.66225
C08  38607742.51614      -960.02914        28.40014 -93844806.27114
C30  26368920.77614     -4218.07514        28.60014   -185152.99014
C13  38272877.63814      -460.13214        27.60014    -27611.68614
R19  21599434.72214     -4784.54414        25.70014   -119493.89414
R09  20460945.88214     -4456.88814        25.50014   -849274.95314
C35  22351719.22714       375.83914        25.10014     82491.71814
> 2025 05 03 09 16 17.9999999  0 17                      
G26  20522036.09026      -399.07126        39.00026    -64224.01626
G16  21653669.27726      1357.03726        38.00026    274289.94526
G05  23552469.26525     -2131.83525        34.00025   -399622.13625
G29  22292965.30115     -3705.21415        32.00015   -715634.79815
G18  20637222.94815      -905.43615        31.80015   -133691.83915
G23  23885219.40715      2031.71115        29.80015    401458.26315
G25  24661488.20714     -4891.83814        24.60014   -639113.15014
G28  23701216.09013     -4700.30713        23.20013   -570579.07313
C26  22624672.16526      -419.91726        38.20026    -68675.29226
C29  22125420.29025     -2816.08825        33.90025   -540466.59625
R10  19346486.00625      -988.56925        32.70025   -172330.94025
C08  38607694.54914      -962.28914        28.40014 -93845762.23014
C30  26369494.27914     -4218.63114        28.50014   -189365.22214
C13  38272724.14414      -460.15714        27.60014    -28065.91514
R19  21600057.99114     -4788.70214        25.70014   -124096.96214
R09  20461505.89414     -4448.70614        25.50014   -853530.70614
C35  22351413.43814       381.42314        25.00014     82877.22114
> 2025 05 03 09 16 19.0000000  0 16                      
G26  20521905.68026      -399.45626        39.10026    -64617.36726
G16  21653199.20226      1356.78526        38.10026    275652.74726
G05  23552664.43025     -2132.36725        34.00025   -401748.33325
G29  22293466.85415     -3705.41315        32.20015   -719334.37915
G18  20637179.77815      -902.76915        31.80015   -134589.34415
G23  23884622.52015      2029.70615        29.90015    403494.11515
G25  24662205.01114     -4894.43414        24.60014   -644001.27414
G28  23701906.51213     -4702.99113        23.10013   -575275.18413
C26  22624544.75426      -420.38526        38.20026    -69089.60926
C29  22125752.76025     -2816.10725        33.80025   -543276.82425
R10  19346468.01925      -989.58025        32.70025   -173339.21925
C08  38607667.86814      -965.07814        28.50014 -93846720.39514
C30  26370098.96014     -4212.97614        28.50014   -193574.08014
C13  38272623.11414      -457.25414        27.70014    -28518.28814
R19  21600781.39014     -4788.21714        25.70014   -129074.30914
C35  22351134.63114       384.83914        25.00014     83266.15414
> 2025 05 03 09 16 20.0000000  0 16                      
G26  20521746.19126      -400.24126        39.10026    -65011.40326
G16  21652698.84926      1356.18726        38.20026    277015.04926
G05  23552826.91725     -2133.29825        34.00025   -403875.35725
G29  22293921.93925     -3706.14025        32.30025   -723034.42525
G18  20637124.31615      -904.19415        31.80015   -135487.40015
G23  23884006.14715      2032.35615        30.00015    405531.54615
G25  24662899.03014     -4897.70314        24.60014   -648891.87914
G28  23702563.05713     -4708.63013        23.10013   -579975.73413
C26  22624385.26426      -421.20226        38.20026    -69504.64326
C29  22126053.45225     -2816.75525        33.80025   -546087.53225
R10  19346411.05825      -990.39225        32.70025   -174299.44625
C08  38607615.10414      -959.96314        28.60014 -93847675.88714
C30  26370668.86614     -4217.64114        28.40014   -197784.92214
C13  38272466.02314      -462.05614        27.70014    -28973.24314
R19  21601431.04014     -4786.41314        25.70014   -133817.44114
C35  22350826.74514       381.70414        24.90014     83654.14214
> 2025 05 03 09 16 21.0000000  0 17                      
G26  20521582.50426      -400.77326        39.10026    -65406.02126
G16  21652198.19526      1355.85126        38.20026    278376.96026
G05  23552989.40525     -2133.92925        34.10025   -406003.07725
G29  22294390.21525     -3706.13625        32.50025   -726734.62525
G18  20637055.66415      -902.08615        31.70015   -136384.23515
G23  23883368.48815      2028.41115        30.10015    407566.87415
G25  24663577.46114     -4899.95014        24.50014   -653784.80714
G28  23703218.70313     -4699.94313        23.10013   -584671.97313
C26  22624233.26926      -421.50026        38.20026    -69920.11426
C29  22126358.04125     -2816.81425        33.80025   -548898.43925
R10  19346360.69325      -991.29425        32.70025   -175293.99525
C08  38607562.94014      -961.13914        28.70014 -93848631.27014
C30  26371240.57014     -4212.61614        28.30014   -201993.07614
R09  20463330.73124     -4450.94824        27.10024                
C13  38272312.82914      -466.45614        27.80014    -29431.99214
R19  21602078.89214     -4785.26114        25.70014   -138550.62614
C35  22350513.76114       377.01114        24.80014     84038.68514
> 2025 05 03 09 16 22.0000001  0 17                      
G26  20521449.09626      -401.43326        39.10026    -65801.27426
G16  21651736.81526      1355.50626        38.20026    279738.51026
G05  23553188.46725     -2134.87325        34.10025   -408131.65725
G29  22294883.37325     -3706.53125        32.50025   -730435.13825
G18  20637016.99015      -907.71315        31.70015   -137284.41415
G23  23882779.99515      2024.32315        30.10015    409598.77415
G25  24664302.65914     -4898.58514        24.50014   -658677.60014
G28  23703913.02213     -4695.55313        23.30013   -589363.84813
C26  22624104.05926      -422.25926        38.20026    -70336.23726
C29  22126696.20725     -2817.50625        33.80025   -551709.87325
R10  19346343.00525      -992.32525        32.70025   -176304.56225
C08  38607535.35914      -963.01714        28.80014 -93849587.87014
C30  26371838.65614     -4213.95014        28.30014   -206201.22214
C13  38272198.30814      -462.58914        27.80014    -29889.42814
R19  21602769.31414     -4791.71414        25.80014   -143352.69514
R09  20464011.85914     -4454.05814        27.00014     -4743.99114
C35  22350239.75114       373.42314        24.80014     84419.68814
> 2025 05 03 09 16 22.9999998  0 17                      
G26  20521201.76826      -402.09526        39.10026    -66197.17926
G16  21651151.32026      1354.95826        38.20026    281099.57526
G05  23553264.31425     -2135.57025        34.10025   -410260.99025
G29  22295263.81025     -3706.72825        32.60025   -734135.88725
G18  20636854.80315      -908.40515        31.70015   -138186.16815
G23  23882070.08715      2025.64215        30.10015    411630.41315
G25  24664904.34214     -4895.85514        24.50014   -663568.52814
G28  23704497.91813     -4697.94113        23.40013   -594055.86213
C26  22623857.03026      -422.99626        38.10026    -70753.06926
C29  22126909.95925     -2817.81525        33.70025   -554521.69025
R10  19346209.89825      -993.20425        32.70025   -177338.00925
C08  38607396.55614      -964.39214        29.00014 -93850545.79214
C30  26372325.51914     -4210.63914        28.20014   -210407.16014
C13  38271958.77414      -463.05414        27.90014    -30346.73614
R09  20464499.02214     -4457.97314        26.80014     -9090.66814
R19  21603317.63414     -4786.61114        26.00014   -148034.59914
C35  22349841.02714       368.40414        25.30014     84796.16614
> 2025 05 03 09 16 23.9999999  0 17                      
G26  20521072.55726      -402.77026        39.00026    -66593.75226
G16  21650685.74226      1354.44626        38.20026    282460.13726
G05  23553467.27425     -2136.51825        34.10025   -412391.20525
G29  22295762.96415     -3706.68815        32.60015   -737836.68815
G18  20636823.62415      -910.44115        31.60015   -139089.80515
G23  23881475.29915      2027.68015        30.00015    413663.32215
G25  24665616.34914     -4890.10714        24.40014   -668455.00214
G28  23705185.04214     -4695.07314        23.80014   -598746.00814
C26  22623730.51726      -423.68126        38.00026    -71170.59426
C29  22127242.72915     -2817.96115        33.70015   -557333.73115
R10  19346181.41725      -993.99025        32.60025   -178289.84625
C08  38607369.87414      -962.33414        29.10014 -93851502.78314
C13  38271846.35214      -467.57114        27.90014    -30807.01314
C30  26372929.00114     -4219.27614        28.10014   -214618.11814
R09  20465112.09814     -4456.94714        26.90014    -13470.95914
R19  21604021.84714     -4795.82114        26.10014   -152909.38514
C35  22349561.62014       371.89614        25.60014     85173.46214
> 2025 05 03 09 16 24.9999999  0 17                      
G26  20520912.16826      -403.31726        39.00026    -66990.91226
G16  21650187.78726      1354.20726        38.20026    283820.37226
G05  23553633.95925     -2136.80625        34.10025   -414521.90625
G29  22296230.64115     -3714.99815        32.60015   -741543.04715
G18  20636767.26315      -905.13115        31.60015   -139990.53015
G23  23880834.04315      2032.66415        30.00015    415699.97815
G28  23705837.09014     -4697.37214        23.80014   -603437.06514
G25  24666318.46314     -4893.90014        24.30014   -673342.52114
C26  22623572.82626      -423.97726        38.00026    -71588.54726
C29  22127540.42315     -2822.09815        33.60015   -560148.60515
R10  19346131.35225      -995.12625        32.60025   -179286.68425
C08  38607318.01014      -967.21514        29.20014 -93852462.71714
C13  38271693.45814      -468.62514        27.90014    -31268.98214
C30  26373498.60714     -4220.59714        28.00014   -218831.63114
R09  20465683.80214     -4451.79214        26.90014    -17789.37014
R19  21604680.19114     -4792.61414        26.10014   -157699.20414
C35  22349251.33514       371.09214        25.60014     85550.49614
> 2025 05 03 09 16 25.9999998  0 17                      
G26  20520742.78526      -404.15426        38.90026    -67388.79026
G16  21649678.73926      1353.50126        38.30026    285180.06426
G05  23553794.94725     -2137.91925        34.00025   -416653.47525
G18  20636689.61715      -907.46615        31.70015   -140891.80415
G23  23880206.87715      2029.31915        29.90015    417735.68915
G29  22296686.02515     -3714.24415        31.70015   -745250.71915
G28  23706492.43714     -4703.46714        23.90014   -608132.45314
G25  24667005.88714     -4895.51714        24.20014   -678231.42914
C26  22623402.84426      -424.96926        37.90026    -72007.26826
C29  22127831.22115     -2818.94415        33.50015   -562962.28415
R10  19346061.80025      -996.00525        32.50025   -180241.53525
C08  38607247.55914      -966.07114        29.30014 -93853422.83314
C13  38271531.27014      -469.93814        27.80014    -31732.35414
C30  26374052.92314     -4217.77914        27.90014   -223044.08114
R09  20466289.08314     -4461.15914        26.70014    -22350.70514
R19  21605308.85614     -4798.56714        26.00014   -162392.56114
C35  22348938.35214       375.08714        25.60014     85930.14114
> 2025 05 03 09 16 26.9999999  0 16                      
G26  20520606.97926      -404.75726        39.00026    -67787.35726
G16  21649214.96026      1353.09326        38.30026    286539.25426
G05  23553994.30925     -2138.69625        34.00025   -418785.89925
G18  20636662.93615      -911.40115        31.80015   -141795.93315
G23  23879616.88515      2025.50215        29.80015    419768.49215
G29  22297177.08615     -3712.85015        29.90015   -748957.94815
G28  23707190.35414     -4701.60914        24.10014   -612828.09314
G25  24667724.19014     -4896.51514        24.10014   -683121.51414
C26  22623277.23126      -425.42226        38.00026    -72426.59626
C29  22128170.28625     -2818.80025        33.30025   -565775.51725
R10  19346039.31625      -997.08725        32.50025   -181226.17025
C08  38607221.77714      -966.05714        29.40014 -93854383.04814
C13  38271410.45414      -463.37514        27.70014    -32191.86714
C35  22348651.75014       375.94914        25.80014     86311.18314
R09  20466946.22814     -4450.43014        26.50014    -26965.56614
R19  21605999.57814     -4799.17814        25.90014   -167194.62914
> 2025 05 03 09 16 27.9999999  0 16                      
G26  20520442.39326      -405.39426        39.00026    -68186.56626
G16  21648718.80426      1352.65826        38.30026    287897.99826
G05  23554163.69225     -2139.56125        33.90025   -420919.17425
G18  20636595.18215      -909.19715        32.00015   -142699.53215
G23  23878992.11815      2028.69615        29.60015    421802.46815
G28  23707855.89314     -4700.79914        24.20014   -617523.26714
G29  22297650.45814     -3706.48614        28.70014   -752660.77514
G25  24668427.80314     -4896.88214        24.00014   -688012.22414
C26  22623120.73926      -426.11026        38.00026    -72846.57126
C29  22128474.57625     -2819.74825        33.20025   -568589.22225
R10  19345997.34525      -997.80725        32.50025   -182266.48225
C08  38607173.51014      -962.70714        29.40014 -93855341.05214
C13  38271261.45714      -463.68514        27.60014    -32650.28914
C35  22348339.36714       369.78314        26.10014     86688.59314
R09  20467530.82314     -4456.37414        26.30014    -31352.73914
R19  21606647.12914     -4793.24414        25.80014   -171927.80914
> 2025 05 03 09 16 28.9999999  0 17                      
G26  20520277.50726      -406.04126        39.00026    -68586.42226
G16  21648228.04426      1352.31126        38.40026    289256.36426
G05  23554332.17525     -2140.16925        33.80025   -423053.13725
G18  20636530.72725      -910.40425        32.20025   -143603.75925
G23  23878368.54915      2030.17715        29.50015    423837.82115
G28  23708509.14114     -4696.13014        24.20014   -622215.17114
G29  22298125.62914     -3704.21114        27.70014   -756360.61814
G25  24669116.12614     -4898.90514        23.80014   -692904.49214
C26  22622965.44726      -426.79226        38.00026    -73267.21926
R10  19345940.98425      -998.82625        32.50025   -183228.99725
C29  22128778.26625     -2820.10625        33.10025   -571403.32325
C08  38607122.24514      -963.50714        29.40014 -93856298.85214
C35  22348031.18014       371.42014        26.40014     87065.88314
C13  38271110.66114      -466.40214        27.40014    -33110.15714
R09  20468142.40014     -4457.72514        26.10014    -35883.55614
R19  21607306.37314     -4795.33714        25.70014   -176721.45814
C30  26375803.71114     -4213.11814        24.70014   -235674.79014
> 2025 05 03 09 16 29.9999999  0 17                      
G26  20520117.71826      -406.65126        39.00026    -68986.89926
G16  21647730.98826      1351.78126        38.40026    290614.24926
G05  23554497.36125     -2140.69425        33.70025   -425187.67925
G18  20636462.67425      -911.02825        32.40025   -144508.61225
G23  23877739.58514      2023.22214        29.40014    425868.99714
G28  23709162.08914     -4698.00514        24.40014   -626907.23714
G29  22298592.70514     -3699.70514        26.80014   -760056.46214
G25  24669804.45014     -4906.78614        23.70014   -697802.53314
C26  22622806.85726      -427.29426        38.00026    -73688.42426
R10  19345891.81825      -999.69725        32.60025   -184231.93625
C29  22129088.25125     -2820.41325        32.90025   -574217.76025
C08  38607069.78215      -966.46815        29.50015 -93857258.55815
C35  22347725.39214       366.69114        26.60014     87439.98014
C13  38270958.06714      -459.97414        27.20014    -33566.22314
R09  20468712.30514     -4464.48014        26.00014    -40194.32414
R19  21607974.01114     -4781.11714        25.60014   -181563.32114
C30  26376379.61214     -4211.41214        23.60014   -239880.39614
> 2025 05 03 09 16 31.0000000  0 17                      
G26  20519984.31026      -407.49426        39.10026    -69388.14526
G16  21647266.01026      1351.27526        38.40026    291971.63726
G05  23554696.72325     -2142.14525        33.60025   -427323.38225
G18  20636431.19625      -912.16025        32.50025   -145414.92825
G23  23877140.30014      2025.64814        29.30014    427900.39714
G28  23709850.11214     -4703.27314        24.50014   -631602.86714
G29  22299088.86214     -3697.08914        26.00014   -763749.22914
G25  24670540.44014     -4914.25014        23.50014   -702707.47314
C26  22622684.24226      -428.16426        37.90026    -74110.39526
R10  19345870.53325     -1000.69025        32.60025   -185223.43425
C29  22129421.32025     -2820.91425        32.80025   -577032.64225
C08  38607048.19715      -966.49815        29.50015 -93858218.91915
C35  22347445.08614       366.59714        26.80014     87812.95114
C13  38270834.25314      -464.02214        27.00014    -34023.72014
R09  20469357.15914     -4463.11314        25.80014    -44745.00414
R19  21608661.73514     -4781.89314        25.50014   -186349.31414
C30  26376960.31013     -4211.31513        22.90013   -244085.93613
> 2025 05 03 09 16 32.0000000  0 17                      
G26  20519824.82126      -407.83526        39.10026    -69789.87626
G16  21646770.75226      1351.01826        38.50026    293328.68826
G05  23554864.60725     -2142.12725        33.60025   -429459.46125
G18  20636367.94025      -912.29125        32.70025   -146321.15225
G23  23876518.83014      2025.97414        29.20014    429932.09014
G28  23710508.15714     -4700.62714        24.50014   -636297.92314
G29  22299559.83614     -3701.48714        25.30014   -767443.90314
G25  24671237.15813     -4914.57613        23.30013   -707614.93113
C26  22622526.85126      -428.40826        37.90026    -74532.78426
R10  19345815.97025     -1001.49825        32.60025   -186195.10225
C29  22129723.81125     -2820.82525        32.70025   -579847.61525
C08  38606998.13114      -965.88914        29.40014 -93859179.09314
C35  22347135.10014       373.55914        26.90014     88190.18714
C13  38270675.06314      -466.79414        26.70014    -34483.54214
R09  20469964.83814     -4460.49514        25.70014    -49255.18814
R19  21609300.59214     -4786.54014        25.30014   -191035.80914
C30  26377528.11713     -4214.70913        22.40013   -248293.71813
> 2025 05 03 09 16 33.0000000  0 17                      
G26  20519663.83226      -408.68126        39.10026    -70192.33126
G16  21646272.19826      1350.45326        38.50026    294685.25026
G05  23555035.78825     -2143.57125        33.40025   -431596.62725
G18  20636309.78025      -913.67025        32.70025   -147228.43225
G23  23875888.96614      2028.49114        29.10014    431965.55814
G28  23711164.10314     -4703.93714        24.50014   -640994.99314
G29  22300023.31514     -3712.29214        24.80014   -771146.41514
G25  24671938.97213     -4912.03613        23.10013   -712521.53513
C26  22622370.65926      -429.10826        37.90026    -74955.78026
R10  19345780.59525     -1002.59625        32.60025   -187270.50025
C29  22130032.29725     -2821.99125        32.60025   -582663.39525
C08  38606942.07014      -966.74214        29.40014 -93860139.77314
C35  22346823.61614       374.17914        27.00014     88569.25914
C13  38270530.56314      -465.51114        26.50014    -34943.28414
R09  20470568.02114     -4458.84814        25.60014    -53741.68314
R19  21609964.93314     -4789.84114        25.20014   -195857.01914
C30  26378111.51313     -4213.87113        22.10013   -252501.68913
> 2025 05 03 09 16 34.0000001  0 17                      
G26  20519535.22126      -409.23026        39.10026    -70595.39426
G16  21645811.11726      1349.92326        38.60026    296041.29626
G05  23555237.24925     -2143.90025        33.30025   -433734.37425
G18  20636278.30225      -913.70925        32.70025   -148136.08925
G23  23875300.47314      2025.59914        29.00014    433997.69014
G28  23711850.62714     -4705.48214        24.50014   -645693.76414
G29  22300520.97114     -3717.03814        24.30014   -774854.70414
G25  24672671.96513     -4903.16813        22.90013   -717421.94113
C26  22622245.04626      -430.07126        37.80026    -75379.61926
C29  22130354.87425     -2821.89125        32.60025   -585479.37725
R10  19345754.51325     -1003.74325        32.60025   -188236.06625
C08  38606918.68614      -966.04414        29.30014 -93861100.15614
C35  22346539.11314       369.29714        27.20014     88945.68814
C13  38270420.83914      -457.24114        26.20014    -35397.48514
R09  20471190.69014     -4456.47114        25.50014    -58173.17214
R19  21610673.94214     -4794.47814        25.10014   -200758.59614
C30  26378717.09413     -4216.92913        21.90013   -256711.76013
> 2025 05 03 09 16 35.0000001  0 17                      
G26  20519381.42826      -409.94526        39.10026    -70999.13626
G16  21645315.26026      1349.50226        38.70026    297396.88926
G05  23555405.13225     -2144.95925        33.30025   -435873.02225
G18  20636209.94925      -914.94025        32.70025   -149044.69425
G23  23874683.80014      2024.47314        29.00014    436028.62614
G28  23712505.67414     -4700.56414        24.40014   -650389.82414
G29  22300980.55214     -3723.56214        24.00014   -778569.26814
G25  24673356.69113     -4900.49313        22.70013   -722318.49913
C26  22622091.55226      -430.51526        37.80026    -75804.03626
C29  22130660.06325     -2822.48125        32.60025   -588295.82125
R10  19345693.95525     -1004.36925        32.50025   -189176.46425
C08  38606863.22514      -964.93514        29.30014 -93862059.70114
C35  22346239.02114       367.64414        27.20014     89320.13414
R09  20471787.57614     -4462.00114        25.40014    -62626.05114
C13  38270265.84614      -452.41414        26.00014    -35846.62114
R19  21611328.68814     -4788.37314        24.90014   -205528.51214
C30  26379292.99513     -4213.80213        21.70013   -260920.44813
> 2025 05 03 09 16 36.0000000  0 17                      
G26  20519210.84626      -410.73726        39.10026    -71403.59626
G16  21644811.30926      1349.02426        38.70026    298752.04826
G18  20636128.10625      -915.58725        32.80025   -149954.00825
G05  23555557.72725     -2145.62825        33.20025   -438012.37825
G23  23874050.33914      2025.45314        28.90014    438059.85314
G28  23713159.22114     -4704.72214        24.40014   -655087.71614
G29  22301431.44014     -3721.31014        23.70014   -782284.38614
G25  24674027.32613     -4897.17713        22.60013   -727211.52713
C26  22621924.26826      -431.25026        37.80026    -76229.09926
C29  22130953.26025     -2822.78025        32.60025   -591112.58025
R10  19345641.49125     -1005.45325        32.50025   -190222.84125
C08  38606799.36914      -973.01914        29.20014 -93863024.31914
C35  22345918.54214       370.42114        27.20014     89695.80614
R09  20472357.78214     -4457.51014        25.30014    -67000.20014
C13  38270097.66314      -447.75514        25.70014    -36290.92814
R19  21611979.53814     -4784.55614        24.80014   -210340.49514
C30  26379848.81113     -4214.45613        21.60013   -265129.07313
> 2025 05 03 09 16 37.0000001  0 17                      
G26  20519080.13626      -411.13726        39.20026    -71808.61126
G16  21644349.62926      1348.81226        38.80026    300106.87326
G18  20636095.12925      -916.00925        32.90025   -150863.88925
G05  23555765.18325     -2146.43125        33.00025   -440152.55625
G23  23873459.14814      2024.23114        28.90014    440090.31414
G28  23713842.44814     -4704.24514        24.60014   -659785.94914
G29  22301938.09014     -3720.41314        23.60014   -785999.13914
G25  24674751.62513     -4893.27413        22.50013   -732100.82513
C26  22621798.65526      -431.69826        37.90026    -76654.72426
C29  22131283.93125     -2822.99325        32.80025   -593929.63525
R10  19345622.60425     -1006.08525        32.40025   -191225.77825
C08  38606778.08414      -975.56414        29.00014 -93863992.37414
C35  22345631.64114       366.16614        27.20014     90069.00214
R09  20472986.74614     -4460.79114        25.20014    -71463.77814
C13  38269992.73514      -444.17214        25.40014    -36731.28414
R19  21612632.78614     -4792.13514        24.60014   -214942.80114
C30  26380454.69113     -4217.10413        21.60013   -269339.49213
> 2025 05 03 09 16 37.9999998  0 17                      
G26  20518831.30926      -411.95926        39.20026    -72214.34726
G16  21643763.83426      1348.08926        38.80026    301461.11726
G18  20635934.14025      -917.05925        32.90025   -151774.64725
G05  23555850.32425     -2147.15925        32.90025   -442293.48025
G23  23872743.24414      2025.52814        28.80014    442121.39614
G28  23714405.15914     -4703.12314        24.60014   -664483.53614
G29  22302317.32713     -3715.82713        23.40013   -789710.70113
G25  24675353.90813     -4895.44513        22.50013   -736990.31513
C26  22621554.92326      -432.49326        38.00026    -77081.05526
C29  22131499.78225     -2823.46225        33.10025   -596747.09025
R10  19345466.11225     -1007.43225        32.40025   -192134.90425
C08  38606638.38014      -968.46014        28.90014 -93864956.82614
C35  22345239.51314       368.12214        27.30014     90442.68914
R09  20473504.18814     -4467.82714        25.10014    -75973.20514
R19  21613242.26414     -4792.52814        24.50014   -219953.05714
C13  38269747.80514      -446.71514        25.10014    -37172.00614
C30  26380931.06113     -4217.87013        21.60013   -273551.00713
> 2025 05 03 09 16 38.9999999  0 17                      
G26  20518702.09826      -412.21326        39.20026    -72620.49226
G16  21643299.75526      1348.04026        38.80026    302815.13426
G18  20635903.56125      -917.26325        32.90025   -152685.83325
G05  23556053.88315     -2147.97715        32.80015   -444435.19815
G23  23872150.85414      2023.14514        28.80014    444151.09614
G28  23715093.48214     -4699.79014        24.70014   -669178.68414
G29  22302812.88414     -3706.42414        23.60014   -793414.93114
G25  24676080.00513     -4895.18913        22.40013   -741879.69813
C26  22621426.01326      -432.64726        38.00026    -77507.72326
C29  22131833.45125     -2823.40425        33.10025   -599564.63925
R10  19345447.22625     -1007.84125        32.40025   -193137.84425
C08  38606618.59414      -966.18814        28.80014 -93865918.56314
C35  22344960.70614       365.64114        27.40014     90814.88614
R09  20474110.36814     -4470.83814        24.90014    -80316.05914
R19  21613907.50314     -4793.16614        24.40014   -224618.12514
C13  38269634.48314      -461.73814        24.80014    -37622.86614
C30  26381525.55013     -4216.42513        21.80013   -277761.92413
> 2025 05 03 09 16 39.9999999  0 17                      
G26  20518541.11026      -413.14826        39.20026    -73027.39726
G16  21642802.40026      1347.40426        38.80026    304168.65226
G18  20635840.60525      -918.18925        32.90025   -153597.78025
G05  23556224.76515     -2150.22415        32.70015   -446578.67915
G23  23871529.98414      2025.86214        28.70014    446182.14714
G28  23715747.33014     -4701.17614        24.70014   -673873.94514
G29  22303278.46214     -3706.95314        23.90014   -797117.06914
G25  24676772.52613     -4900.20913        22.40013   -746772.39213
C26  22621271.32026      -433.65026        38.00026    -77935.17326
C29  22132135.94115     -2822.21215        33.00015   -602381.42515
R10  19345401.05815     -1009.18815        32.30015   -194156.03715
C08  38606569.72814      -969.96914        28.70014 -93866881.91514
C35  22344648.32214       369.49214        27.60014     91189.15314
R09  20474727.64114     -4468.03314        25.40014    -84877.43714
R19  21614585.93414     -4796.27514        24.30014   -229515.87114
C13  38269483.38814      -476.27614        24.50014    -38086.79614
C30  26382099.65213     -4213.10013        21.80013   -281970.42613
> 2025 05 03 09 16 40.9999999  0 17                      
G26  20518379.52126      -413.68026        39.20026    -73434.91026
G16  21642305.34426      1347.11826        38.80026    305521.81226
G18  20635777.34925      -918.96625        32.80025   -154510.49825
G05  23556391.45015     -2148.25815        32.60015   -448721.43715
G23  23870903.41714      2035.40614        28.70014    448220.01114
G28  23716404.47514     -4700.53214        24.70014   -678568.81414
G29  22303762.32714     -3708.73514        24.20014   -800819.69814
G25  24677471.94213     -4899.73613        22.30013   -751665.87413
C26  22621118.72526      -434.01026        37.90026    -78363.12326
C29  22132441.72915     -2826.74215        32.90015   -605200.97715
R10  19345340.20015     -1009.67215        32.20015   -195095.67215
C08  38606522.36114      -966.91314        28.80014 -93867843.76814
C35  22344336.83714       367.73314        27.60014     91562.93714
R09  20475325.72714     -4467.43414        25.40014    -89337.18914
R19  21615253.87114     -4796.53814        24.30014   -234357.73714
C13  38269348.18214      -482.21414        24.30014    -38559.04314
C30  26382668.95813     -4208.22813        21.80013   -286174.87413
> 2025 05 03 09 16 41.9999999  0 17                      
G26  20518221.53126      -414.33026        39.10026    -73843.05926
G16  21641807.08926      1346.50526        38.80026    306874.44526
G18  20635713.79325      -919.68525        32.80025   -155423.95225
G05  23556566.22915     -2151.59115        32.40015   -450866.17615
G23  23870269.05714      2029.30814        28.60014    450256.08114
G28  23717055.02414     -4705.30014        24.60014   -683266.73114
G29  22304221.60914     -3710.62514        24.20014   -804523.75114
G25  24678165.96113     -4904.11213        22.20013   -756562.53713
C26  22620964.93226      -434.86126        37.90026    -78791.80726
C29  22132747.81815     -2826.52615        32.80015   -608021.30715
R10  19345302.72625     -1010.88425        32.10025   -196158.86525
C08  38606470.19714      -970.99914        28.80014 -93868807.84614
C35  22344027.45214       369.65714        27.60014     91937.84314
R09  20475892.63414     -4461.44114        25.40014    -93630.38414
R19  21615894.22814     -4792.90314        24.30014   -239051.12614
C13  38269201.88314      -481.37614        24.10014    -39033.50314
C30  26383236.46513     -4208.73613        21.70013   -290378.30913
> 2025 05 03 09 16 43.0000000  0 17                      
G26  20518089.32226      -415.03726        39.30026    -74251.89126
G16  21641343.01026      1346.08326        38.80026    308226.62126
G18  20635685.31225      -920.41525        32.70025   -156338.13825
G05  23556758.09615     -2151.23515        32.30015   -453011.33815
G23  23869687.75914      2019.81314        28.40014    452285.22314
G29  22304724.36114     -3709.14314        24.20014   -808227.29114
G28  23717735.25414     -4703.36514        24.60014   -687964.37314
G25  24678892.35813     -4912.16013        22.10013   -761465.62413
C26  22620838.12026      -435.56926        37.80026    -79221.20826
R10  19345294.33125     -1011.84625        32.00025   -197218.24525
C29  22133086.58315     -2824.83315        32.70015   -610840.76715
C08  38606446.81314      -964.47814        28.80014 -93869768.31814
C35  22343753.44114       367.58814        27.70014     92311.74414
R09  20476540.78614     -4464.01014        25.30014    -98197.10614
R19  21616584.05014     -4802.30514        24.20014   -243848.60414
C13  38269087.96214      -477.25514        23.90014    -39505.95314
C30  26383835.15113     -4212.35813        21.60013   -294583.82213
> 2025 05 03 09 16 44.0000000  0 17                      
G26  20517928.33426      -415.52926        39.40026    -74661.28026
G16  21640843.55626      1345.81126        38.70026    309578.46326
G18  20635620.55725      -920.78925        32.90025   -157252.81825
G05  23556933.47415     -2149.73715        32.10015   -455155.64215
G23  23869050.10014      2019.92114        28.30014    454312.12814
G29  22305178.24614     -3708.73314        24.20014   -811930.38614
G28  23718388.50114     -4703.11614        24.40014   -692661.75914
G25  24679595.97113     -4912.75713        22.00013   -766371.25213
C26  22620686.12526      -435.87126        37.70026    -79651.05026
R10  19345253.56025     -1012.50925        32.00025   -198264.65925
C29  22133391.17215     -2827.13915        32.50015   -613661.47415
C08  38606395.24914      -972.23714        28.80014 -93870732.76014
C35  22343439.55914       363.94114        27.70014     92682.87914
R09  20477127.77914     -4464.60614        25.20014   -102598.79514
R19  21617257.68414     -4795.29514        24.10014   -248719.55714
C13  38268940.46414      -475.58214        23.80014    -39976.61814
C30  26384403.55713     -4212.20013        21.50013   -298789.92113
> 2025 05 03 09 16 45.0000000  0 17                      
G26  20517768.24526      -416.15326        39.50026    -75071.26926
G16  21640351.59626      1345.28126        38.70026    310929.84126
G18  20635563.89625      -921.78725        32.90025   -158168.32825
G05  23557091.46515     -2152.95515        32.00015   -457301.80615
G23  23868436.42514      2023.87414        28.30014    456340.92214
G29  22305646.82214     -3710.53314        24.20014   -815634.53214
G28  23719043.24814     -4704.50114        24.30014   -697359.98214
G25  24680293.58813     -4908.60213        21.80013   -771274.95613
C26  22620529.03426      -436.41626        37.70026    -80081.40126
R10  19345207.39225     -1013.42725        32.00025   -199282.08925
C29  22133699.05915     -2823.32415        32.30015   -616480.05415
C08  38606339.78714      -975.72614        28.70014 -93871700.85314
C35  22343138.86714       365.61214        27.70014     93054.20514
R09  20477737.55714     -4461.88214        25.10014   -107120.44114
R19  21617911.23114     -4791.06914        23.90014   -253484.88114
C13  38268782.17314      -469.03714        23.70014    -40442.32514
C30  26384983.95613     -4214.70113        21.40013   -302997.88413
> 2025 05 03 09 16 46.0000000  0 17                      
G26  20517608.75526      -416.75026        39.60026    -75481.85726
G16  21639858.73826      1344.84426        38.70026    312280.77326
G18  20635500.64025      -922.23525        32.90025   -159084.41325
G05  23557262.04715     -2154.14115        31.90015   -459449.38015
G23  23867811.35814      2027.18014        28.20014    458372.55014
G29  22306118.69514     -3710.10514        24.20014   -819338.74514
G28  23719691.10014     -4701.93014        24.10014   -702056.77014
G25  24680985.80913     -4917.18313        21.60013   -776183.74113
C26  22620376.13926      -437.25326        37.70026    -80512.48026
R10  19345146.83425     -1014.39025        32.10025   -200223.24925
C29  22134001.25015     -2825.66115        32.10015   -619299.48315
C08  38606288.82214      -969.70314        28.70014 -93872666.14614
C35  22342825.28414       361.29814        27.70014     93422.71914
R09  20478335.64314     -4468.94614        25.00014   -111579.44014
R19  21618533.00114     -4795.44514        23.80014   -258078.76514
C13  38268628.97914      -468.48714        23.60014    -40906.01214
C30  26385552.96213     -4221.55813        21.20013   -307211.03913
> 2025 05 03 09 16 47.0000000  0 17                      
G26  20517466.95326      -417.46126        39.60026    -75893.08226
G16  21639379.96926      1344.53426        38.70026    313631.38526
G18  20635451.17425      -923.22825        32.90025   -160001.31525
G05  23557439.52415     -2151.84315        31.70015   -461595.85515
G23  23867210.87414      2019.86214        28.20014    460400.28014
G29  22306597.16414     -3713.11914        24.20014   -823044.95114
G28  23720375.22614     -4697.96914        23.90014   -706750.40214
G25  24681694.51813     -4916.19813        21.40013   -781093.52413
C26  22620240.93326      -437.82926        37.90026    -80944.15026
R10  19345126.14825     -1015.62225        32.10025   -201279.54125
C29  22134315.13215     -2823.86815        31.90015   -622117.96315
C08  38606252.54814      -966.64614        28.70014 -93873628.43114
C35  22342537.18314       363.99314        27.70014     93792.12914
R09  20478929.53214     -4471.32614        24.80014   -115919.20114
R19  21619230.91814     -4793.71114        23.60014   -262981.83114
C13  38268505.16514      -467.59914        23.50014    -41368.39814
C30  26386146.85113     -4219.24713        21.10013   -311424.34813
> 2025 05 03 09 16 48.0000000  0 17                      
G26  20517307.16426      -418.11026        39.60026    -76305.00026
G16  21638890.40826      1344.13726        38.70026    314981.57826
G18  20635380.72325      -923.51025        32.90025   -160918.72625
G05  23557611.00515     -2154.85315        31.50015   -463744.02015
G23  23866582.80914      2023.10414        28.10014    462428.82414
G29  22307074.43414     -3710.63114        24.10014   -826750.21214
G28  23721020.67914     -4698.52314        23.70014   -711443.40114
G25  24682386.43913     -4916.78113        21.20013   -786004.07913
C26  22620084.74126      -438.29526        38.00026    -81376.37526
R10  19345073.08525     -1016.28325        32.10025   -202259.60025
C29  22134616.42415     -2832.09415        31.70015   -624941.66015
C08  38606202.78214      -975.46014        28.80014 -93874595.63914
C35  22342231.39514       366.02314        27.70014     94163.14314
R09  20479523.12114     -4464.49914        24.70014   -120354.50614
R19  21619886.86414     -4793.30314        23.50014   -267758.64114
C13  38268360.06613      -464.93313        23.30013    -41828.62113
C30  26386717.35613     -4227.45413        21.00013   -315643.22813
> 2025 05 03 09 16 49.0000001  0 16                      
G26  20517180.65126      -418.68626        39.70026    -76717.52126
G16  21638427.82826      1343.48226        38.70026    316331.20626
G18  20635352.84225      -924.51925        32.80025   -161836.96725
G23  23865996.41414      2022.04614        28.20014    464456.94514
G29  22307569.09114     -3714.96414        24.10014   -830458.03514
G28  23721712.00114     -4700.80814        23.50014   -716137.69914
G25  24683119.13213     -4911.42013        20.90013   -790911.30313
C26  22619962.12626      -438.99226        38.00026    -81809.23926
R10  19345051.50025     -1017.08225        32.00025   -203249.57225
C29  22134956.98815     -2832.80815        31.40015   -627767.55915
C08  38606182.99614      -973.01514        28.90014 -93875562.84614
C35  22341948.69114       363.72314        27.70014     94533.16914
R09  20480194.05714     -4465.68314        24.50014   -125045.01014
R19  21620565.59414     -4798.37114        23.50014   -272499.48514
C13  38268229.65613      -463.01813        23.10013    -42286.83413
C30  26387325.93413     -4231.12913        20.90013   -319866.40213
> 2025 05 03 09 16 49.9999998  0 17                      
G26  20516931.82426      -419.33726        39.70026    -77130.67826
G16  21637847.73026      1343.31126        38.80026    317680.53226
G18  20635199.04925      -925.11525        32.80025   -162755.88325
G23  23865282.60914      2018.85614        28.30014    466482.80014
G05  23557894.90915     -2154.50415        30.40015   -468046.34515
G29  22307948.62914     -3712.01914        24.00014   -834164.74914
G28  23722274.71113     -4702.35513        23.30013   -720833.46313
G25  24683712.12213     -4902.85313        20.70013   -795811.70813
C26  22619718.99426      -439.59826        38.00026    -82242.71926
R10  19344924.08825     -1018.02225        32.10025   -204313.52925
C29  22135171.34015     -2830.12815        31.20015   -630592.40615
C08  38606043.89214      -968.44514        29.00014 -93876527.00514
C35  22341558.36114       358.55914        27.70014     94899.42514
R09  20480668.92814     -4482.91014        24.30014   -129326.75014
R19  21621156.48513     -4799.35913        23.40013   -277410.24013
C13  38267988.32313      -463.44413        22.90013    -42744.66213
C30  26387822.09113     -4224.58113        21.00013   -324086.64413
> 2025 05 03 09 16 50.9999999  0 17                      
G26  20516806.51026      -419.91326        39.70026    -77544.43026
G16  21637387.54826      1342.78426        38.90026    319029.40726
G18  20635172.66725      -925.82825        32.90025   -163675.49825
G23  23864691.11814      2025.13514        28.50014    468512.08514
G05  23558091.87214     -2153.84314        29.40014   -470194.32714
G29  22308439.68914     -3713.43714        23.90014   -837872.03814
G28  23722959.13713     -4706.01813        23.10013   -725532.15613
G25  24684446.91313     -4900.58313        20.50013   -800708.32413
C26  22619595.18026      -440.25526        38.00026    -82676.84226
R10  19344905.80025     -1018.98625        32.10025   -205321.04525
C08  38606022.90614      -974.55914        29.00014 -93877494.22414
C35  22341288.24814       362.98414        27.70014     95267.37214
C29  22135499.61215     -2827.88315        30.10015   -633415.40515
R19  21621830.71813     -4788.48213        23.40013   -282124.27813
R09  20481265.21514     -4480.98214        24.10014   -133616.88514
C13  38267873.50213      -465.26613        22.80013    -43203.57613
C30  26388426.17313     -4224.93313        21.00013   -328306.14213
> 2025 05 03 09 16 51.9999999  0 17                      
G26  20516650.01926      -420.48926        39.70026    -77958.76526
G16  21636896.18826      1342.35526        39.00026    320377.84426
G18  20635116.90625      -926.46625        33.00025   -164595.77225
G23  23864064.25214      2022.02014        28.70014    470540.43714
G05  23558273.24714     -2156.71214        28.20014   -472344.22114
G29  22308898.07114     -3705.18314        23.80014   -841574.01614
G28  23723633.37013     -4709.76613        22.80013   -730234.32413
G25  24685147.52813     -4898.16813        20.40013   -805602.06913
C26  22619441.38726      -440.75926        37.90026    -83111.51626
R10  19344860.53225     -1019.85725        32.20025   -206342.28925
C08  38605968.64414      -978.18714        29.00014 -93878464.88314
C35  22340977.96314       362.98414        27.60014     95635.88414
C29  22135813.49514     -2830.71114        28.20014   -636239.67314
R19  21622502.25313     -4788.46913        23.40013   -286983.75813
R09  20481939.44814     -4480.11714        23.90014   -138483.88314
C13  38267735.29813      -469.43113        22.60013    -43665.62813
C30  26389000.87513     -4222.03213        20.90013   -332523.45813
> 2025 05 03 09 16 52.9999999  0 17                      
G26  20516499.82326      -421.23326        39.70026    -78373.79026
G16  21636401.23126      1342.00226        39.20026    321725.90126
G18  20635049.45325      -927.15825        33.00025   -165516.72725
G23  23863445.48014      2021.24914        28.80014    472567.96314
G05  23558448.92514     -2160.05814        27.20014   -474496.98314
G29  22309372.34314     -3712.82914        23.70014   -845279.32114
G28  23724280.92213     -4720.19413        22.60013   -734944.60413
G25  24685837.95013     -4892.72713        20.20013   -810491.22913
C26  22619288.79226      -441.36126        37.90026    -83546.77526
R10  19344818.26125     -1020.67525        32.20025   -207381.07625
C08  38605913.48214      -972.67314        29.00014 -93879433.01114
C35  22340665.27914       361.49014        27.60014     96003.58814
C29  22136114.78714     -2828.07714        27.40014   -639062.60914
R09  20482555.82214     -4475.55714        23.80014   -143040.67014
R19  21623162.99613     -4799.07813        23.40013   -291786.60213
C13  38267596.49413      -472.74913        22.40013    -44130.93913
C30  26389569.28113     -4220.92513        20.90013   -336739.30913
> 2025 05 03 09 16 53.9999999  0 17                      
G26  20516339.73426      -421.74626        39.70026    -78789.38726
G16  21635909.27226      1341.57526        39.20026    323073.54626
G18  20634980.50025      -927.82725        33.20025   -166438.35525
G23  23862830.00714      2017.97514        29.00014    474593.03214
G05  23558630.30014     -2157.57414        26.60014   -476649.04614
G29  22309847.21414     -3716.92414        23.60014   -848988.46514
G28  23724949.45913     -4735.38513        22.40013   -739667.71413
G25  24686534.06813     -4891.92113        20.10013   -815378.32313
C26  22619139.19626      -442.04526        37.90026    -83982.68526
R10  19344763.39925     -1021.79125        32.20025   -208352.74425
C08  38605860.11914      -974.94914        29.00014 -93880401.81414
C35  22340354.99414       357.77814        27.50014     96368.54814
C29  22136419.67614     -2828.70814        27.00014   -641885.52114
R09  20483121.83014     -4467.08514        24.00014   -147329.28014
R19  21623814.44514     -4809.66014        23.50014   -296540.45514
C13  38267447.49713      -472.95913        22.20013    -44597.47513
C30  26390137.98813     -4217.20313        20.90013   -340952.19113
> 2025 05 03 09 16 55.0000000  0 17                      
G26  20516212.32226      -422.43626        39.80026    -79205.63426
G16  21635444.89326      1341.01326        39.20026    324420.68026
G18  20634955.01825      -928.58125        33.30025   -167360.70925
G23  23862239.41514      2019.66314        29.10014    476618.40614
G05  23558845.55114     -2156.31414        26.20014   -478800.03514
G29  22310343.07114     -3720.44714        23.50014   -852701.23714
G28  23725644.37813     -4738.45113        22.10013   -744397.14513
G25  24687241.57813     -4895.60713        19.90013   -820267.18613
C26  22619011.78426      -442.58526        37.80026    -84419.17226
R10  19344751.40725     -1022.48425        32.20025   -209392.29325
C08  38605842.43114      -970.95114        29.00014 -93881368.17714
C35  22340077.08614       359.50014        27.40014     96733.74214
C29  22136761.13914     -2826.18614        26.70014   -644706.74414
R09  20483763.08614     -4477.50914        24.60014   -151860.09914
R19  21624499.47114     -4798.49014        23.50014   -301312.66614
C13  38267327.28113      -474.22913        22.00013    -45065.26713
C30  26390744.16813     -4213.78313        20.90013   -345161.80113
> 2025 05 03 09 16 56.0000000  0 17                      
G26  20516052.53226      -423.20226        39.80026    -79622.61026
G16  21634946.63826      1340.55126        39.20026    325767.33426
G18  20634894.46025      -929.50525        33.40025   -168283.92325
G23  23861616.74614      2021.15414        29.10014    478644.87714
G05  23559023.92714     -2159.96714        26.10014   -480953.10114
G29  22310802.65314     -3713.31214        23.50014   -856410.46214
G28  23726303.92213     -4750.41813        21.80013   -749136.66113
G25  24687930.80113     -4897.23513        19.80013   -825157.72413
C26  22618859.78926      -443.45726        37.80026    -84856.43326
R10  19344692.94825     -1023.73925        32.30025   -210344.89425
C08  38605792.06614      -975.48914        29.00014 -93882336.75014
C35  22339772.19814       360.46714        27.30014     97099.65814
C29  22137070.52514     -2831.41814        26.60014   -647530.89114
R09  20484359.67314     -4479.92714        24.90014   -156310.68614
R19  21625145.82314     -4793.07814        23.50014   -306038.19514
C13  38267172.58813      -480.88213        21.90013    -45537.91213
C30  26391306.87813     -4211.23813        20.90013   -349368.62613
> 2025 05 03 09 16 57.0000000  0 17                      
G26  20515890.94426      -423.80926        39.80026    -80040.23226
G16  21634451.68126      1340.20026        39.20026    327113.59526
G18  20634835.10125      -930.00825        33.60025   -169207.75825
G23  23860989.28114      2023.49014        29.10014    480673.27014
G05  23559194.80914     -2167.23014        26.30014   -483111.70314
G29  22311273.92614     -3714.55314        23.70014   -860119.33314
G28  23726960.76713     -4757.82013        21.50013   -753884.47313
G25  24688605.63413     -4902.97113        19.70013   -830052.64513
C26  22618706.59526      -443.89826        37.80026    -85294.24526
R10  19344658.17225     -1024.48025        32.30025   -211423.34125
C08  38605744.39914      -974.27014        29.00014 -93883305.24914
C35  22339466.40914       355.70514        27.20014     97462.64114
C29  22137378.41214     -2827.45214        26.50014   -650353.37014
R09  20484957.75914     -4479.10914        25.00014   -160770.44114
R19  21625775.38713     -4792.21213        23.40013   -310674.17213
C13  38267028.38813      -481.67413        21.80013    -46012.70313
C30  26391869.88913     -4208.43213        20.80013   -353572.65213
> 2025 05 03 09 16 58.0000000  0 17                      
G26  20515751.54126      -424.55626        39.80026    -80458.53226
G16  21633975.61026      1339.30726        39.10026    328459.16626
G18  20634786.83425      -930.80825        33.70025   -170132.29625
G23  23860382.50114      2017.96714        29.30014    482698.65914
G05  23559392.07214     -2166.45114        26.30014   -485271.59314
G29  22311765.28614     -3717.79714        23.90014   -863830.21014
G28  23727645.49313     -4766.06613        21.20013   -758640.51113
G25  24689320.93913     -4904.42413        19.60013   -834949.95813
C26  22618571.98826      -444.57226        37.80026    -85732.65426
R10  19344628.19325     -1025.55725        32.30025   -212428.53125
C08  38605709.92314      -977.74314        28.90014 -93884276.00114
C35  22339178.00914       356.10614        27.10014     97824.94814
C29  22137694.09314     -2829.55614        26.40014   -653176.65914
R09  20485588.22214     -4478.04114        25.30014   -165305.80614
R19  21626454.11713     -4790.87513        23.30013   -315474.67113
C13  38266914.76613      -474.75813        22.10013    -46483.56313
C30  26392452.98513     -4212.43113        20.70013   -357778.37313
> 2025 05 03 09 16 59.0000000  0 15                      
G26  20515592.95126      -424.88126        39.70026    -80877.32326
G16  21633482.15226      1339.52126        39.10026    329804.60226
G18  20634731.07325      -931.40325        33.80025   -171057.51525
G23  23859765.22814      2019.15514        29.40014    484723.79114
G05  23559563.85314     -2166.75514        26.30014   -487432.16414
G29  22312247.35314     -3716.89514        24.40014   -867541.20414
G25  24690022.45313     -4912.86913        19.50013   -839853.74813
C26  22618420.29326      -445.00526        37.80026    -86171.60026
R10  19344571.53225     -1026.24725        32.40025   -213391.04825
C35  22338880.91514       363.25214        27.00014     98191.74714
C29  22137999.28214     -2830.07214        26.40014   -656000.61014
R09  20486177.31514     -4481.45414        25.70014   -169716.66114
C13  38266770.56613      -472.51413        22.40013    -46951.66513
R19  21627100.47013     -4800.92113        23.10013   -320200.20913
C30  26393020.19213     -4219.77913        20.70013   -361989.60813
> 2025 05 03 09 17 00.0000000  0 16                      
G26  20515435.26026      -425.77626        39.70026    -81296.86326
G16  21632984.49626      1338.89126        39.00026    331149.58426
G18  20634667.21725      -932.09525        33.90025   -171983.41025
G23  23859139.56115      2018.92415        29.60015    486748.69415
G05  23559744.62814     -2161.24114        26.20014   -489589.27414
G29  22312724.92214     -3717.12414        24.80014   -871252.37814
G25  24690718.87113     -4927.91713        19.30013   -844769.71613
C26  22618265.30126      -445.84326        37.70026    -86611.27026
R10  19344531.95925     -1027.24625        32.40025   -214443.56325
C35  22338570.33014       360.55014        26.90014     98558.25314
C29  22138309.26714     -2832.39914        26.30014   -658826.32114
R09  20486775.40114     -4474.25714        25.90014   -174177.18014
C13  38266617.37213      -473.43013        22.60013    -47419.44613
C08  38605605.29614      -976.84314        27.50014 -93886226.25214
R19  21627664.67913     -4805.36913        22.90013   -324487.17513
C30  26393592.79613     -4218.27513        20.70013   -366201.66513
> 2025 05 03 09 17 01.0000001  0 16                      
G26  20515307.54826      -426.06726        39.70026    -81716.84526
G16  21632525.51426      1338.56526        39.00026    332494.19726
G18  20634640.53625      -932.75625        34.10025   -172909.97025
G23  23858545.97215      2022.50015        29.80015    488775.90415
G05  23559950.28614     -2164.68314        26.20014   -491747.52514
G29  22313222.87714     -3719.44314        25.20014   -874965.15714
G25  24691442.87013     -4932.70913        19.10013   -849692.93813
C26  22618145.08426      -446.17226        37.70026    -87051.40226
R10  19344512.17325     -1028.01725        32.50025   -215441.92625
C35  22338296.91914       360.74714        26.80014     98924.79414
C29  22138639.03914     -2830.03414        26.30014   -661651.04214
R09  20487404.66514     -4475.65814        25.90014   -178643.05314
C13  38266496.25613      -472.32013        23.00013    -47886.38013
C08  38605586.10914      -974.18114        26.20014 -93887194.62314
R19  21628429.15013     -4814.39213        22.60013   -329683.42813
C30  26394198.37713     -4215.84813        20.60013   -370412.37813
> 2025 05 03 09 17 01.9999997  0 16                      
G26  20515065.91526      -426.92526        39.70026    -82137.54826
G16  21631941.21926      1338.07226        39.00026    333838.35926
G18  20634493.03825      -933.34325        34.20025   -173837.14425
G23  23857828.86915      2022.30415        29.90015    490803.75415
G05  23560042.62214     -2167.01814        26.10014   -493907.71314
G29  22313610.50914     -3718.60014        25.60014   -878677.91014
G25  24692050.24913     -4935.11013        18.90013   -854620.18013
C26  22617902.55226      -446.89626        37.60026    -87492.17026
R10  19344387.45925     -1029.01125        32.50025   -216520.37425
C35  22337896.39614       357.10214        26.80014     99288.91614
C29  22138843.79714     -2831.48814        26.20014   -664476.40314
R09  20487903.22014     -4480.55114        26.00014   -183051.61714
C13  38266256.42213      -473.27213        23.30013    -48353.66713
C08  38605457.19814      -972.20614        25.30014 -93888161.67814
R19  21629055.71613     -4818.66813        22.30013   -334785.53613
C30  26394672.34913     -4213.95213        20.60013   -374621.37913
> 2025 05 03 09 17 02.9999998  0 16                      
G26  20514939.70326      -427.08726        39.70026    -82558.59826
G16  21631478.33926      1337.92926        39.00026    335182.27626
G18  20634463.95825      -933.87725        34.30025   -174764.87925
G23  23857245.47315      2019.99015        30.00015    492830.27315
G29  22314104.86714     -3719.32814        26.00014   -882391.14014
G05  23560252.17714     -2167.69514        26.10014   -496068.99714
G25  24692772.74913     -4940.80613        18.70013   -859552.55813
C26  22617779.63726      -447.36226        37.50026    -87933.46126
R10  19344377.56625     -1029.52325        32.60025   -217572.12625
C35  22337603.79914       359.59714        26.70014     99653.89414
R09  20488536.38114     -4481.48714        26.00014   -187538.11814
C29  22139188.25914     -2832.40314        26.20014   -667302.58714
C13  38266142.50114      -475.71714        23.50014    -48822.70014
C08  38605432.61514      -974.99214        24.60014 -93889130.15214
R19  21629774.61913     -4811.88513        22.00013   -339738.38113
C30  26395273.13313     -4210.42113        20.70013   -378827.45513
> 2025 05 03 09 17 03.9999998  0 17                      
G26  20514782.01226      -428.39326        39.70026    -82980.63426
G16  21630987.27926      1336.97126        38.90026    336525.47126
G18  20634409.39625      -935.07225        34.40025   -175693.59725
G23  23856622.80415      2022.18715        30.10015    494857.81515
G29  22314577.04014     -3716.13014        26.20014   -886102.39614
G05  23560413.76514     -2164.54314        26.00014   -498228.54614
G31  22403977.84913     -3897.58113        20.80013    -31082.51313
G25  24693475.76213     -4940.99313        18.40013   -864486.77313
C26  22617625.54426      -448.18126        37.40026    -88375.47226
R10  19344329.89925     -1031.11125        32.60025   -218580.40525
C35  22337300.70914       359.31914        26.60014    100018.97414
R09  20489138.36514     -4483.07914        26.20014   -192019.26914
C29  22139482.65514     -2839.06414        26.10014   -670133.48614
C13  38265993.20414      -473.54314        23.70014    -49290.86714
C08  38605379.55214      -975.01714        24.10014 -93890099.11514
C30  26395841.53913     -4211.85913        20.70013   -383033.51613
R19  21630453.94813     -4802.68513        21.80013   -344639.94713
> 2025 05 03 09 17 04.9999999  0 17                      
G26  20514620.12426      -428.72026        39.70026    -83403.21826
G16  21630497.11826      1336.83226        38.90026    337868.33426
G18  20634347.63825      -935.41625        34.50025   -176622.87225
G23  23855993.53915      2021.36815        30.10015    496885.15015
G29  22315043.81714     -3718.35214        26.30014   -889814.47614
G05  23560582.54814     -2165.95814        25.90014   -500388.46014
G31  22404479.10213     -3895.38213        20.80013    -34972.03513
G25  24694163.48613     -4937.04013        18.20013   -869418.96513
C26  22617477.74626      -448.67126        37.30026    -88818.05026
R10  19344280.13425     -1031.69525        32.60025   -219579.53025
R09  20489746.04414     -4478.32114        26.30014   -196530.21614
C35  22336995.52014       351.48814        26.50014    100378.86614
C29  22139789.04314     -2839.97414        26.10014   -672966.56314
C13  38265840.31014      -471.26814        23.80014    -49757.22814
C08  38605333.38414      -974.19814        23.70014 -93891067.69514
C30  26396428.53313     -4215.04813        20.70013   -387241.69713
R19  21631118.28813     -4797.22713        21.50013   -349462.67813
> 2025 05 03 09 17 05.9999999  0 16                      
G26  20514467.53026      -429.18426        39.70026    -83826.29326
G16  21630009.65626      1336.51826        38.90026    339210.87726
G18  20634284.38225      -936.06825        34.60025   -177552.76725
G23  23855372.66915      2014.17715        30.10015    498907.62315
G29  22315515.09014     -3720.59414        26.50014   -893528.32514
G05  23560742.63714     -2166.23914        25.80014   -502548.68314
G31  22404983.95213     -3889.23313        20.80013    -38857.45813
G25  24694870.09713     -4937.69413        18.00013   -874350.91913
C26  22617322.75326      -449.28126        37.30026    -89261.22326
R10  19344229.46925     -1032.56225        32.60025   -220572.55525
R09  20490360.91814     -4487.71814        26.30014   -201078.60814
C35  22336694.82814       345.59614        26.40014    100733.10114
C29  22140087.93614     -2834.44314        26.00014   -675796.68014
C13  38265692.81214      -469.79514        23.80014    -50222.00514
C08  38605277.62213      -971.44113        23.40013 -93892034.30913
C30  26397000.53713     -4212.61513        20.80013   -391448.96313
> 2025 05 03 09 17 07.0000000  0 16                      
G26  20514338.01926      -430.07826        39.70026    -84250.12826
G16  21629542.57926      1335.89426        39.00026    340552.89626
G18  20634256.50125      -936.92325        34.70025   -178483.43925
G23  23854782.07815      2018.39615        30.10015    500931.28815
G29  22316003.45214     -3716.58214        26.70014   -897240.08914
G05  23560943.49814     -2160.57514        25.60014   -504705.23314
G31  22405519.38213     -3888.16713        20.80013    -42740.80313
G25  24695601.89113     -4934.81813        17.70013   -879280.87513
C26  22617202.53626      -449.95326        37.20026    -89705.04326
R10  19344221.37425     -1033.55625        32.60025   -221634.98525
R09  20490982.68814     -4483.05414        26.40014   -205506.27214
C35  22336415.12214       351.58814        26.30014    101089.44514
C29  22140426.70214     -2830.97014        25.90014   -678623.49314
C13  38265576.19314      -470.05014        23.80014    -50686.42514
C08  38605253.93913      -972.44313        23.20013 -93893000.93613
C30  26397607.91613     -4214.27013        20.90013   -395657.02713
> 2025 05 03 09 17 08.0000000  0 16                      
G26  20514185.72526      -430.41826        39.70026    -84674.44326
G16  21629053.01826      1335.74026        39.00026    341894.63926
G18  20634196.24325      -937.51025        34.80025   -179414.76225
G23  23854158.80915      2017.02715        30.10015    502954.43815
G29  22316476.52514     -3715.79414        26.90014   -900950.63314
G05  23561124.87314     -2161.00614        25.40014   -506860.84714
G31  22406020.03513     -3888.53513        20.80013    -46623.70113
G25  24696300.10713     -4931.36413        17.60013   -884207.86413
C26  22617050.84226      -450.27426        37.20026    -90149.29326
R10  19344183.60025     -1034.12325        32.60025   -222698.17925
R09  20491589.16814     -4483.83914        26.50014   -210011.11114
C35  22336112.93114       356.87214        26.20014    101450.01414
C29  22140738.18614     -2829.21714        25.90014   -681448.03714
C13  38265435.59014      -475.11514        23.90014    -51154.10114
C08  38605209.86913      -976.65713        23.10013 -93893970.37713
C30  26398177.82213     -4215.87313        21.20013   -399866.42613
> 2025 05 03 09 17 09.0000000  0 16                      
G26  20514030.13226      -431.17226        39.60026    -85099.42126
G16  21628563.15726      1335.11726        39.10026    343235.87426
G18  20634131.48825      -938.02625        34.90025   -180346.64525
G23  23853537.04015      2019.99415        30.10015    504979.39415
G29  22316943.30214     -3722.17714        27.00014   -904665.02614
G05  23561296.95414     -2166.84614        25.10014   -509020.04114
G31  22406515.59213     -3895.60913        20.80013    -50511.16713
G25  24696997.42413     -4925.16813        17.50013   -889129.73313
C26  22616899.44626      -451.22426        37.20026    -90594.31926
R10  19344134.73425     -1035.49625        32.70025   -223701.11925
R09  20492203.44314     -4483.04414        26.50014   -214556.44314
C35  22335800.54714       354.57114        26.10014    101810.45814
C29  22141042.17514     -2834.87914        25.80014   -684275.60014
C13  38265282.69614      -475.25114        23.90014    -51622.95414
C08  38605165.20013      -980.73013        23.00013 -93894943.47213
C30  26398752.22413     -4216.82413        21.50013   -404076.90413
