     4.01           OBSERVATION DATA    M                   RINEX VERSION / TYPE
GnssLogger          samsung 13          20250503 073611 UTC PGM / RUN BY / DATE
Google GnssLogger                                           MARKER NAME
Unknown                                                     MARKER NUMBER
Unknown             Unknown                                 OBSERVER / AGENCY
Unknown             GnssLogger          v3.1.0.4            REC # / TYPE / VERS
Unknown             Unknown                                 ANT # / TYPE
        0.0000        0.0000        0.0000                  ANTENNA: DELTA H/E/N
G    4 C1C L1C D1C S1C                                      SYS / # / OBS TYPES
R    4 C1C L1C D1C S1C                                      SYS / # / OBS TYPES
C    4 C2C L2C D2C S2C                                      SYS / # / OBS TYPES
  2025    05    03    07    36   11.0000000     GPS         TIME OF FIRST OBS
 3 R09 -2 R10 -7 R16 -1                                     GLONASS SLOT / FRQ #
samsung SM-A515F (Android 13) HW Year: 2016 HW Model:       COMMENT
S.LSI,K102                                                  COMMENT
                                                            END OF HEADER
> 2025 05 03 07 36 11.9999998  0 12                      
G31  21354414.34727    -10683.53327      -164.43927        44.60027
G28  21026111.62625   -147970.66225     -1925.30125        35.10025
G11  25024300.93725   -339731.52925     -4369.72525        33.80025
G25  21134411.95115   -270555.97515     -3482.68415        35.00015
G12  24269772.18615   -346444.26015     -4448.09215        29.90015
G29  20409765.61314   -137097.06214     -1775.37614        28.70014
R16  20926969.06126   -313385.57126     -4039.01226        38.80026
C29  21558814.64326    -29149.49626      -394.86826        38.50026
C30  23166051.47626   -268265.60026     -3453.63726        37.80026
R10  21830067.75926    174486.42826      2227.90126        36.60026
C36  22937278.05315   -275886.06615     -3552.33215        30.70015
R09  19207768.73824                      -245.74624        25.90024
> 2025 05 03 07 36 13.0000000  0 12                      
G31  21354285.43627    -10842.68027      -165.46827        44.80027
G28  21026318.48326   -149890.69926     -1926.35826        35.50026
G11  25024967.07625   -344096.24225     -4370.28225        33.90025
G25  21134918.60015   -274034.03215     -3484.59815        34.40015
G12  24270458.11115   -350887.68615     -4449.79515        30.30015
G29  20409945.48914   -138864.40214     -1771.37214        28.40014
R16  20927567.14726   -317428.77426     -4039.59726        39.00026
C29  21558731.00126    -29538.91626      -395.55126        38.40026
C30  23166552.13026   -271713.58626     -3453.97526        38.00026
R10  21829491.55726    176711.33626      2226.94626        36.50026
C36  22937801.49015   -279432.47615     -3552.18815        30.40015
R09  19207616.14414       -32.02914      -251.67214        25.90014
> 2025 05 03 07 36 14.0000001  0 12                      
G31  21354108.85827    -11002.21527      -165.57427        45.00027
G28  21026473.47526   -151811.18326     -1926.55126        35.80026
G11  25025592.44325   -348460.68725     -4370.40525        33.90025
G25  21135372.78615   -277513.00615     -3485.27615        33.70015
G12  24271102.36515   -355332.07015     -4450.70515        30.60015
G29  20410063.30714   -140632.27014     -1773.97614        28.10014
R16  20928120.26426   -321488.82926     -4039.79526        39.20026
C29  21558598.79326    -29928.61026      -395.62226        38.40026
C30  23167006.31526   -275161.90626     -3454.27826        37.90026
R10  21828864.69126    178948.41126      2227.41026        36.40026
C36  22938289.85215   -282979.50015     -3553.12015        30.00015
R09  19207475.84114      -389.58314      -258.04414        25.80014
> 2025 05 03 07 36 14.9999998  0 12                      
G31  21353811.16427    -11162.85027      -167.04827        45.10027
G28  21026510.35026   -153732.71326     -1927.91426        36.10026
G11  25026089.19925   -352825.53425     -4370.90725        34.20025
G25  21135693.86415   -280993.63715     -3487.31915        33.20015
G12  24271620.10715   -359775.58515     -4448.93915        30.60015
G29  20410073.20014   -142407.39914     -1784.62014        27.90014
R16  20928549.26726   -325527.48426     -4041.05126        39.30026
C29  21558347.56726    -30319.01826      -396.57426        38.30026
C30  23167348.37826   -278610.66226     -3454.78026        37.80026
R10  21828125.70326    181145.06126      2226.20526        36.30026
C36  22938638.51115   -286527.83915     -3554.80415        29.70015
R09  19207209.92514      -715.03614      -252.55014        26.30014
> 2025 05 03 07 36 16.0000001  0 12                      
G31  21353718.22827    -11324.27427      -167.73627        45.10027
G11  25026795.21026   -357190.88626     -4371.52026        36.30026
G29  20410264.46816   -144181.40716     -1779.36616        37.90016
G28  21026746.88626   -155654.75526     -1928.21626        36.70026
G25  21136227.79415   -284474.77215     -3487.30415        32.90015
G12  24272325.51915   -364219.47415     -4449.99215        30.60015
R09  19207126.28316      -956.41416      -255.66116        39.10016
R16  20929168.03826   -329521.00626     -4041.60326        39.30026
C29  21558295.10326    -30709.99226      -397.12126        38.20026
C30  23167883.20826   -282060.12026     -3455.67126        37.70026
R10  21827572.28626    183407.34326      2226.07726        36.20026
C36  22939186.23215   -290076.86115     -3555.22515        29.60015
> 2025 05 03 07 36 16.9999998  0 12                      
G31  21353425.33127    -11486.31427      -168.19327        45.00027
G29  20410273.16226   -145956.02126     -1780.75926        41.20026
G11  25027285.97027   -361556.23927     -4371.19527        42.40027
G28  21026782.86126   -157577.89926     -1929.53726        36.90026
G25  21136571.95615   -287955.98415     -3487.09115        32.70015
G12  24272851.05515   -368663.78015     -4450.35415        30.50015
C36  22939542.08515   -293624.99915     -3553.48515        33.80015
R09  19206849.27516     -1223.04016      -256.06116        39.10016
R16  20929594.34316   -333545.13816     -4041.32016        39.20016
C30  23168218.97626   -285509.71726     -3455.45626        37.60026
C29  21558046.87526    -31100.68426      -396.34226        38.00026
R10  21826833.59826    185602.46826      2226.25226        36.10026
> 2025 05 03 07 36 17.9999999  0 12                      
G31  21353250.25227    -11648.70327      -168.42727        44.90027
G11  25027910.43827   -365922.47327     -4372.53527        42.30027
G29  20410405.67026   -147730.54926     -1780.34826        41.20026
G28  21026950.44526   -159501.19626     -1929.23626        36.90026
G25  21137019.54615   -291437.30415     -3487.23515        32.60015
G12  24273487.21415   -373107.88315     -4449.86315        30.70015
R09  19206697.88016     -1520.99216      -256.63816        39.60016
C36  22940019.35516   -297173.97016     -3555.19516        38.00016
C30  23168673.16126   -288959.38126     -3455.50526        37.50026
C29  21557914.66626    -31492.82326      -398.67326        37.80026
R10  21826209.43026    187825.81426      2226.26726        36.10026
R16  20930147.46016   -337605.19316     -4041.16216        38.20016
> 2025 05 03 07 36 18.9999999  0 12                      
G31  21353035.30127    -11812.07027      -169.71927        44.80027
G11  25028506.42627   -370288.92127     -4373.16427        42.00027
G29  20410502.80326   -149506.31726     -1782.24926        41.00026
G28  21027079.35626   -161425.79826     -1931.11626        37.20026
G25  21137447.05015   -294917.40415     -3485.35115        32.60015
G12  24274106.58615   -377548.79115     -4445.16915        30.70015
C30  23169092.87126   -292409.75426     -3456.53526        37.50026
R09  19206497.91816     -1719.61316      -252.43116        39.30016
R10  21825546.28926    190097.21126      2225.66726        36.00026
C36  22940456.45226   -300723.70426     -3555.92426        37.80026
R16  20930662.50416   -341623.21216     -4044.08316        37.30016
C29  21557748.58116    -31887.18316      -401.28016        37.00016
> 2025 05 03 07 36 19.9999999  0 11                      
G31  21352827.54527    -11976.59827      -170.97127        44.60027
G29  20410604.43326   -151282.57226     -1782.36126        40.70026
G28  21027206.16826   -163351.17026     -1931.61826        37.40026
G11  25029097.31626   -374656.02926     -4373.04726        41.00026
G25  21137883.54815   -298399.79315     -3489.39415        32.50015
C30  23169520.97426   -295860.93826     -3457.39726        37.40026
R16  20931177.84726   -345643.52226     -4043.59826        36.90026
R10  21824897.53826    192290.81026      2224.37226        36.00026
C36  22940897.44716   -304272.73616     -3554.48616        37.30016
R09  19206315.64416     -2012.22416      -260.80016        38.20016
C29  21557582.19616    -32284.37516      -404.41716        35.50016
> 2025 05 03 07 36 20.9999999  0 12                      
G31  21352642.57327    -12141.60127      -171.15927        44.50027
G29  20410728.24726   -153059.41326     -1783.05126        40.30026
G28  21027357.56326   -165277.32126     -1932.45826        37.50026
G25  21138332.93725   -301882.57325     -3488.89225        32.40025
G11  25029701.39826   -379023.45926     -4373.50726        39.40026
G12  24275332.73714   -386427.09214     -4451.13014        28.60014
R16  20931710.57826   -349656.91726     -4044.34526        36.80026
C30  23169973.96126   -299312.15326     -3457.09226        37.20026
R10  21824266.77526    194486.73526      2225.14326        36.10026
R09  19206135.16916     -2216.92116      -257.58216        37.20016
C29  21557448.18915    -32675.57815      -394.07315        34.40015
C36  22941364.82416   -307818.41816     -3549.86916        35.80016
> 2025 05 03 07 36 21.9999999  0 12                      
G31  21352440.51327    -12307.27027      -171.84627        44.40027
G29  20410832.87426   -154836.80726     -1783.51426        40.10026
G28  21027488.27326   -167204.11026     -1932.95226        37.50026
G25  21138753.84525   -305365.73325     -3489.19125        33.60025
G11  25030303.08216   -383392.64716     -4375.90816        37.80016
G12  24275942.81414   -390873.48914     -4452.25714        28.00014
R16  20932232.21726   -353710.85826     -4044.93026        37.00026
R10  21823613.82726    196704.74226      2224.49426        36.30026
C30  23170400.56526   -302763.93126     -3457.84926        37.00026
R09  19205939.70516     -2438.46916      -259.65816        36.70016
C29  21557292.29715    -33070.30115      -402.27415        33.70015
C36  22941817.51015   -311370.27915     -3560.74015        34.20015
> 2025 05 03 07 36 22.9999999  0 12                      
G31  21352230.35927    -12473.60027      -172.52427        44.20027
G29  20410931.80626   -156614.45226     -1783.63326        39.90026
G28  21027617.78326   -169131.55526     -1933.63426        37.70026
G25  21139175.05426   -308849.22926     -3489.52626        36.60026
G11  25030901.76716   -387762.62416     -4376.23116        36.50016
G12  24276553.79214   -395324.92714     -4459.81814        27.60014
R16  20932755.95526   -357773.97126     -4044.73626        37.00026
R10  21822958.18026    198934.95326      2224.47626        36.30026
C30  23170818.17626   -306215.96526     -3457.96926        36.80026
R09  19205746.93816     -2675.29816      -260.94316        36.40016
C29  21557128.31115    -33463.80115      -398.69815        33.40015
C36  22942258.50515   -314921.00315     -3555.96215        32.90015
> 2025 05 03 07 36 23.9999999  0 12                      
G31  21352043.88827    -12640.66127      -173.34627        44.10027
G29  20411051.12326   -158392.79026     -1784.60126        39.70026
G28  21027768.57926   -171059.73326     -1934.46226        37.90026
G25  21139624.44316   -312332.62916     -3489.26716        36.20016
G11  25031513.04416   -392131.05316     -4373.57016        35.60016
G12  24277179.15914   -399776.07514     -4456.91914        27.20014
R16  20933298.57926   -361840.86826     -4046.25826        37.00026
R10  21822318.42326    201179.69226      2224.49726        36.30026
R09  19205571.85916     -2909.03216      -260.55416        36.20016
C30  23171267.56526   -309668.28426     -3458.32326        36.70026
C29  21556985.31015    -33858.55315      -401.24215        33.10015
C36  22942720.78515   -318472.62715     -3557.93715        31.90015
> 2025 05 03 07 36 24.9999999  0 12                      
G31  21351838.53027    -12808.34927      -173.84627        43.90027
G29  20411154.55226   -160171.46326     -1784.68326        39.70026
G28  21027902.58626   -172988.64826     -1935.12626        38.10026
G25  21140051.64726   -315816.89226     -3490.53726        36.00026
G11  25032101.83625   -396500.22325     -4374.63125        35.00025
G12  24277780.84214   -404222.59414     -4450.04614        27.10014
R16  20933829.51126   -365943.72526     -4046.42326        36.90026
R10  21821666.37526    203392.35926      2224.03726        36.30026
R09  19205393.48316     -3221.50116      -260.65216        36.20016
C30  23171698.36726   -313120.90126     -3458.55626        36.50026
C29  21556824.62115    -34256.03915      -404.64515        33.00015
C36  22943174.67115   -322024.41815     -3557.66215        31.10015
> 2025 05 03 07 36 26.0000000  0 12                      
G31  21351667.64827    -12976.85327      -174.77527        43.70027
G11  25032721.20825   -400869.47125     -4375.39825        34.80025
G29  20411286.76026   -161950.84526     -1785.59926        39.80026
G28  21028066.27326   -174918.31526     -1935.90526        38.20026
G25  21140506.73226   -319301.58826     -3490.77326        36.30026
G12  24278428.09414   -408668.82414     -4451.94614        27.60014
R16  20934371.23626   -369944.16326     -4046.97726        36.90026
R09  19205230.99516     -3459.80916      -262.07316        36.50016
R10  21821049.10226    205578.33226      2223.46026        36.30026
C30  23172153.15226   -316573.88526     -3458.97526        36.40026
C29  21556696.31015    -34653.01615      -402.53215        32.90015
C36  22943645.94415   -325574.61515     -3555.20915        30.60015
> 2025 05 03 07 36 27.0000000  0 12                      
G31  21351464.68927    -13146.10427      -175.48827        43.40027
G29  20411392.28726   -163730.81226     -1786.12226        40.10026
G11  25033324.09026   -405239.20626     -4375.83826        39.60026
G28  21028194.88426   -176848.93726     -1936.96226        38.20026
G25  21140937.53326   -322786.93126     -3491.52626        36.30026
G12  24279043.86814   -413115.59114     -4452.89514        27.60014
R09  19205042.72626     -3721.08726      -262.56126        36.90026
R16  20934887.77926   -373969.06026     -4047.76926        36.80026
R10  21820390.15826    207827.61026      2223.13626        36.40026
C30  23172577.65826   -320027.55826     -3459.82426        36.30026
C29  21556537.12025    -35050.41425      -403.41825        33.10025
C36  22944103.12815   -329128.50615     -3561.54515        30.20015
> 2025 05 03 07 36 27.9999999  0 12                      
G29  20411480.42626   -165511.01426     -1786.23526        40.40026
G11  25033900.89126   -409609.35426     -4376.26926        39.80026
G28  21028308.20526   -178779.80526     -1936.90726        38.10026
G25  21141353.64526   -326272.55626     -3491.68226        36.30026
G31  21351245.54017    -13316.63017      -177.08117        42.80017
G12  24279643.15314   -417562.50814     -4452.90614        27.60014
R09  19204830.47326     -3915.85326      -262.78026        37.20026
R10  21819721.92126    210063.19726      2223.95126        36.50026
R16  20935392.32926   -377993.92026     -4049.08626        36.70026
C30  23172985.97626   -323481.21826     -3459.51626        36.20026
C29  21556361.74125    -35448.37625      -404.10825        33.40025
C36  22944538.42715   -332682.30315     -3559.61115        30.00015
> 2025 05 03 07 36 29.0000000  0 11                      
G31  21351070.76117    -13487.16117      -176.37817        42.00017
G29  20411610.83626   -167292.56426     -1788.06926        40.40026
G11  25034518.16416   -413981.26116     -4379.37816        39.80016
G28  21028465.89626   -180711.44726     -1937.87326        38.00026
G25  21141803.93416   -329761.10716     -3495.85616        36.20016
G12  24280282.31014   -422011.57514     -4455.98414        27.60014
R09  19204680.57626     -4221.44726      -264.57326        37.20026
C30  23173441.36026   -326936.92826     -3462.52426        36.50026
R10  21819089.65926    212330.01726      2222.08426        36.50026
C29  21556231.63115    -35851.21915      -411.07515        33.40015
C36  22945005.20315   -336238.19615     -3562.73115        29.80015
> 2025 05 03 07 36 30.0000000  0 12                      
G31  21350866.90217    -13658.75917      -177.99517        42.20017
G29  20411716.36326   -169074.18826     -1787.52226        40.30026
G11  25035109.05516   -418352.22216     -4376.09816        39.60016
G28  21028596.00626   -182644.32126     -1939.35126        37.90026
G25  21142234.13616   -333247.68316     -3491.44916        36.10016
G12  24280893.88714   -426459.26014     -4452.85314        27.70014
R16  20936463.18816   -386087.27916     -4049.12816        36.00016
C30  23173865.86626   -330391.48726     -3459.79026        37.00026
R09  19204496.50426     -4503.35826      -264.85126        37.20026
R10  21818438.80926    214535.81926      2222.66426        36.40026
C29  21556071.84215    -36254.63915      -409.51715        33.30015
C36  22945447.99715   -339791.94215     -3558.48015        30.10015
> 2025 05 03 07 36 31.0000000  0 12                      
G31  21350664.84227    -13831.40127      -179.02827        42.20027
G29  20411816.79326   -170856.38126     -1788.34026        40.20026
G11  25035702.34426   -422722.52926     -4375.83926        39.50026
G28  21028723.41826   -184578.58326     -1940.81826        38.00026
G25  21142650.54826   -336734.33726     -3492.55426        36.00026
G12  24281500.06714   -430905.25714     -4451.01314        27.80014
C30  23174296.96826   -333845.91526     -3460.16926        38.00026
R09  19204310.93216     -4778.38916      -265.12416        37.10016
R10  21817789.45926    216733.23326      2222.50926        36.30026
R16  20936987.52526   -390153.44926     -4048.61826        35.80026
C29  21555913.85115    -36653.95515      -403.07515        33.30015
C36  22945893.18915   -343343.60615     -3556.43015        30.40015
> 2025 05 03 07 36 32.0000000  0 12                      
G31  21350474.47427    -14004.76727      -179.64527        42.10027
G29  20411938.20926   -172639.37826     -1789.31626        40.00026
G11  25036321.41526   -427094.40426     -4378.57526        39.40026
G28  21028876.01226   -186513.04026     -1940.47126        38.00026
G25  21143089.44426   -340221.75426     -3493.71326        36.00026
G12  24282132.03014   -435353.10314     -4454.68614        27.80014
C30  23174742.75926   -337301.69026     -3462.31126        38.70026
R09  19204143.64816     -5053.38016      -266.63516        37.00016
R10  21817146.70426    218992.46326      2220.52726        36.30026
R16  20937520.85626   -394170.66526     -4050.52526        35.60026
C29  21555779.24515    -37054.79615      -407.46815        33.10015
C36  22946362.06415   -346897.09415     -3560.26115        30.30015
> 2025 05 03 07 36 33.0000000  0 13                      
G31  21350272.11427    -14178.49227      -179.75027        41.90027
G29  20412037.74026   -174422.43926     -1788.93726        39.90026
G11  25036916.50326   -431466.79626     -4378.49226        39.30026
G25  21143516.04816   -343709.33916     -3493.51116        36.00016
G28  21029010.01916   -188449.53016     -1943.35016        37.70016
G18  22925768.12125                      2109.09825        30.70025
G12  24282744.50614   -439804.41314     -4458.88414        27.80014
C30  23175163.96826   -340757.26726     -3461.26526        39.00026
R09  19203956.57816     -5320.00516      -265.56116        37.10016
R10  21816476.96726    221298.94526      2220.84926        36.20026
R16  20938037.99825   -398200.91225     -4049.47025        35.40025
C29  21555614.05915    -37455.22615      -406.01515        33.00015
C36  22946813.55215   -350452.50015     -3562.15515        30.20015
> 2025 05 03 07 36 34.0000000  0 13                      
G31  21350065.25727    -14352.96127      -180.70427        41.70027
G29  20412142.06826   -176206.29026     -1790.10726        39.80026
G11  25037509.19326   -435838.88326     -4377.79426        39.30026
G18  22925128.66415      2112.96615      2107.10115        35.30015
G25  21143942.65316   -347197.69116     -3494.59716        35.90016
G28  21029150.02216   -190387.48616     -1944.55016        36.50016
G12  24283350.08714   -444256.31414     -4458.05514        27.80014
C30  23175587.57526   -344213.44226     -3462.28226        39.50026
R09  19203763.81116     -5556.83416      -267.58116        37.10016
R10  21815827.91726    223494.83426      2221.84926        36.00026
R16  20938561.43615   -402263.26215     -4055.96515        35.20015
C29  21555448.87315    -37856.58715      -407.63715        32.90015
C36  22947261.74115   -354008.26815     -3561.75515        30.20015
> 2025 05 03 07 36 35.0000000  0 13                      
G31  21349882.08427    -14528.14727      -181.46327        41.50027
G29  20412261.68526   -177990.72126     -1790.63826        39.80026
G11  25038130.36326   -440211.47926     -4378.76626        39.40026
G18  22924507.79326      4226.48126      2107.87026        36.20026
G25  21144388.44426   -350686.36026     -3494.74426        36.00026
G28  21029280.13216   -192323.71816     -1941.28816        35.60016
G12  24283977.85214   -448704.77914     -4452.66214        27.70014
C30  23176036.96326   -347670.22226     -3462.94526        39.50026
R09  19203598.92526     -5844.81826      -268.94426        37.00026
R10  21815187.56026    225742.62326      2220.99626        35.90026
R16  20939087.27215   -406240.73215     -4052.45315        34.90015
C29  21555316.06525    -38258.07725      -407.41825        32.80025
C36  22947714.72815   -357564.14615     -3561.79615        30.20015
> 2025 05 03 07 36 36.0000000  0 12                      
G25  21144813.55026   -354175.41126     -3495.08426        38.60026
G31  21349680.02426    -14703.85326      -181.81126        41.30026
G11  25038729.34826   -444584.47826     -4379.04126        39.90026
G29  20412358.81826   -179775.37626     -1790.61026        39.80026
G18  22923876.13126      6339.92926      2107.56826        36.90026
G28  21029411.74125   -194260.88925     -1943.48225        35.30025
G12  24284566.34514   -453153.51014     -4454.70514        27.60014
C30  23176463.86826   -351127.16626     -3462.81426        39.50026
R09  19203407.65826     -6090.05026      -268.81026        37.00026
R10  21814539.40926    227934.69826      2220.96226        35.90026
R16  20939617.60425   -410339.00425     -4052.10425        34.70025
C36  22948164.11715   -361121.85015     -3564.40515        30.50015
> 2025 05 03 07 36 37.0000001  0 13                      
G31  21349504.94526    -14880.60226      -183.13426        41.10026
G11  25039354.41626   -448958.49126     -4379.63026        40.30026
G29  20412491.32626   -181561.07326     -1791.33126        39.80026
G25  21145270.73426   -357665.31926     -3496.19626        40.00026
G18  22923257.65926      8452.16626      2106.51626        36.90026
G28  21029581.42425   -196199.69325     -1944.73425        35.30025
G12  24285199.50614   -457603.30314     -4456.18414        27.60014
C30  23176921.35126   -354584.38926     -3463.17126        39.50026
R09  19203243.37126     -6317.71126      -270.31026        36.90026
R10  21813920.03726    230132.11026      2219.69326        35.80026
R16  20940174.01925   -414417.40325     -4052.98325        34.60025
C36  22948643.18515   -364680.22215     -3564.51315        30.50015
C29  21555013.87415    -39064.18515      -407.82615        31.70015
> 2025 05 03 07 36 37.9999998  0 13                      
G31  21349209.94926    -15057.35126      -182.61226        40.90026
G11  25039856.86826   -453331.31026     -4379.08226        40.30026
G29  20412509.01426   -183346.70626     -1791.71126        39.80026
G25  21145613.69626   -361155.03726     -3495.48426        39.70026
G18  22922523.16726     10565.19726      2107.31226        37.00026
G28  21029621.29626   -198138.27626     -1944.58226        35.50026
G12  24285720.54614   -462049.64814     -4450.48014        27.50014
C30  23177258.01826   -358041.84126     -3463.37326        39.90026
R09  19202965.46426     -6579.75326      -270.13726        36.80026
R10  21813172.05526    232376.05026      2221.32226        35.70026
R16  20940623.40825   -418565.35525     -4053.64925        34.50025
C29  21554769.24415    -39467.31115      -408.93515        31.30015
C36  22948986.14715   -368236.12915     -3560.48215        30.40015
> 2025 05 03 07 36 39.0000000  0 13                      
G31  21349084.93626    -15235.09326      -184.15726        40.80026
G29  20412690.08926   -185132.70326     -1792.09626        39.80026
G18  22921960.45726     12677.90626      2106.63026        37.00026
G25  21146116.74816   -364645.50616     -3496.76116        39.10016
G28  21029832.35026   -200077.27526     -1945.12626        35.90026
G11  25040541.59416   -457715.15516     -4395.02216        39.70016
G12  24286417.26314   -466499.37614     -4457.33614        27.30014
C30  23177759.57126   -361499.88426     -3464.20026        39.90026
R09  19202873.12816     -6935.73616      -271.94216        36.60016
R10  21812591.35726    234624.60226      2220.17026        35.50026
R16  20941207.10425   -422531.36225     -4054.03925        34.30025
C29  21554679.60615    -39871.10215      -409.98915        32.90015
C36  22949503.88915   -371794.07115     -3564.82115        30.30015
> 2025 05 03 07 36 40.0000001  0 13                      
G31  21348913.75526    -15413.55626      -184.66726        40.70026
G29  20412821.99726   -186919.37826     -1792.85926        39.70026
G28  21029994.23826   -202017.19326     -1946.22026        36.40026
G18  22921354.57626     14790.07226      2106.04726        36.90026
G25  21146570.93416   -368136.11316     -3496.51816        38.50016
G11  25041163.96316   -462093.25216     -4381.06716        38.20016
G12  24287079.20514   -470949.31014     -4455.87814        27.20014
C30  23178213.75726   -364958.04826     -3464.01426        39.80026
R09  19202710.64026     -7173.32826      -271.31826        36.50026
R16  20941748.52925   -426530.27225     -4054.82525        34.20025
C29  21554550.69525    -40275.49825      -410.48925        33.20025
R10  21811974.38425    236809.81225      2219.80325        35.20025
C36  22949994.05015   -375353.14515     -3565.43015        30.30015
> 2025 05 03 07 36 40.9999998  0 13                      
G31  21348616.96026    -15592.35326      -184.82826        40.60026
G29  20412836.38726   -188706.18626     -1792.73626        39.70026
G28  21030041.30526   -203957.47026     -1946.31826        37.00026
G18  22920625.78126     16902.17526      2106.20826        36.70026
G11  25041661.91816   -466467.60416     -4378.33716        36.90016
G25  21146890.51216   -371626.55516     -3496.22116        37.30016
G12  24287618.83114   -475396.65014     -4451.90314        27.20014
C30  23178550.42326   -368416.30326     -3464.10726        39.70026
R09  19202424.63826     -7393.34626      -271.63126        36.30026
R10  21811216.80925    239103.32825      2220.39925        34.90025
R16  20942177.53225   -430569.69125     -4054.65825        34.10025
C29  21554301.56825    -40679.95325      -410.29425        33.40025
C36  22950352.00215   -378912.70015     -3565.60215        30.30015
> 2025 05 03 07 36 42.0000001  0 13                      
G31  21348523.72526    -15772.00726      -186.00126        40.50026
G29  20413052.53826   -190493.59826     -1793.63026        39.60026
G28  21030279.34126   -205898.44026     -1947.23426        37.30026
G18  22920088.25326     19014.01026      2105.78126        36.60026
G11  25042366.73016   -470842.31316     -4380.80516        36.10016
G25  21147435.53516   -375117.93216     -3497.76016        36.10016
G12  24288361.41714   -479846.28414     -4456.69614        27.20014
C30  23179087.05226   -371875.15726     -3465.01726        39.60026
R09  19202359.58326     -7734.81126      -272.85626        36.20026
R10  21810668.48825    241339.67725      2219.77825        35.30025
R16  20942810.09425   -434637.35225     -4055.39725        34.10025
C29  21554254.20015    -41083.83115      -409.45515        33.40015
C36  22950906.01815   -382471.12115     -3563.71615        30.40015
> 2025 05 03 07 36 42.9999998  0 13                      
G31  21348229.62826    -15952.38326      -185.83126        40.40026
G29  20413069.32626   -192280.74526     -1793.60826        39.40026
G28  21030323.41026   -207840.05926     -1947.78626        37.30026
G18  22919359.75726     21126.11326      2105.64026        36.60026
G11  25042870.68126   -475217.23026     -4380.86126        35.80026
G25  21147776.99915   -378609.13115     -3496.95215        35.40015
G12  24288881.85714   -484296.81014     -4456.81314        27.20014
C30  23179427.31626   -375333.83526     -3464.37726        39.40026
R10  21809925.90226    243553.87026      2219.82226        35.60026
R09  19202073.28126     -7952.53826      -272.78026        36.10026
R16  20943254.08715   -438755.49615     -4053.57915        34.10015
C29  21554006.87215    -41488.66715      -411.10615        33.30015
C36  22951267.86815   -386032.36415     -3568.44315        30.40015
> 2025 05 03 07 36 43.9999999  0 13                      
G31  21348060.24526    -16133.15326      -187.08026        40.40026
G29  20413197.63726   -194069.08826     -1794.55326        39.30026
G28  21030488.89526   -209782.56926     -1948.81826        37.20026
G18  22918745.18316     23238.26516      2106.56316        36.50016
G11  25043505.34226   -479592.80126     -4381.75926        35.60026
G25  21148239.87825   -382100.58825     -3497.44725        34.90025
G12  24289514.11914   -488747.05414     -4455.96214        27.40014
C30  23179883.00126   -378792.98126     -3465.18926        39.10026
R09  19201923.98526     -8260.42326      -273.96526        35.90026
R10  21809301.73526    245777.97826      2219.41026        35.60026
R16  20943784.72015   -442697.08115     -4056.93215        34.30015
C36  22951743.03915   -389589.45715     -3560.82515        30.40015
C29  21553882.15815    -41900.82615      -421.62915        32.10015
> 2025 05 03 07 36 44.9999999  0 13                      
G31  21347856.98626    -16314.41626      -187.37326        40.40026
G29  20413298.36816   -195857.59716     -1794.45416        39.10016
G28  21030623.20326   -211725.12826     -1948.44526        37.10026
G11  25044099.83025   -483968.38025     -4381.44225        35.40025
G25  21148668.28215   -385591.37515     -3496.31315        34.60015
G18  22918110.52216     25349.82616      2105.40016        35.90016
G12  24290105.31014   -493195.28514     -4453.08414        27.80014
R09  19201734.21626     -8512.53426      -274.11226        35.80026
C30  23180313.50316   -382251.95716     -3464.69816        37.60016
R10  21808661.07826    247929.62926      2219.59026        35.50026
R16  20944310.55615   -446772.42315     -4056.96515        34.70015
C36  22952188.83015   -393144.96415     -3560.52215        30.30015
C29  21553718.17115    -42308.34815      -411.01415        31.10015
> 2025 05 03 07 36 45.9999999  0 13                      
G31  21347653.12726    -16496.28126      -188.03026        40.40026
G29  20413400.89726   -197646.54226     -1795.02526        39.00026
G28  21030759.30826   -213668.62426     -1949.82626        37.00026
G11  25044684.42625   -488343.75925     -4381.13825        35.20025
G25  21149090.98915   -389083.73915     -3499.01415        34.30015
G18  22917473.46315     27459.98915      2103.59915        34.90015
G12  24290725.28114   -497645.69514     -4457.36014        28.10014
C30  23180740.70716   -385711.55516     -3465.71516        36.80016
R09  19201548.94426     -8789.85626      -274.62526        35.80026
R16  20944826.49825   -450795.02725     -4056.90525        35.10025
R10  21808003.63325    250170.51725      2219.12525        35.40025
C36  22952629.52515   -396705.41015     -3568.72315        30.50015
C29  21553570.07415    -42716.02015      -413.55715        30.70015
> 2025 05 03 07 36 46.9999999  0 13                      
G31  21347468.75526    -16678.82026      -188.79326        40.40026
G29  20413522.31326   -199435.91926     -1795.51026        38.80026
G28  21030907.40626   -215612.81626     -1950.45826        36.90026
G11  25045299.30025   -492719.83125     -4382.33525        35.00025
G25  21149538.27915   -392575.87215     -3497.93215        33.90015
G18  22916851.39415     29571.73715      2106.62015        34.20015
G12  24291349.44914   -502095.66714     -4455.66714        28.40014
R09  19201379.86126     -9054.91826      -275.61726        35.70026
R16  20945363.72625   -454833.64425     -4057.70425        35.30025
C30  23181186.79826   -389171.52026     -3466.01126        36.60026
R10  21807357.58025    252448.05325      2219.15125        35.30025
C36  22953099.60015   -400266.61515     -3567.44515        31.60015
C29  21553420.47715    -43122.46515      -411.69615        30.30015
> 2025 05 03 07 36 47.9999999  0 13                      
G31  21347267.89426    -16862.11726      -189.52126        40.30026
G29  20413628.73926   -201225.80026     -1795.97726        38.60026
G28  21031044.41126   -217557.63226     -1950.97126        36.90026
G11  25045897.98625   -497095.81525     -4381.78125        34.80025
G18  22916215.23415     31682.06515      2103.77215        33.80015
G25  21149975.07715   -396068.72915     -3499.06315        33.60015
G12  24291966.72114   -506544.11114     -4453.52214        28.40014
R16  20945892.56026   -458923.50826     -4057.79826        35.70026
R09  19201197.88726     -9349.05026      -276.26626        35.70026
C30  23181614.00326   -392631.61726     -3465.95226        36.30026
R10  21806714.22625    254614.19525      2218.55725        35.20025
C36  22953546.29115   -403826.80915     -3565.47815        31.90015
C29  21553260.38815    -43530.58415      -414.74815        30.10015
> 2025 05 03 07 36 48.9999999  0 13                      
G29  20413724.37326   -203016.58126     -1797.09426        38.50026
G28  21031179.91726   -219503.18626     -1951.78526        36.80026
G18  22915582.07325     33791.29325      2103.56225        33.80025
G11  25046497.57115   -501472.80915     -4383.35815        34.60015
G25  21150401.08225   -399562.26825     -3499.73925        33.40025
G12  24292571.70314   -510994.38914     -4457.05414        28.40014
G31  21347063.43516    -17044.87616      -189.10316        39.50016
R16  20946412.10126   -462965.22026     -4058.72726        36.10026
R09  19200999.42526     -9555.31526      -277.09826        35.60026
R10  21806052.28425    256878.72725      2218.54625        35.00025
C30  23182040.60716   -396092.29016     -3466.77016        35.90016
C36  22953988.18515   -407386.14415     -3564.71215        31.90015
C29  21553101.19915    -43938.42815      -413.51615        30.00015
> 2025 05 03 07 36 50.0000000  0 12                      
G29  20413852.68426   -204807.60826     -1797.01126        38.30026
G28  21031347.50126   -221449.61026     -1952.72026        36.80026
G18  22914977.09125     35900.87525      2103.64525        34.80025
G25  21150857.66625   -403056.12525     -3499.87825        33.30025
G12  24293197.96914   -515446.01014     -4458.15214        28.30014
G31  21346898.55016    -17226.76116      -187.06116        37.40016
R16  20946969.41526   -467049.73326     -4059.39526        36.20026
R09  19200844.13226     -9831.11026      -277.61626        35.60026
R10  21805441.90725    259027.32725      2218.05525        34.80025
C30  23182492.09515   -399553.48415     -3467.26115        35.40015
C36  22954463.95515   -410943.75315     -3562.55415        31.80015
C29  21552969.59015    -44346.61415      -414.16615        29.80015
> 2025 05 03 07 36 50.9999999  0 13                      
G28  21031467.71826   -223396.89426     -1953.63126        36.70026
G18  22914330.43925     38009.68425      2102.50225        35.20025
G25  21151275.27725   -406550.61225     -3500.71725        33.40025
G29  20413944.72016   -206599.47216     -1798.19916        37.90016
G12  24293786.16214   -519890.63914     -4447.04814        28.20014
G31  21346677.30315    -17410.73715      -190.93915        35.30015
G11  25047715.02815   -510229.74515     -4381.67215        31.80015
R16  20947478.76226   -471098.28726     -4060.24626        36.20026
R09  19200647.76826    -10111.45426      -278.92126        35.50026
R10  21804768.87325    261289.60825      2217.38925        34.70025
C30  23182906.70825   -403015.39325     -3468.12925        35.00025
C36  22954889.06115   -414507.27415     -3572.33915        31.70015
C29  21552803.20515    -44755.86715      -415.65215        29.70015
> 2025 05 03 07 36 51.9999999  0 13                      
G18  22913687.68425     40118.21325      2102.54325        35.40025
G25  21151699.18325   -410045.57225     -3501.03825        33.60025
G29  20414043.95116   -208393.74716     -1801.32416        36.90016
G12  24294381.84914   -524337.26114     -4453.46014        28.10014
G28  21031605.92216   -225343.50816     -1952.87316        35.80016
G31  21346477.04115    -17599.39515      -196.84315        33.40015
G11  25048317.91015   -514606.56315     -4382.67815        30.10015
R16  20947995.60426   -475126.24126     -4060.67126        36.20026
R09  19200460.39825    -10377.31625      -279.37825        35.40025
R10  21804112.92725    263522.86925      2217.17125        34.50025
C30  23183334.81125   -406477.52725     -3468.03525        34.60025
C36  22955343.54615   -418071.48915     -3570.35115        31.60015
C29  21552638.01915    -45165.56115      -415.70515        29.60015
> 2025 05 03 07 36 53.0000000  0 12                      
G18  22913079.70525     42226.22625      2101.89125        35.40025
G25  21152158.16625   -413541.01325     -3501.54325        33.60025
G29  20414185.45316   -210185.33516     -1796.10716        36.00016
G28  21031770.20815   -227292.81815     -1956.27115        34.20015
G12  24295015.61114   -528790.77914     -4462.82614        27.90014
G31  21346309.45715    -17786.33315      -191.94215        31.80015
G11  25048948.97314   -518982.72614     -4381.69514        28.60014
R16  20948551.71926   -479203.11126     -4061.19126        36.20026
R09  19200290.41625    -10574.41325      -280.12225        35.30025
R10  21803482.46325    265779.77425      2216.92525        34.30025
C30  23183800.38925   -409940.21025     -3468.76525        34.30025
C29  21552505.51115    -45575.62915      -416.06515        29.50015
> 2025 05 03 07 36 53.9999999  0 12                      
G18  22912429.15525     44333.98425      2101.71025        35.40025
G25  21152577.57525   -417036.85225     -3501.95225        33.50025
G29  20414274.49215   -211979.18715     -1800.90015        35.20015
G28  21031890.72515   -229244.48115     -1958.75515        32.70015
G12  24295617.29414   -533244.20414     -4459.29114        27.80014
G31  21346095.70515    -17973.99915      -193.94815        30.40015
G11  25049521.87714   -523361.27614     -4385.65914        27.60014
R16  20949045.17826   -483168.35326     -4062.11626        36.10026
R09  19200097.34925    -10872.32725      -280.84625        35.20025
R10  21802829.81525    267932.98725      2216.57825        34.10025
C30  23184215.60225   -413403.17025     -3468.96025        34.00025
C29  21552344.22315    -45985.05715      -414.97215        29.50015
> 2025 05 03 07 36 55.0000000  0 12                      
G18  22911816.97925     46441.19425      2101.09025        35.30025
G25  21153044.65215   -420533.32215     -3502.63015        33.30015
G29  20414408.49915   -213773.14215     -1799.85015        34.40015
G28  21032053.51215   -231194.61215     -1955.20915        31.60015
G12  24296268.14414   -537693.75114     -4453.45214        27.60014
G11  25050152.34014   -527739.72014     -4384.23314        27.00014
G31  21345923.02514    -18165.03214      -198.56114        29.30014
C30  23184673.98415   -416867.20615     -3470.36415        33.70015
R16  20949617.78126   -487332.35626     -4062.30026        35.90026
C29  21552212.31414    -46391.46914      -410.69514        29.40014
R09  19199938.45915    -11130.55215      -282.25015        34.50015
R10  21802205.34715    270157.09415      2213.67015        33.20015
> 2025 05 03 07 36 56.0000000  0 12                      
G18  22911182.91825     48548.13325      2100.93725        35.30025
G11  25050738.73415   -532119.89015     -4386.89215        32.00015
G29  20414524.51915   -215568.19815     -1801.46815        33.90015
G28  21032181.52415   -233144.15015     -1955.10315        30.70015
G12  24296870.12714   -542148.09214     -4462.59614        27.50014
G25  21153471.25715   -424031.11515     -3504.31415        32.20015
G31  21345726.66114    -18355.81814      -196.52614        28.30014
C30  23185103.28715   -420330.04815     -3468.05315        33.40015
R16  20950133.42415   -491353.43115     -4065.59415        34.90015
R09  19199753.18715    -11407.11115      -284.52615        33.30015
C29  21552050.72614    -46800.79314      -416.59014        29.20014
R10  21801543.10615    272423.91615      2210.82915        31.90015
> 2025 05 03 07 36 57.0000000  0 11                      
G29  20414626.44826   -217363.77926     -1801.70526        36.00026
G31  21345529.99716    -18546.14316      -195.95816        38.10016
G18  22910547.35825     50654.28525      2099.89425        35.20025
G11  25051323.03015   -536498.54615     -4383.75815        32.00015
G28  21032325.12415   -235095.58115     -1958.24015        30.20015
G12  24297456.82114   -546603.63314     -4462.00014        27.30014
G25  21153907.45515   -427532.49915     -3509.04015        30.70015
R16  20950655.96315   -495411.19415     -4062.49715        34.10015
R09  19199582.60615    -11761.60215      -280.72615        32.70015
C30  23185530.49115   -423794.66015     -3471.30315        33.10015
R10  21800900.35115    274586.24515      2217.46015        31.20015
> 2025 05 03 07 36 58.0000000  0 12                      
G29  20414729.57726   -219160.14426     -1802.62026        39.10026
G31  21345323.74026    -18737.72826      -198.07926        38.10026
G18  22909905.80225     52759.91925      2099.51125        35.20025
G11  25051916.01915   -540878.14015     -4385.92415        31.80015
G28  21032459.73115   -237048.37715     -1959.34015        29.80015
G12  24298073.79414   -551063.62014     -4468.07014        27.10014
G25  21154339.75514   -431033.33214     -3506.41714        29.40014
R09  19199395.23515    -12026.70115      -285.07015        33.20015
R16  20951178.50115   -499468.19215     -4064.88715        33.80015
C30  23185963.69125   -427259.96725     -3471.46225        32.90025
R10  21800231.21415    276888.91315      2215.48815        31.00015
C29  21551746.13714    -47622.18414      -418.19714        27.50014
> 2025 05 03 07 36 59.0000000  0 13                      
G29  20414856.38926   -220957.20126     -1803.32026        39.20026
G31  21345141.46626    -18930.11426      -198.70426        38.20026
G18  22909288.23026     54864.96726      2098.83426        35.50026
G28  21032600.03415   -239001.74015     -1959.56415        29.70015
G11  25052535.39115   -545260.17015     -4389.16215        31.30015
G12  24298711.45214   -555525.25314     -4468.37214        26.80014
G25  21154773.55514   -434533.85314     -3506.28114        28.40014
R09  19199227.65125    -12300.93225      -285.25325        34.00025
R16  20951716.32915   -503510.63115     -4066.09815        33.50015
C30  23186417.87725   -430725.64025     -3471.71825        32.80025
R10  21799595.05415    279113.82015      2213.68715        31.00015
C36  22958541.13314    -10702.73514     -3570.81414        26.50014
C29  21551611.83014    -48034.04514      -417.70614        26.40014
> 2025 05 03 07 37 00.0000000  0 13                      
G29  20414959.81726   -222754.92226     -1803.89626        39.50026
G31  21344947.20126    -19123.44526      -199.64826        38.20026
G25  21155188.76814   -438034.59614     -3506.69714        29.40014
G18  22908649.67226     56969.59626      2098.57426        36.10026
G11  25053141.27115   -549641.95115     -4387.49915        30.80015
G28  21032738.23815   -240956.02115     -1960.58315        29.80015
G12  24299312.53614   -559983.90914     -4463.00714        26.60014
R09  19199043.87825    -12584.36625      -286.02725        35.10025
R16  20952243.36425   -507592.85225     -4066.25325        33.60025
C30  23186843.88225   -434191.91425     -3472.36225        33.30025
R10  21798940.00815    281341.74215      2212.84915        31.40015
C36  22958979.12914    -14268.62914     -3571.70114        28.50014
C29  21551455.93814    -48448.63714      -421.75014        25.60014
> 2025 05 03 07 37 01.0000001  0 13                      
G18  22908044.99027     59073.46527      2097.62427        43.30027
G29  20415100.42026   -224554.14526     -1805.08726        39.40026
G31  21344776.31916    -19318.07316      -201.14016        38.10016
G25  21155645.05216   -441534.62016     -3505.52416        35.70016
G11  25053772.03515   -554024.65615     -4389.02615        30.80015
G28  21032894.13015   -242912.50315     -1963.44515        29.90015
G12  24299973.57814   -564438.59214     -4458.55714        27.80014
R09  19198893.98225    -12889.96125      -287.44025        35.30025
C36  22959461.79515    -17835.54515     -3573.23615        34.50015
R16  20952791.38425   -511625.39225     -4067.29425        34.60025
C30  23187305.26325   -437658.81325     -3473.02025        33.60025
R10  21798314.64115    283572.71515      2209.36315        31.40015
C29  21551316.23414    -48865.56214      -423.90114        25.10014
> 2025 05 03 07 37 01.9999997  0 13                      
G18  22907315.29627     61176.59127      2096.88827        43.20027
G11  25054283.78015   -558408.76215     -4390.66615        33.00015
G29  20415116.30926   -226353.72726     -1805.87226        39.20026
G25  21155983.81726   -445035.51926     -3507.19726        35.60026
G31  21344488.21816    -19511.63216      -198.88916        37.50016
G28  21032942.39715   -244870.25715     -1964.25115        30.40015
G12  24300489.82114   -568892.10914     -4458.79314        28.40014
R09  19198616.07526    -13152.76826      -288.34126        35.60026
R16  20953222.78615   -515677.04015     -4068.60415        34.60015
C30  23187643.42825   -441126.66225     -3474.13025        33.80025
C36  22959817.64925    -21403.73325     -3574.63025        34.40025
R10  21797587.64415    285703.77215      2211.96315        31.30015
C29  21551077.89914    -49283.57314      -424.36414        25.00014
> 2025 05 03 07 37 03.0000001  0 13                      
G18  22906786.16227     63278.73627      2095.73627        43.20027
G11  25054986.49416   -562793.34016     -4390.73016        39.10016
G29  20415327.36326   -228154.43626     -1807.19126        39.00026
G25  21156518.04725   -448537.65425     -3508.67025        35.40025
G31  21344394.38316    -19707.52116      -202.97116        36.40016
G28  21033180.73215   -246829.33915     -1965.66415        30.50015
G12  24301217.11714   -573343.96914     -4456.94814        28.40014
R09  19198550.42026    -13490.41426      -289.59426        35.60026
C36  22960383.35725    -24972.59925     -3575.06825        34.30025
C30  23188180.35725   -444595.49125     -3475.18225        34.10025
R16  20953861.34415   -519776.80215     -4070.94915        34.50015
R10  21797030.03015    287990.46115      2212.29515        31.20015
C29  21551035.02914    -49702.59014      -425.38414        24.90014
> 2025 05 03 07 37 03.9999998  0 13                      
G18  22906058.86527     65380.39627      2095.57127        43.20027
G11  25055488.04726   -567178.60726     -4391.45226        39.00026
G29  20415342.65226   -229955.66226     -1807.32626        38.80026
G25  21156859.51115   -452039.80915     -3508.00715        35.10015
G31  21344105.98316    -19904.88616      -203.94816        35.50016
G28  21033240.99015   -248789.72115     -1966.87415        31.10015
G12  24301741.45414   -577794.35714     -4455.49214        28.20014
R09  19198273.71226    -13757.80526      -290.58626        35.60026
C36  22960748.20525    -28541.93325     -3575.35625        34.80025
R16  20954288.84815   -523807.05015     -4069.04915        34.40015
C30  23188512.52715   -448065.38315     -3476.21215        34.10015
R10  21796289.24315    290195.50115      2211.13815        31.30015
C29  21550788.60014    -50123.70214      -427.95214        25.40014
> 2025 05 03 07 37 04.9999998  0 13                      
G18  22905426.00427     67481.01627      2094.23527        43.20027
G29  20415448.47926   -231758.04426     -1808.82326        38.60026
G11  25056090.33026   -571564.39426     -4391.90726        38.70026
G31  21343903.32325    -20103.92625      -205.74225        35.00025
G25  21157287.31515   -455543.12915     -3509.76215        34.80015
G28  21033369.30115   -250751.44715     -1968.26115        31.10015
G12  24302360.52614   -582248.87514     -4462.44314        28.00014
R09  19198089.63926    -14042.00326      -291.49526        35.60026
C36  22961204.18925    -32112.50125     -3576.99325        35.10025
R16  20954815.28325   -527884.68525     -4071.66825        34.40025
C30  23188938.23215   -451535.10115     -3475.43915        34.00015
R10  21795640.19215    292392.15115      2209.50915        31.70015
C29  21550626.41214    -50546.65614      -429.68414        25.70014
> 2025 05 03 07 37 05.9999999  0 13                      
G18  22904822.52127     69581.15627      2094.03627        43.00027
G29  20415590.88126   -233561.33726     -1809.61126        38.40026
G11  25056728.88816   -575950.23116     -4391.72216        38.40016
G31  21343735.43925    -20303.97425      -206.41425        34.80025
G28  21033534.78715   -252713.88915     -1968.66115        31.30015
G25  21157756.19015   -459050.68215     -3515.53115        33.60015
G12  24303000.88314   -586708.38614     -4467.86714        27.80014
R09  19197934.04726    -14315.50726      -292.84326        35.60026
R16  20955373.49725   -531973.02025     -4071.83625        34.90025
C36  22961682.05815    -35683.39315     -3576.86115        35.00015
C30  23189396.61515   -455005.67015     -3476.80215        33.90015
R10  21795010.62815    294644.48015      2209.90315        32.10015
C29  21550496.00214    -50968.81814      -427.57614        26.00014
> 2025 05 03 07 37 06.9999999  0 13                      
G18  22904186.06227     71680.54727      2093.15027        42.80027
G29  20415697.30726   -235365.46726     -1810.41026        38.30026
G11  25057324.87516   -580337.66116     -4394.08616        38.00016
G31  21343533.08025    -20505.41225      -207.24725        35.20025
G28  21033669.39415   -254677.18715     -1969.58715        31.50015
G12  24303622.35214   -591168.18214     -4465.79914        27.70014
G25  21158189.39015   -462562.22415     -3519.39615        32.00015
R09  19197751.77326    -14608.11226      -293.66526        35.50026
R16  20955901.43125   -536059.82725     -4072.84425        35.20025
R10  21794365.77525    296818.24925      2209.31225        32.50025
C29  21550342.50815    -51390.26215      -426.89415        30.00015
C36  22962125.45115    -39254.41315     -3576.89115        34.60015
C30  23189827.71615   -458475.35115     -3475.04315        32.90015
> 2025 05 03 07 37 07.9999999  0 13                      
G18  22903566.99127     73779.44227      2092.72827        42.60027
G29  20415827.11726   -237170.50426     -1811.40826        38.20026
G11  25057930.75626   -584725.85826     -4394.49526        37.70026
G31  21343355.60226    -20707.56626      -208.67926        35.50026
G28  21033815.39315   -256641.89515     -1971.33115        31.50015
G25  21158630.08515   -466067.77615     -3508.47315        31.00015
G12  24304248.91914   -595623.33714     -4458.74914        27.50014
R16  20956448.55326   -540151.18126     -4073.64626        35.70026
R09  19197591.08426    -14919.01826      -295.20626        35.50026
C30  23190286.39915   -461947.14715     -3478.71715        32.30015
R10  21793728.41625    299048.49625      2208.60325        32.90025
C36  22962587.73115    -42824.45915     -3575.42115        33.70015
C29  21550208.50115    -51815.70515      -433.30715        30.70015
> 2025 05 03 07 37 08.9999999  0 13                      
G29  20415944.33626   -238976.14426     -1811.78426        38.10026
G18  22902932.33027     75877.69027      2092.07827        41.80027
G11  25058518.64926   -589114.35826     -4394.49326        37.60026
G31  21343150.54426    -20910.35626      -208.95426        35.50026
G25  21159067.48215   -469573.36215     -3511.44515        30.80015
G28  21033961.69115   -258607.72915     -1972.23915        31.50015
G12  24304856.89814   -600081.27314     -4465.16814        27.40014
R16  20956972.29026   -544215.82326     -4074.47326        39.20026
R09  19197411.50926    -15225.37526      -295.11426        35.50026
C30  23190715.10215   -465419.85115     -3478.94615        34.10015
R10  21793075.46825    301265.74125      2208.34825        32.90025
C36  22963043.41615    -46398.97415     -3582.53915        33.00015
C29  21550055.90715    -52240.08315      -429.63615        30.60015
> 2025 05 03 07 37 09.9999999  0 13                      
G29  20416046.86526   -240782.31926     -1812.30526        38.00026
G11  25059108.34026   -593503.49826     -4395.31926        37.40026
G31  21342958.07826    -21114.02526      -209.97126        35.80026
G18  22902284.47826     77975.27426      2091.38626        40.60026
G25  21159504.88015   -473079.79815     -3512.72115        31.80015
G28  21034106.79115   -260575.34915     -1974.37515        31.40015
G12  24305466.67614   -604539.87314     -4464.79114        27.30014
R16  20957499.92526   -548301.86626     -4074.99326        39.90026
C30  23191144.40525   -468893.09425     -3479.32125        34.90025
R09  19197227.43625    -15511.10225      -296.17925        35.40025
C36  22963491.00615    -49972.83915     -3579.34815        33.40015
R10  21792424.61825    303469.25525      2207.81225        32.90025
C29  21549891.62015    -52663.94915      -429.42015        30.60015
> 2025 05 03 07 37 10.9999999  0 12                      
G29  20416145.19726   -242588.88626     -1812.62626        37.80026
G11  25059710.02426   -597892.77826     -4395.21026        37.20026
G31  21342764.11226    -21318.29326      -210.43026        36.10026
G18  22901639.02526     80073.39226      2091.77026        39.30026
G25  21159936.88115   -476586.83815     -3513.20315        32.30015
G28  21034238.10015   -262542.01815     -1972.05515        31.40015
G12  24306089.64414   -608999.69914     -4466.29914        27.30014
R16  20958040.75026   -552457.46126     -4075.20126        39.70026
C30  23191571.90925   -472366.51225     -3479.31125        35.40025
R09  19197046.66125    -15811.34725      -296.72925        35.40025
C36  22963943.09325    -53546.74325     -3579.73025        34.50025
R10  21791773.46925    305676.58425      2208.13125        33.10025
> 2025 05 03 07 37 12.0000000  0 12                      
G29  20416278.30526   -244396.22726     -1813.59026        37.80026
G31  21342596.22826    -21523.39826      -211.38826        36.50026
G11  25060335.39126   -602282.14326     -4395.26826        37.10026
G18  22901035.84316     82170.26616      2090.63816        38.10016
G25  21160399.16025   -480094.45025     -3513.75925        32.50025
G28  21034405.68415   -264509.75515     -1974.13415        31.70015
G12  24306723.70514   -613459.07114     -4465.00514        27.60014
R16  20958588.17126   -556487.70826     -4075.94126        39.40026
R09  19196885.97225    -16058.10625      -297.44625        35.40025
C36  22964422.16125    -57121.23525     -3580.59325        35.20025
C30  23192027.29425   -475840.20625     -3479.64125        35.40025
R10  21791158.59525    307850.35325      2207.42825        33.30025
> 2025 05 03 07 37 13.0000000  0 12                      
G31  21342397.16626    -21728.24026      -210.57326        40.90026
G29  20416380.53426   -246203.61126     -1813.26726        37.70026
G11  25060933.77726   -606672.49926     -4395.96126        37.00026
G25  21160823.06725   -483602.80325     -3514.58425        33.00025
G18  22900402.38126     84266.66226      2090.29226        37.00026
G28  21034534.89515   -266479.12015     -1976.04115        31.90015
G12  24307340.67814   -617917.21514     -4463.39014        27.90014
R16  20959098.11826   -560477.44626     -4078.28926        39.20026
R09  19196701.30026    -16338.48726      -297.35326        35.50026
C36  22964871.25025    -60696.44025     -3581.36925        35.20025
C30  23192460.49425   -479314.80725     -3480.86125        35.40025
R10  21790509.54425    310046.24225      2209.23725        33.50025
> 2025 05 03 07 37 14.0000000  0 13                      
G31  21342213.69327    -21933.76927      -211.79127        44.70027
G29  20416505.84726   -248011.92126     -1814.69126        37.60026
G11  25061561.84226   -611063.29326     -4397.17826        36.80026
G18  22899797.40016     86363.40716      2090.99916        36.10016
G25  21161277.55225   -487110.79925     -3513.73325        33.00025
G28  21034692.88515   -268446.83415     -1972.80515        32.40015
G12  24307957.35114   -622374.22514     -4462.35814        28.10014
R16  20959645.53926   -564570.33026     -4077.48026        39.00026
R09  19196535.21526    -16620.35626      -298.75426        35.60026
C36  22965340.42615    -64271.44815     -3580.77115        35.20015
C30  23192916.47815   -482788.42715     -3478.99315        35.30015
C29  21549322.31515      -425.90615      -431.78215        31.20015
R10  21789876.38225    312255.89525      2207.97425        33.50025
> 2025 05 03 07 37 15.0000000  0 13                      
G31  21342016.72927    -22140.64427      -213.39327        44.60027
G29  20416605.97826   -249819.92526     -1813.69426        37.50026
G28  21034826.89226   -270415.92026     -1975.61526        37.30026
G11  25062164.72426   -615453.46726     -4395.70626        36.70026
G25  21161715.24925   -490618.91825     -3514.02225        33.00025
G18  22899174.73125     88460.21425      2090.99225        35.40025
G12  24308584.81714   -626829.83314     -4460.74814        28.20014
R16  20960161.78226   -568594.46226     -4076.54626        38.90026
R09  19196354.44026    -16920.60026      -298.97526        35.70026
C29  21549165.82325      -852.67925      -432.58325        35.10025
C30  23193345.18115   -486262.78215     -3480.51115        35.20015
C36  22965794.31115    -67846.61815     -3581.04015        35.10015
R10  21789228.23115    314447.96915      2206.25015        33.40015
> 2025 05 03 07 37 16.0000000  0 13                      
G31  21341820.06527    -22348.12527      -213.64627        44.40027
G28  21034974.09026   -272385.55326     -1975.76926        37.30026
G29  20416702.51126   -251628.84726     -1815.24326        37.30026
G11  25062747.52126   -619844.05426     -4396.65326        36.50026
G25  21162148.15025   -494127.63325     -3514.87325        32.90025
G18  22898547.26615     90558.09315      2092.55015        34.80015
G12  24309211.68314   -631291.15514     -4470.03914        28.20014
R16  20960686.41926   -572663.68926     -4077.74026        38.90026
C29  21549009.93126     -1279.94926      -433.32826        36.00026
C30  23193775.38326   -489737.67026     -3480.96126        35.80026
R09  19196176.36426    -17236.12726      -299.97026        35.80026
C36  22966237.70425    -71422.14925     -3581.51925        35.10025
R10  21788597.76815    316543.94115      2203.50315        33.30015
> 2025 05 03 07 37 17.0000000  0 13                      
G31  21341624.30127    -22556.69927      -214.98427        44.30027
G28  21035112.29526   -274355.98426     -1976.69126        37.40026
G29  20416819.43026   -253438.06926     -1815.23326        37.20026
G11  25063351.90326   -624234.44526     -4396.15326        36.30026
G25  21162577.75225   -497637.61225     -3516.47225        32.90025
G18  22897893.11815     92654.51615      2089.83015        34.30015
G12  24309807.37114   -635753.05014     -4468.04214        28.10014
R16  20961213.75426   -576746.67426     -4076.67126        38.90026
C29  21548857.03726     -1707.41526      -433.37326        36.40026
R09  19195994.98926    -17533.31526      -300.37726        35.80026
C30  23194202.88726   -493212.77326     -3481.01826        36.00026
C36  22966690.09125    -74997.52025     -3581.09825        35.00025
R10  21787906.74615    318964.83115      2207.49715        33.10015
> 2025 05 03 07 37 18.0000001  0 13                      
G31  21341455.51827    -22765.65427      -215.00827        44.70027
G29  20416958.53426   -255247.52126     -1815.43026        37.30026
G28  21035272.68426   -276326.96826     -1977.12326        37.40026
G11  25063972.17326   -628625.48326     -4397.22226        36.10026
G18  22897269.25025     94750.86325      2090.44525        33.90025
G25  21163030.13925   -501146.49425     -3514.19425        32.90025
G12  24310451.32514   -640214.17714     -4466.60214        28.00014
R16  20961771.96726   -580835.00926     -4078.19426        39.00026
R09  19195834.90026    -17784.66226      -300.90426        36.30026
C29  21548732.02326     -2135.35226      -433.98226        36.40026
C30  23194667.86626   -496687.91526     -3480.96826        35.90026
C36  22967161.96525    -78572.82025     -3581.07225        35.00025
R10  21787286.77525    321165.29425      2206.67025        33.00025
> 2025 05 03 07 37 19.0000000  0 13                      
G31  21341247.46227    -22975.18927      -215.74327        45.30027
G28  21035407.59026   -278298.78926     -1977.40626        37.50026
G29  20417060.76326   -257057.51226     -1816.17626        37.40026
G11  25064570.25926   -633016.50426     -4396.92626        36.10026
G25  21163445.95125   -504657.00025     -3516.48425        33.20025
G18  22896618.10115     96846.63615      2089.56515        33.70015
G12  24311046.71314   -644672.06614     -4462.18614        28.00014
R16  20962285.81226   -584908.02126     -4078.01226        39.00026
R09  19195643.03326    -18087.92526      -301.43926        36.90026
C29  21548564.13926     -2563.79126      -434.55426        36.40026
C30  23195093.27126   -500163.61126     -3481.83426        35.80026
C36  22967600.56115    -82148.92615     -3582.37015        34.90015
R10  21786618.53825    323401.64525      2205.79025        33.20025
> 2025 05 03 07 37 20.0000001  0 13                      
G31  21341082.57627    -23184.83227      -215.54227        45.20027
G25  21163907.63225   -508167.08125     -3515.96025        35.40025
G29  20417203.16426   -258867.99126     -1816.56726        37.50026
G28  21035574.57526   -280270.35726     -1977.53626        37.50026
G11  25065194.12726   -637408.45426     -4398.25626        36.20026
G18  22896026.31115     98941.96115      2089.25615        33.60015
G12  24311669.68114   -649130.82714     -4465.03814        27.90014
R09  19195488.64027    -18369.83227      -302.01127        41.60027
R16  20962846.42326   -589009.35026     -4079.10526        39.00026
C30  23195537.26426   -503639.71526     -3482.09826        35.70026
C29  21548441.82416     -2993.49016      -436.12016        36.20016
C36  22968088.92315    -85723.58115     -3579.72015        34.80015
R10  21786004.56325    325570.07425      2206.44525        33.30025
> 2025 05 03 07 37 20.9999998  0 13                      
G25  21164251.49427   -511677.16927     -3515.95227        41.80027
G29  20417224.45026   -260678.74226     -1816.74926        38.10026
G11  25065707.97126   -641800.16026     -4397.44326        36.60026
G31  21340799.87227    -23395.32727      -216.78527        44.10027
G18  22895299.91425    101037.14225      2089.24425        33.50025
G28  21035622.84116   -282242.90816     -1978.90316        37.10016
G12  24312181.42714   -653592.40114     -4468.84014        27.80014
R09  19195214.92927    -18654.03127      -302.43127        41.60027
R16  20963279.32426   -593068.64126     -4079.61526        39.40026
C30  23195873.93126   -507115.76826     -3481.83426        36.00026
C29  21548202.59016     -3422.61716      -434.65016        36.10016
R10  21785256.88025    327813.25125      2206.54425        33.50025
C36  22968440.28015    -89293.66715     -3573.60715        33.80015
> 2025 05 03 07 37 21.9999999  0 13                      
G25  21164711.97527   -515187.19727     -3515.85927        41.80027
G29  20417359.35626   -262489.66526     -1816.87226        38.70026
G11  25066337.53626   -646191.87226     -4397.57626        37.30026
G31  21340627.49127    -23606.00227      -216.62727        42.60027
G18  22894687.13825    103131.87825      2088.64825        33.50025
G28  21035784.72916   -284214.22716     -1977.31516        35.60016
G12  24312821.78414   -658056.36814     -4471.02514        27.60014
R09  19195063.83427    -18952.74827      -302.61127        41.50027
R16  20963833.04026   -597133.28226     -4079.67526        39.90026
C30  23196338.30926   -510591.68426     -3481.65526        36.60026
C29  21548079.07526     -3852.06026      -435.41226        35.90026
R10  21784636.31015    330016.00415      2208.19915        33.50015
C36  22968924.74415    -92867.66615     -3581.76315        32.30015
> 2025 05 03 07 37 22.9999999  0 13                      
G25  21165143.37627   -518697.55927     -3516.38927        41.70027
G29  20417463.98426   -264300.91026     -1817.26826        39.10026
G11  25066923.33026   -650583.72726     -4397.78626        37.60026
G31  21340416.13726    -23817.26926      -217.42726        41.30026
G18  22894068.66615    105225.05315      2086.53015        33.40015
G12  24313436.95814   -662518.23214     -4466.67114        27.40014
G28  21035930.72815   -286186.03915     -1977.67015        33.90015
R09  19194883.95826    -19257.57726      -303.27826        41.40026
R16  20964356.47826   -601194.86626     -4080.09726        40.20026
C30  23196767.61226   -514067.83726     -3482.07926        37.20026
C29  21547916.58826     -4281.78026      -435.66726        35.80026
R10  21783968.67215    332312.56915      2206.65815        33.40015
C36  22969369.93615    -96445.47615     -3585.52315        31.10015
> 2025 05 03 07 37 23.9999999  0 13                      
G25  21165568.48227   -522208.43027     -3516.98627        41.70027
G29  20417568.61126   -266112.68426     -1817.90126        39.40026
G11  25067521.41626   -654976.26326     -4398.73726        37.80026
G31  21340221.87226    -24029.06526      -217.92326        40.40026
G18  22893424.11215    107322.56515      2093.81715        33.30015
G28  21036073.72915   -288159.22515     -1979.73515        32.30015
G12  24314050.33314   -666978.37914     -4465.14814        27.30014
R09  19194706.48126    -19576.15926      -304.04626        41.30026
R16  20964882.01426   -605269.44426     -4080.43926        40.30026
C30  23197201.71126   -517544.64426     -3482.94026        38.00026
C29  21547764.89326     -4711.63226      -435.72726        35.60026
R10  21783343.60515    334379.55815      2205.47115        33.30015
C36  22969825.92015   -100020.70915     -3579.75115        30.30015
> 2025 05 03 07 37 24.9999999  0 13                      
G25  21166015.77227   -525719.41127     -3516.95327        41.50027
G29  20417691.52626   -267924.60426     -1817.90926        39.50026
G28  21036223.92515   -290133.99615     -1981.48115        31.80015
G11  25068136.29016   -659368.57916     -4398.87116        37.80016
G31  21340045.89426    -24241.07526      -218.03526        39.60026
G18  22892804.74115    109418.74315      2089.59115        33.10015
G12  24314665.20814   -671436.85214     -4463.55314        27.20014
C36  22970293.59716   -103598.43616     -3584.83616        37.20016
R09  19194543.69426    -19875.60326      -304.25726        41.20026
R16  20965433.63226   -609384.49326     -4081.03626        40.50026
C30  23197651.10026   -521021.46226     -3482.68526        39.00026
C29  21547622.79125     -5142.09925      -436.64025        35.40025
R10  21782723.63415    336519.04315      2207.75615        33.10015
> 2025 05 03 07 37 25.9999999  0 12                      
G25  21166443.27626   -529230.20826     -3516.54626        40.90026
G29  20417799.15226   -269736.65726     -1817.96326        39.50026
G28  21036360.63116   -292109.11516     -1981.13516        38.30016
G11  25068738.27416   -663760.28216     -4396.98716        37.70016
G31  21339855.52516    -24452.56716      -217.82716        38.90016
G18  22892171.87915    111515.68215      2091.47215        32.90015
G12  24315280.98114   -675898.60814     -4469.23914        27.10014
R09  19194365.91726    -20191.12826      -304.40726        41.20026
R16  20965958.26926   -613452.95626     -4080.99426        40.80026
C36  22970741.78626   -107176.22226     -3583.60426        40.90026
C30  23198083.10126   -524497.57926     -3481.55626        39.20026
C29  21547471.99625     -5572.96825      -436.86125        35.20025
> 2025 05 03 07 37 26.9999999  0 12                      
G25  21166872.87926   -532741.38426     -3517.22626        40.60026
G29  20417907.97626   -271549.16926     -1818.60426        39.50026
G28  21036509.02826   -294084.69126     -1981.66726        38.30026
G11  25069349.55026   -668152.83126     -4398.83226        37.60026
G18  22891532.42215    113608.15115      2084.37015        32.80015
G31  21339657.96216    -24663.92316      -216.90116        37.10016
G12  24315873.97114   -680363.78714     -4472.75014        27.00014
R16  20966488.00226   -617549.69926     -4081.36026        40.90026
R09  19194183.94326    -20486.02426      -305.15726        41.10026
C30  23198508.20726   -527974.29026     -3482.81526        39.50026
C36  22971179.78326   -110753.71726     -3583.15726        40.60026
R10  21781395.85315    341068.70115      2205.91615        31.60015
> 2025 05 03 07 37 28.0000000  0 13                      
G25  21167336.65826   -536253.05926     -3517.78626        40.50026
G29  20418049.77826   -273362.11826     -1819.03026        39.40026
G11  25069959.02926   -672545.51426     -4398.61026        38.00026
G28  21036673.61426   -296060.84026     -1982.29726        38.20026
G31  21339496.97416    -24877.56216      -220.64416        35.80016
G18  22890926.54115    115702.14415      2088.88915        32.60015
G12  24316510.43014   -684828.21014     -4469.90414        26.90014
R16  20967040.82026   -621608.22626     -4082.35926        40.90026
R09  19194028.65026    -20762.58326      -306.08926        41.00026
C30  23198973.48526   -531451.39126     -3483.10326        40.20026
C36  22971662.14916   -114331.44316     -3583.65016        39.90016
R10  21780771.98515    343291.28415      2205.44415        31.00015
C29  21547196.48625                      -436.69525        29.80025
> 2025 05 03 07 37 28.9999999  0 12                      
G25  21167759.66526   -539764.94026     -3517.89926        40.30026
G29  20418146.31126   -275175.50726     -1819.52626        39.40026
G11  25070541.52526   -676938.69226     -4399.34126        38.10026
G28  21036809.12016   -298036.40416     -1981.18916        38.00016
G31  21339292.81525    -25092.05525      -220.83825        35.10025
G18  22890290.38215    117796.52015      2088.64815        32.40015
G12  24317128.60214   -689288.28014     -4463.80914        26.70014
C30  23199393.49426   -534928.80226     -3483.42826        40.40026
R09  19193836.18426    -21062.79126      -306.50226        40.80026
R16  20967554.06416   -625679.70916     -4083.81416        39.90016
R10  21780096.85315    345564.24315      2207.10015        30.90015
C29  21547041.79314      -432.38014      -438.22614        29.20014
> 2025 05 03 07 37 29.9999999  0 13                      
G25  21168193.16526   -543277.00926     -3518.00626        40.20026
G29  20418258.43426   -276989.24726     -1819.76026        39.50026
G11  25071141.71026   -681332.01826     -4399.24126        38.30026
G18  22889653.62325    119890.27025      2087.59025        32.70025
G31  21339099.44915    -25307.80715      -222.22615        34.60015
G28  21036956.01816   -300013.24216     -1983.31816        37.20016
G12  24317749.77214   -693742.02614     -4456.42414        26.50014
R09  19193662.00426    -21399.70926      -306.84326        40.70026
C30  23199824.29626   -538406.62726     -3483.82126        40.30026
R16  20968069.70716   -629700.78316     -4077.15916        38.20016
C29  21546880.50515      -865.13115      -438.72815        30.10015
R10  21779443.00515    347786.06415      2203.55615        30.70015
C36  22972566.92315   -121478.66715     -3584.35315        34.50015
> 2025 05 03 07 37 31.0000000  0 13                      
G25  21168659.64226   -546789.22726     -3518.15226        40.10026
G29  20418396.63826   -278803.27026     -1820.02626        39.50026
G11  25071769.17526   -685725.23826     -4399.02926        38.30026
G28  21037127.50015   -301990.56215     -1983.42315        35.20015
G18  22889045.04425    121983.49925      2087.10425        33.30025
G31  21338939.06015    -25526.00915      -225.29015        34.20015
G12  24318403.32014   -698194.05914     -4457.03814        26.20014
R09  19193507.31126    -21678.56126      -307.45126        40.60026
C30  23200281.77926   -541884.29826     -3483.40126        40.30026
R16  20968639.01316   -633847.97216     -4082.40316        36.60016
C29  21546750.39515     -1300.08715      -441.86915        30.30015
R10  21778835.32615    349920.93415      2203.96615        30.50015
C36  22973056.48415   -125057.65915     -3584.80015        33.30015
> 2025 05 03 07 37 32.0000000  0 12                      
G25  21169089.84426   -550301.86526     -3518.70826        40.30026
G29  20418502.76526   -280617.68826     -1820.47826        39.60026
G11  25072379.55326   -690119.04426     -4399.95826        38.40026
G28  21037251.31416   -303969.15016     -1985.08416        36.10016
G18  22888410.38315    124075.38715      2085.35315        33.30015
G31  21338734.30215    -25743.97915      -223.71715        33.80015
R09  19193328.33526    -21988.73926      -308.00226        40.50026
C30  23200719.77626   -545362.43526     -3484.17826        40.30026
R16  20969145.66316   -637820.13016     -4084.71216        35.70016
C29  21546592.10515     -1733.15515      -437.93315        30.80015
R10  21778178.48115    352158.00915      2209.65315        30.50015
C36  22973507.67215   -128641.32615     -3591.81115        32.30015
> 2025 05 03 07 37 33.0000000  0 14                      
G25  21169522.44526   -553814.65926     -3518.73326        40.80026
G29  20418606.79326   -282432.48126     -1820.84226        39.60026
G11  25072976.14026   -694512.83926     -4399.64926        38.80026
G28  21037388.01926   -305948.26526     -1985.24026        36.70026
G18  22887778.72115    126168.52815      2087.90315        33.20015
G20  24249625.83315      -792.28215      -798.82415        33.00015
G31  21338539.13715    -25960.77915      -222.07815        33.50015
G12  24319596.19414   -707094.44914     -4463.82414        24.70014
C30  23201149.07926   -548840.62126     -3484.01726        40.40026
R09  19193154.15626    -22325.65726      -308.47426        40.50026
R16  20969685.58925   -641972.66825     -4083.79825        35.20025
C29  21546444.00715     -2165.49315      -437.78215        30.80015
R10  21777517.13915    354417.96515      2202.06715        30.40015
C36  22973942.07115   -132222.54115     -3585.79615        31.40015
> 2025 05 03 07 37 34.0000000  0 14                      
G25  21169972.13326   -557327.73826     -3519.13826        41.20026
G29  20418736.30326   -284247.52826     -1821.09226        39.50026
G11  25073591.01426   -698906.82926     -4400.00326        38.80026
G28  21037544.21126   -307927.74726     -1985.58226        37.00026
G18  22887159.94925    128261.59025      2087.10325        33.40025
G20  24249567.67425     -1585.26325      -798.88025        33.40025
G31  21338364.65825    -26177.92425      -223.23625        33.30025
G12  24320211.66814   -711555.26514     -4466.71214        24.30014
C30  23201601.16626   -552318.99226     -3484.32726        40.50026
R09  19192982.97426    -22579.25826      -308.95226        40.40026
R16  20970227.61425   -646034.21525     -4084.38325        35.00025
C29  21546304.00415     -2597.94915      -438.38015        30.80015
R10  21776911.85815    356480.41515      2203.67415        30.30015
C36  22974395.35715   -135804.39315     -3588.03215        30.60015
> 2025 05 03 07 37 35.0000000  0 14                      
G25  21170405.03426   -560841.01326     -3519.21426        41.40026
G29  20418844.22826   -286063.05626     -1821.61126        39.50026
G11  25074192.69826   -703301.14626     -4400.32326        39.10026
G28  21037688.71126   -309907.97626     -1986.44726        37.00026
G18  22886522.29025    130354.43825      2086.89525        33.90025
G20  24249481.93325     -2378.81925      -799.68725        33.40025
G31  21338167.09415    -26394.15615      -221.62015        33.10015
G12  24320812.75214   -716020.93914     -4473.94614        24.00014
C30  23202028.67026   -555797.62226     -3484.54826        40.70026
R09  19192798.00226    -22858.11026      -309.64026        40.40026
R16  20970760.34525   -650147.77325     -4084.26325        35.30025
C29  21546154.10815     -3031.72215      -440.22315        31.50015
R10  21776240.32315    358794.52315      2204.84415        30.30015
C36  22974861.83415   -139384.57815     -3585.14115        29.90015
> 2025 05 03 07 37 36.0000000  0 14                      
G25  21170834.03727   -564354.50427     -3519.46027        41.60027
G18  22885886.73026    132446.98926      2086.53826        36.00026
G29  20418956.95026   -287878.89326     -1821.85426        39.50026
G11  25074790.48426   -707695.46226     -4400.17426        39.20026
G28  21037834.71026   -311888.66226     -1986.77726        36.90026
G20  24249400.98925     -3172.88525      -800.18425        33.30025
G31  21337971.63015    -26612.50215      -225.26615        32.90015
G12  24321445.91314   -720485.86814     -4470.41514        24.00014
C30  23202464.26826   -559276.41526     -3484.68126        40.80026
R09  19192623.52326    -23192.73726      -310.04126        40.40026
R16  20971281.98426   -654200.95026     -4085.19426        35.80026
C29  21546000.61415     -3465.26315      -439.23315        32.30015
R10  21775579.28015    361055.24315      2206.24415        30.30015
C36  22975301.33014   -142963.81414     -3584.56814        29.30014
> 2025 05 03 07 37 37.0000001  0 14                      
G25  21171296.31727   -567868.31227     -3519.82627        41.70027
G18  22885279.95026    134539.45526      2086.55826        39.40026
G29  20419100.85126   -289695.10426     -1822.26026        39.40026
G11  25075417.05026   -712090.00326     -4400.51426        39.20026
G28  21038005.29226   -313869.96726     -1987.47626        36.90026
G20  24249340.13115     -3967.31915      -800.48015        33.30015
G31  21337805.54515    -26831.84215      -225.70015        32.80015
G12  24322082.97214   -724946.85914     -4464.88214        25.70014
R16  20971841.99626   -658299.22126     -4085.33526        37.60026
C30  23202926.24826   -562755.34926     -3484.81426        40.80026
R09  19192472.12826    -23490.68826      -310.35426        40.30026
C29  21545879.79825     -3900.34225      -441.65925        33.00025
R10  21774953.61315    363285.45215      2207.70615        30.20015
C36  22975790.59114   -146543.45614     -3585.65314        28.90014
> 2025 05 03 07 37 37.9999998  0 14                      
G25  21171632.98327   -571382.48127     -3520.21027        41.80027
G29  20419115.24126   -291511.76226     -1822.74426        39.40026
G18  22884558.65026    136631.74526      2086.33726        39.40026
G11  25075929.09626   -716485.07926     -4401.20326        39.20026
G28  21038058.95516   -315851.75016     -1987.88416        36.80016
G12  24322605.81014   -729405.61614     -4463.50014        27.10014
G20  24249170.74825     -4762.24925      -801.04225        33.20025
G31  21337516.84415    -27051.31615      -225.40515        32.70015
R16  20972281.49227   -662392.90727     -4085.90227        41.60027
C30  23203264.71426   -566234.78526     -3485.49326        41.00026
R09  19192209.51026    -23834.48526      -311.30226        40.50026
C29  21545635.16725     -4335.92825      -441.65025        33.30025
R10  21774225.11815    365425.66515      2206.37715        30.20015
C36  22976150.34214   -150121.02514     -3582.33814        28.60014
> 2025 05 03 07 37 39.0000001  0 14                      
G25  21172169.61227   -574896.90627     -3520.46827        41.80027
G29  20419334.08926   -293328.73226     -1823.04326        39.90026
G18  22884028.61726    138723.54626      2085.63726        39.30026
G11  25076637.80526   -720880.08226     -4400.88226        39.20026
G20  24249192.33325     -5557.78325      -801.75325        33.10025
G31  21337440.39725    -27271.45225      -226.38425        32.60025
G12  24323332.20815   -733865.50815     -4466.37415        32.20015
G28  21038318.87516   -317836.55716     -1992.23616        36.10016
R16  20972916.45227   -666472.79727     -4086.32627        41.70027
C30  23203802.84226   -569714.21226     -3485.28426        41.40026
R09  19192136.06126    -24129.34426      -311.78226        40.70026
C29  21545591.69725     -4771.77825      -441.84625        33.30025
R10  21773684.89215    367619.29915      2206.93315        30.20015
C36  22976706.15714   -153703.01814     -3590.06814        28.90014
> 2025 05 03 07 37 39.9999998  0 14                      
G25  21172516.77227   -578411.56927     -3520.62427        41.80027
G29  20419344.58226   -295146.03726     -1823.31626        40.00026
G11  25077159.44426   -725275.29926     -4401.16626        39.30026
G18  22883313.01226    140815.31626      2085.90826        39.30026
G28  21038356.94915   -319820.01915     -1988.63215        35.30015
G20  24248995.07015     -6354.55815      -803.24015        33.00015
G31  21337154.39515    -27491.85215      -226.37715        32.60015
G12  24323848.75015   -738325.05115     -4465.20915        32.10015
C30  23204143.10627   -573193.83427     -3485.50827        41.60027
R09  19191864.14926    -24424.24026      -312.15026        40.80026
R16  20973347.85327   -670524.44527     -4086.55127        41.60027
C29  21545347.66625     -5208.20325      -442.50325        33.30025
R10  21772936.61015    369865.52615      2202.10015        30.10015
C36  22977050.31914   -157279.60214     -3579.66814        29.00014
> 2025 05 03 07 37 40.9999999  0 14                      
G25  21172979.95127   -581926.44827     -3520.84827        42.00027
G29  20419485.48426   -296963.89326     -1823.99426        40.00026
G11  25077785.71026   -729670.84526     -4401.57026        39.40026
G18  22882706.83226    142906.95226      2085.70426        39.20026
G28  21038526.63125   -321803.85625     -1989.88725        34.90025
G20  24248929.71525     -7151.20225      -802.44125        32.90025
G31  21336987.71115    -27713.41615      -228.00815        32.50015
G12  24324493.60315   -742787.44015     -4469.67315        31.80015
C30  23204600.88927   -576673.85027     -3486.02127        41.60027
R09  19191711.55526    -24714.55226      -313.01126        40.80026
R16  20973906.96626   -674617.36626     -4086.85126        41.40026
C29  21545225.05125     -5644.94425      -442.71025        33.40025
R10  21772317.23815    372062.94015      2202.79015        30.20015
C36  22977547.37514   -160859.90514     -3587.97014        29.00014
> 2025 05 03 07 37 41.9999999  0 13                      
G25  21173405.95627   -585441.48427     -3520.97427        42.00027
G29  20419597.00726   -298781.91926     -1823.97326        39.90026
G11  25078378.10026   -734066.32626     -4401.30826        39.40026
G18  22882076.66826    144998.40026      2085.49026        39.10026
G28  21038653.74325   -323788.04325     -1990.22425        34.70025
G31  21336789.54815    -27935.01415      -227.47915        32.40015
G12  24325113.87415   -747248.14615     -4465.72315        31.60015
C30  23205036.78727   -580153.87127     -3485.83127        41.60027
R16  20974438.79826   -678724.80926     -4087.17326        41.20026
R09  19191534.07726    -25033.13426      -313.15326        40.80026
C29  21545066.16125     -6082.00825      -443.03425        33.40025
R10  21771680.47915    374192.47115      2208.05015        30.40015
C36  22978014.45214   -164440.97214     -3587.25614        29.20014
> 2025 05 03 07 37 42.9999999  0 13                      
G25  21173838.85627   -588956.94627     -3521.53527        42.00027
G29  20419710.62826   -300600.37226     -1824.52726        39.80026
G11  25078973.78826   -738462.25826     -4402.01826        39.30026
G18  22881452.20026    147089.56426      2085.15526        38.90026
G28  21038797.04425   -325773.30625     -1990.91325        34.50025
G31  21336589.28715    -28157.12515      -228.23115        32.30015
G12  24325730.24715   -751707.62515     -4464.72515        31.50015
C30  23205467.28927   -583634.27827     -3486.40727        41.60027
R16  20974967.03226   -682813.14526     -4087.89926        41.10026
R09  19191357.50026    -25355.53626      -313.84326        40.70026
C29  21544913.26725     -6519.54025      -443.57625        33.30025
R10  21771030.22915    376395.98715      2203.45915        30.80015
C36  22978470.13614   -168020.51814     -3584.59314        29.40014
> 2025 05 03 07 37 43.9999999  0 13                      
G25  21174290.94327   -592472.50927     -3521.53027        41.90027
G29  20419838.94026   -302418.97726     -1824.59826        39.70026
G11  25079598.25526   -742858.18026     -4401.83226        39.30026
G18  22880834.92826    149180.66026      2085.14326        38.80026
G28  21038951.73725   -327758.61425     -1991.49725        34.30025
G31  21336422.30215    -28379.50515      -228.43215        32.40015
G12  24326363.40915   -756167.52215     -4466.02215        31.40015
C30  23205916.97827   -587114.65627     -3486.22527        41.60027
R16  20975517.75126   -686922.84426     -4088.00226        41.00026
R09  19191196.21126    -25663.38426      -314.16726        40.70026
C29  21544788.25325     -6957.27725      -443.70525        33.20025
R10  21770400.36515    378587.33415      2201.68215        31.00015
C36  22978930.31814   -171602.11614     -3588.48514        29.40014
> 2025 05 03 07 37 44.9999999  0 13                      
G25  21174723.54427   -595988.27627     -3521.71127        41.90027
G29  20419939.97026   -304238.17326     -1825.33626        39.60026
G11  25080205.33526   -747254.62626     -4402.54926        39.20026
G18  22880190.67426    151271.67026      2085.12026        38.60026
G28  21039091.74015   -329742.93715     -1990.42415        34.10015
G31  21336225.03915    -28604.05015      -231.47315        32.30015
G12  24326979.18315   -760629.11415     -4468.28015        31.40015
C30  23206348.37927   -590595.58927     -3487.00027        41.60027
R09  19191014.83726    -25959.80926      -314.92726        40.70026
R16  20976041.78826   -690989.77826     -4088.44126        40.90026
C29  21544627.86425     -7396.36125      -445.54925        33.10025
R10  21769726.73215    380914.41115      2206.01815        31.00015
C36  22979378.20715   -175184.65715     -3588.80315        29.90015
> 2025 05 03 07 37 45.9999999  0 13                      
G25  21175157.94327   -599504.57427     -3522.42327        42.00027
G29  20420048.79426   -306057.85926     -1825.79226        39.60026
G11  25080801.92226   -751651.54326     -4403.01126        39.20026
G18  22879548.51826    153361.76426      2083.77226        38.50026
G28  21039240.73715   -331728.76415     -1992.18915        33.90015
G31  21336019.98115    -28829.89815      -232.36215        32.20015
G12  24327588.06115   -765089.53015     -4465.68915        31.40015
C30  23206781.87927   -594076.81327     -3487.17827        41.70027
R09  19190840.65726    -26295.96426      -315.42226        40.60026
R16  20976564.62626   -695048.30526     -4089.01926        40.80026
C36  22979828.49615   -178767.74015     -3589.15915        31.90015
C29  21544479.16715     -7837.56415      -448.07215        33.00015
R10  21769073.18415    383134.70615      2204.98615        31.00015
> 2025 05 03 07 37 46.9999999  0 13                      
G25  21175588.74527   -603020.76927     -3522.00427        42.10027
G29  20420157.61926   -307877.35326     -1825.25926        40.00026
G11  25081407.20326   -756047.32626     -4401.07626        39.10026
G18  22878910.86026    155451.99226      2084.42926        38.30026
G28  21039379.84025   -333715.98925     -1993.78625        33.90025
G31  21335818.82015    -29053.99315      -229.08215        32.20015
G12  24328214.32815   -769551.39215     -4468.44415        31.30015
C30  23207208.78427   -597557.27627     -3485.88927        41.70027
R09  19190655.38626    -26573.07626      -315.53126        40.60026
R16  20977091.36226   -699128.23326     -4088.85726        40.70026
C36  22980277.58515   -182350.07115     -3587.76315        33.10015
C29  21544323.27515     -8276.17115      -443.11915        32.90015
R10  21768429.83015    385299.32415      2212.06515        30.90015
> 2025 05 03 07 37 47.9999999  0 13                      
G25  21176036.03527   -606537.38327     -3522.74027        42.40027
G29  20420285.33126   -309697.46326     -1826.33526        40.00026
G11  25082025.37526   -760443.75326     -4402.66526        39.00026
G18  22878305.27926    157541.93726      2083.88426        38.20026
G28  21039524.64015   -335703.85915     -1994.11015        33.90015
G31  21335643.74115    -29278.98515      -231.35815        32.20015
G12  24328828.60215   -774012.66315     -4466.89015        31.20015
C30  23207654.87527   -601038.42327     -3487.35027        41.60027
R09  19190500.39326    -26913.01426      -316.44726        40.60026
R16  20977636.98426   -703211.18026     -4090.09526        40.60026
C29  21544190.76725     -8715.61225      -445.72125        33.00025
C36  22980743.16315   -185932.17915     -3587.85815        33.30015
R10  21767806.26115    387457.87415      2201.63415        30.80015
> 2025 05 03 07 37 48.9999999  0 13                      
G25  21176464.13927   -610054.14827     -3522.68327        42.40027
G29  20420397.45326   -311517.95626     -1826.52926        40.00026
G11  25082615.96626   -764840.90526     -4403.35426        39.00026
G18  22877658.62626    159631.58126      2084.39726        37.80026
G28  21039663.14415   -337697.53315     -2002.42015        33.80015
G31  21335446.77825    -29505.14625      -231.84125        32.40025
G12  24329447.97415   -778470.24515     -4461.57915        30.60015
C30  23208082.37927   -604519.94427     -3487.49827        41.50027
R09  19190318.41926    -27207.91026      -316.98126        40.60026
R16  20978165.81826   -707302.57326     -4089.43926        40.50026
C29  21544036.07425     -9155.36425      -445.70025        33.50025
C36  22981189.55415   -189514.17315     -3587.72615        33.20015
R10  21767150.31515    389690.37215      2202.60615        31.40015
> 2025 05 03 07 37 50.0000000  0 13                      
G25  21176927.91827   -613571.44727     -3523.42627        42.40027
G29  20420538.65526   -313339.17426     -1827.44226        40.00026
G11  25083241.33326   -769238.40326     -4403.53326        38.90026
G18  22877045.55126    161721.42426      2083.82726        37.00026
G31  21335295.08325    -29731.55025      -232.63825        33.00025
G12  24330086.53215   -782929.94615     -4466.62215        29.90015
G28  21039842.72015   -339689.39515     -1996.81715        32.70015
C30  23208551.55426   -608001.99426     -3488.12126        41.40026
R09  19190168.22316    -27511.21016      -317.34816        40.60016
C29  21543907.76315     -9593.97915      -443.85615        33.50015
C36  22981687.80915   -193098.70915     -3591.61515        33.10015
R16  20978734.52416   -711446.70316     -4095.29416        39.50016
R10  21766527.04715    391909.14215      2202.97115        31.90015
> 2025 05 03 07 37 51.0000000  0 13                      
G25  21177360.81827   -617088.81227     -3523.25827        42.50027
G29  20420649.87826   -315160.63026     -1827.43626        39.90026
G11  25083849.61226   -773635.93826     -4403.41226        38.90026
G18  22876412.98926    163811.46526      2084.27526        36.30026
G31  21335100.51725    -29958.34525      -232.85525        33.20025
G28  21039995.91415   -341678.01715     -1992.86415        31.70015
G12  24330706.80215   -787390.02815     -4466.13215        29.50015
C30  23208985.05426   -611484.08226     -3487.91526        41.30026
R16  20979254.66416   -715491.47216     -4088.78016        39.00016
R09  19189989.54726    -27823.67926      -318.17326        40.50026
C29  21543761.76415    -10034.49915      -447.28315        33.40015
C36  22982137.19715   -196682.88215     -3589.79915        33.00015
R10  21765885.79125    394063.08025      2203.38225        32.20025
> 2025 05 03 07 37 52.0000000  0 13                      
G25  21177813.80527   -620606.56827     -3523.86827        42.50027
G29  20420772.79326   -316982.49026     -1827.97926        39.80026
G11  25084471.08226   -778033.56326     -4403.58526        39.10026
G18  22875801.71226    165900.66326      2082.85726        35.70026
G31  21334918.54325    -30185.84025      -233.76225        33.20025
G28  21040149.70715   -343669.23015     -1998.42415        31.30015
G12  24331331.57014   -791850.60614     -4466.74114        29.40014
R16  20979798.48826   -719565.24826     -4091.51726        41.20026
C30  23209434.44326   -614966.36326     -3488.23926        41.20026
R09  19189829.75726    -28137.63926      -318.82426        40.50026
C29  21543630.75515    -10475.94415      -447.77215        33.30015
C36  22982618.36425   -200266.82025     -3589.68225        32.80025
R10  21765248.43225    396294.09025      2203.23725        32.30025
> 2025 05 03 07 37 53.0000000  0 13                      
G25  21178247.30427   -624124.58427     -3523.98827        42.50027
G29  20420876.22226   -318804.60426     -1828.08626        39.70026
G11  25085076.06326   -782431.56526     -4404.03126        39.10026
G31  21334728.77525    -30413.41825      -233.46525        33.30025
G18  22875161.35515    167990.60415      2083.71715        35.20015
G28  21040292.10915   -345660.13115     -1996.59015        31.10015
G12  24331944.64515   -796312.62015     -4468.57315        29.50015
R16  20980324.92327   -723644.41127     -4091.58527        42.30027
R09  19189654.37926    -28467.68226      -319.06226        40.60026
C30  23209867.04326   -618448.81726     -3488.33026        41.10026
C29  21543476.66115    -10916.87015      -446.45615        33.10015
R10  21764602.08025    398476.25025      2203.18225        32.40025
C36  22983072.25025   -203851.01825     -3590.11725        32.70025
> 2025 05 03 07 37 54.0000000  0 12                      
G25  21178679.60527   -627643.00227     -3524.48027        42.50027
G29  20420988.04426   -320627.14426     -1828.61526        39.60026
G11  25085671.75126   -786829.79026     -4404.19626        39.00026
G31  21334530.61225    -30642.06225      -235.04025        33.70025
G28  21040447.10215   -347649.47115     -1994.42015        31.00015
G12  24332550.52615   -800775.09015     -4468.55615        29.80015
R16  20980854.05727   -727737.33327     -4092.23927        42.70027
R09  19189479.90026    -28801.54426      -320.06126        40.90026
C30  23210299.64426   -621931.72226     -3488.93826        41.00026
C29  21543324.36715    -11358.80515      -448.25015        33.10015
C36  22983517.44225   -207435.62325     -3590.61625        32.70025
R10  21763952.12925    400676.71425      2202.61225        32.60025
> 2025 05 03 07 37 55.0000000  0 13                      
G25  21179108.90827   -631161.57127     -3524.50527        42.50027
G29  20421097.16926   -322450.12526     -1829.06226        39.50026
G11  25086280.03026   -791228.18126     -4404.33526        38.80026
G31  21334346.83925    -30871.16925      -235.20125        34.10025
G28  21040577.51115   -349641.22115     -1998.81815        30.80015
G12  24333160.00415   -805235.25415     -4464.87215        29.90015
G18  22873883.34015    172171.47815      2083.64115        32.50015
R16  20981385.58927   -731842.48327     -4092.39627        42.80027
R09  19189305.42026    -29135.40726      -320.22426        41.00026
C30  23210731.34526   -625414.70126     -3488.82226        40.90026
C29  21543172.67225    -11801.02025      -448.16525        33.40025
R10  21763288.38925    402951.16125      2202.85625        32.80025
C36  22983962.93425   -211020.20925     -3590.38425        32.70025
> 2025 05 03 07 37 56.0000001  0 13                      
G25  21179570.28927   -634680.37627     -3524.78327        42.50027
G29  20421235.97326   -324273.43426     -1829.33526        39.50026
G11  25086908.99426   -795626.74226     -4404.50626        38.70026
G31  21334174.75825    -31100.96225      -235.99925        34.20025
G28  21040747.49415   -351633.62715     -1998.59515        30.70015
G12  24333807.55615   -809694.27115     -4464.30215        30.10015
G18  22873281.05715    174260.03815      2082.69615        30.80015
R16  20981941.70427   -735920.11827     -4092.80027        42.80027
R09  19189156.72326    -29448.64026      -320.99126        41.00026
C30  23211194.82426   -628897.80326     -3488.97226        40.80026
C29  21543053.35525    -12243.80525      -448.88025        33.40025
R10  21762675.31325    405115.77725      2202.47625        32.90025
C36  22984451.89525   -214605.30725     -3591.16225        32.70025
> 2025 05 03 07 37 57.0000000  0 13                      
G25  21179987.60027   -638199.50927     -3525.21227        42.50027
G29  20421337.00326   -326097.18126     -1829.88326        39.40026
G11  25087492.99026   -800025.55126     -4404.84626        38.60026
G31  21333956.20925    -31331.21625      -236.40225        34.20025
G28  21040883.30015   -353627.10515     -1999.93215        30.50015
G12  24334414.33615   -814149.51515     -4459.27215        30.10015
G18  22872637.70215    176350.22215      2085.07515        29.60015
R16  20982456.44827   -739998.48027     -4093.37427        42.70027
R09  19188967.85426    -29767.94826      -321.35826        41.20026
C30  23211615.73326   -632381.31826     -3489.58326        40.80026
C29  21542896.56325    -12686.88725      -449.09425        33.40025
C36  22984899.18525   -218190.04025     -3590.41125        32.80025
R10  21762000.78025    407385.68725      2202.59525        32.90025
> 2025 05 03 07 37 58.0000001  0 13                      
G25  21180451.37927   -641718.89427     -3525.35527        42.40027
G29  20421477.00626   -327921.20326     -1830.00326        39.20026
G11  25088118.65726   -804424.53726     -4404.91826        38.40026
G31  21333793.72225    -31561.95925      -236.83325        34.20025
G12  24335045.39915   -818608.78515     -4467.12615        30.00015
G28  21041062.87515   -355617.70115     -1994.99815        30.40015
G18  22872047.71114    178440.82114      2084.96114        28.80014
R16  20983011.06427   -744066.94227     -4093.69827        42.70027
R09  19188820.65626    -30087.29426      -322.16926        41.20026
C30  23212074.41526   -635864.92926     -3489.44926        40.70026
C29  21542764.65425    -13130.32525      -449.40825        33.30025
C36  22985379.15325   -221775.55925     -3591.70225        33.10025
R10  21761385.60625    409560.98125      2202.27025        32.90025
> 2025 05 03 07 37 58.9999998  0 13                      
G25  21180795.24127   -645238.45927     -3525.51427        42.30027
G29  20421497.99126   -329745.72526     -1830.63326        39.20026
G11  25088629.80326   -808823.72526     -4405.14726        38.30026
G31  21333513.71625    -31793.32725      -237.54225        34.10025
G12  24335564.04015   -823070.20615     -4468.35415        30.00015
G28  21041121.33515   -357613.25315     -2003.89215        30.20015
G18  22871323.11214    180525.48314      2075.83014        28.20014
R16  20983450.26027   -748160.62827     -4093.77727        42.70027
R09  19188554.74026    -30414.28026      -322.48826        41.20026
C30  23212419.47626   -639348.81626     -3489.83126        40.60026
C36  22985743.70125   -225361.11525     -3591.38125        33.10025
C29  21542524.22125    -13574.30525      -450.06025        33.30025
R10  21760653.21325    411721.78525      2202.28525        32.90025
> 2025 05 03 07 37 59.9999998  0 13                      
G25  21181228.74027   -648758.27927     -3525.80927        42.20027
G29  20421612.51226   -331570.39726     -1830.60926        39.10026
G11  25089230.28716   -813223.09516     -4405.32216        38.10016
G31  21333320.05025    -32025.51125      -238.45625        34.10025
G28  21041255.34215   -359608.24815     -2000.57815        30.10015
G12  24336178.91415   -827529.33115     -4463.83815        29.80015
G18  22870691.15014    182609.24314      2077.44214        27.90014
R16  20983975.79627   -752233.67727     -4094.37327        42.80027
R09  19188368.26926    -30683.96226      -322.87426        41.20026
C30  23212845.48126   -642832.80926     -3489.85426        40.50026
C29  21542383.01925    -14018.42525      -449.99925        33.20025
C36  22986190.69125   -228946.65625     -3591.34125        33.10025
R10  21759980.17925    414046.57225      2202.38825        32.80025
> 2025 05 03 07 38 01.0000001  0 13                      
G25  21181773.76327   -652278.55727     -3526.42427        42.10027
G29  20421827.46326   -333395.72526     -1831.57326        38.90026
G11  25089946.19226   -817622.84726     -4405.85726        38.00026
G31  21333234.00925    -32257.97925      -239.27825        33.90025
G28  21041496.97515   -361604.44915     -2002.72115        29.90015
G18  22870157.51914    184696.12814      2082.53014        28.10014
G12  24336885.82514   -831989.25514     -4466.23814        28.80014
R16  20984609.85727   -756309.74527     -4095.19727        42.80027
R09  19188301.41526    -31014.73126      -324.01126        41.20026
C30  23213388.40626   -646317.23026     -3490.49826        40.40026
R10  21759449.84625    416186.05525      2201.58025        32.80025
C29  21542334.45215    -14466.12515      -455.35415        33.10015
C36  22986743.80815   -232532.41215     -3591.72515        33.00015
> 2025 05 03 07 38 01.9999997  0 13                      
G25  21182113.72827   -655799.11027     -3526.53127        42.00027
G29  20421858.04226   -335221.35926     -1831.63026        38.80026
G11  25090456.43826   -822022.65126     -4405.67226        38.00026
G31  21332945.30915    -32490.97215      -238.85015        33.80015
G28  21041547.93915   -363601.55115     -2003.39615        29.80015
G18  22869439.51614    186783.73414      2082.11814        28.40014
G12  24337408.96214   -836447.13714     -4462.70214        27.80014
R16  20985053.85027   -760428.65427     -4095.16427        42.80027
R09  19188033.70126    -31333.31326      -324.18126        41.30026
C30  23213730.76926   -649801.82126     -3490.46626        40.40026
R10  21758718.35325    418341.52025      2201.97325        32.80025
C36  22987100.26215   -236116.89315     -3589.63215        32.80015
C29  21542089.52215    -14911.31715      -449.73015        32.50015
> 2025 05 03 07 38 02.9999998  0 12                      
G25  21182576.30827   -659319.91627     -3526.79427        41.80027
G11  25091086.30226   -826422.85626     -4406.26626        38.30026
G29  20422001.34326   -337047.36326     -1832.05126        38.70026
G31  21332794.21415    -32724.37615      -239.47315        33.70015
G28  21041714.92415   -365600.71415     -2006.05515        29.70015
G18  22868839.03214    188869.26514      2078.63014        28.80014
G12  24338048.12014   -840903.65814     -4461.70114        27.10014
R16  20985613.86227   -764526.16127     -4095.83227        42.80027
R09  19187883.50526    -31637.37726      -324.86626        41.30026
C30  23214192.14926   -653286.58726     -3490.66026        40.30026
R10  21758092.38625    420574.01825      2201.62925        32.90025
C29  21541961.81015    -15358.16415      -453.48415        31.70015
> 2025 05 03 07 38 03.9999998  0 13                      
G25  21183010.70727   -662840.88227     -3526.90527        41.60027
G11  25091681.09126   -830823.22426     -4406.30826        38.60026
G29  20422113.46526   -338873.87326     -1832.62526        38.60026
G31  21332605.94425    -32958.67825      -240.61525        33.60025
G28  21041863.02115   -367596.75815     -2000.34515        29.70015
G18  22868205.27114    190955.49114      2080.70714        29.20014
G12  24338655.79914   -845360.49814     -4462.85814        26.50014
R16  20986140.89727   -768608.38227     -4096.03527        42.70027
R09  19187708.42626    -31967.42026      -325.29926        41.30026
C30  23214622.05226   -656771.71226     -3491.11226        40.20026
R10  21757439.43825    422790.49925      2201.40825        33.10025
C29  21541820.60815    -15806.45615      -454.82415        31.20015
C36  22988030.81715   -243296.43115     -3597.02615        31.30015
> 2025 05 03 07 38 04.9999999  0 13                      
G25  21183465.19226   -666362.29826     -3527.55826        41.40026
G29  20422239.67826   -340700.70126     -1832.90426        38.60026
G11  25092302.26116   -835223.62516     -4406.33316        38.60016
G18  22867581.70315    193041.93915      2080.64115        34.60015
G31  21332436.86115    -33194.22615      -242.08815        33.50015
G28  21042029.10615   -369594.38115     -2004.33015        29.90015
G12  24339268.27514   -849821.40314     -4468.85314        26.00014
R16  20986685.62027   -772687.50727     -4096.70627        42.70027
R09  19187542.94026    -32253.10926      -326.14926        41.40026
C30  23215071.14126   -660257.07626     -3491.34526        40.00026
R10  21756803.57825    425013.11925      2201.34725        33.40025
C29  21541684.20215    -16253.20515      -451.84115        31.60015
C36  22988508.98615   -246884.92215     -3594.33515        30.40015
> 2025 05 03 07 38 05.9999999  0 13                      
G25  21183896.89326   -669884.00726     -3527.69826        41.30026
G29  20422349.10226   -342528.04726     -1833.45026        38.60026
G11  25092914.43716   -839624.35716     -4406.73816        38.40016
G18  22866937.74826    195128.24026      2080.38026        36.80026
G31  21332244.09515    -33428.81515      -239.95415        33.40015
G28  21042187.99615   -371594.68115     -2007.48115        30.10015
G12  24339872.05714   -854285.52814     -4471.57714        25.60014
R16  20987214.75427   -776780.42927     -4096.82627        42.70027
R09  19187365.76326    -32572.45526      -326.63126        41.40026
C30  23215505.24026   -663742.78726     -3491.67326        39.80026
R10  21756155.12725    427205.95625      2201.04725        33.60025
C29  21541536.10515    -16699.91015      -452.47315        32.40015
C36  22988946.08415   -250473.12815     -3593.85215        29.90015
> 2025 05 03 07 38 06.9999999  0 13                      
G25  21184336.98926   -673406.08426     -3528.12126        41.20026
G29  20422453.13026   -344355.82226     -1833.85026        38.60026
G11  25093509.52526   -844025.37726     -4407.02426        38.30026
G18  22866310.28326    197214.44326      2080.28926        36.70026
G31  21332043.83315    -33665.41315      -243.46515        33.30015
G28  21042346.58715   -373594.60415     -2005.59715        30.60015
G12  24340490.52914   -858753.92314     -4476.38914        25.20014
R16  20987747.78527   -780893.98727     -4097.33027        42.80027
R09  19187185.28826    -32874.99126      -327.26126        41.30026
C30  23215936.64226   -667228.74826     -3491.89526        39.70026
R10  21755496.48315    429454.47315      2203.23715        33.60015
C29  21541383.81015    -17146.25515      -451.97615        32.40015
C36  22989395.17314   -254058.08114     -3589.13414        29.40014
> 2025 05 03 07 38 07.9999999  0 13                      
G25  21184778.88326   -676928.34426     -3528.21226        41.10026
G29  20422562.55426   -346183.80726     -1833.95226        38.70026
G11  25094104.61326   -848426.87926     -4407.60426        38.20026
G18  22865690.01226    199299.99526      2079.36226        36.40026
G31  21331837.27625    -33902.27425      -242.85625        33.20025
G28  21042486.29015   -375593.53515     -2004.29615        31.00015
G12  24341109.30114   -863223.38914     -4475.86114        24.90014
R16  20988273.02127   -784965.50727     -4097.98827        43.10027
R09  19187009.61026    -33201.97726      -327.74726        41.30026
C30  23216372.24026   -670714.79826     -3491.90026        39.80026
R10  21754838.73915    431696.12115      2202.88215        33.50015
C29  21541246.20615    -17592.19415      -451.54515        32.20015
C36  22989863.14914   -257643.57114     -3591.56614        29.00014
> 2025 05 03 07 38 08.9999999  0 12                      
G25  21185227.37226   -680450.73826     -3528.37626        41.00026
G29  20422696.86126   -348012.02726     -1834.25426        38.80026
G11  25094727.28226   -852828.19726     -4407.14026        38.10026
G31  21331662.79725    -34139.35725      -243.11225        33.10025
G28  21042656.57215   -377593.86715     -2006.95015        31.50015
G12  24341751.75614   -867688.48914     -4468.83314        24.60014
R16  20988825.23927   -789084.37827     -4098.09727        43.20027
R09  19186851.01926    -33522.81426      -327.95826        41.10026
C30  23216818.33126   -674200.88826     -3491.97326        39.80026
R10  21754209.47415    433885.18315      2200.33815        33.40015
C29  21541097.20915    -18038.85015      -452.87915        32.10015
C36  22990330.52514   -261233.80514     -3598.46714        28.60014
> 2025 05 03 07 38 09.9999999  0 13                      
G25  21185660.27326   -683973.64326     -3529.00226        40.90026
G29  20422809.58326   -349840.96126     -1835.13426        38.90026
G11  25095320.57126   -857230.58126     -4408.75926        38.00026
G31  21331467.93215    -34377.88515      -245.09615        33.00015
G28  21042798.37415   -379593.82415     -2005.61315        31.70015
G18  22864457.56515    203470.37815      2081.49015        34.60015
G12  24342365.13114   -872149.55014     -4464.88314        24.50014
R16  20989353.17327   -793170.42027     -4098.70127        43.20027
R09  19186681.33726    -33883.41926      -329.15526        41.00026
C30  23217248.53326   -677687.56626     -3492.76026        39.70026
R10  21753568.81825    436035.30725      2200.45425        33.30025
C29  21540941.61615    -18486.17915      -453.45715        31.90015
C36  22990790.40714   -264824.73414     -3597.06714        28.30014
> 2025 05 03 07 38 11.0000000  0 13                      
G25  21186126.75026   -687496.80926     -3529.15826        40.90026
G29  20422947.78726   -351670.14526     -1835.17226        38.90026
G11  25095957.03026   -861632.49326     -4407.53626        37.80026
G31  21331307.24315    -34616.87115      -245.07715        32.90015
G28  21042966.25815   -381595.48615     -2008.37615        31.80015
G18  22863837.29515    205554.38815      2078.14515        33.50015
G12  24343010.58414   -876608.26014     -4463.39414        24.70014
R16  20989909.58827   -797249.94227     -4099.16827        43.20027
R09  19186533.23926    -34198.94426      -329.19026        40.90026
C30  23217716.80926   -681174.16626     -3492.36926        39.60026
R10  21752946.74825    438247.97525      2200.58725        33.30025
C29  21540826.19615    -18934.16415      -454.12315        31.80015
C36  22991258.38314   -268413.97314     -3594.20114        28.20014
> 2025 05 03 07 38 12.0000000  0 13                      
G25  21186552.45526   -691019.87426     -3528.87526        40.80026
G29  20423050.91626   -353499.55726     -1835.38726        38.90026
G11  25096556.91526   -866034.44426     -4407.83126        37.70026
G31  21331128.56725    -34855.75425      -244.69525        32.80025
G28  21043099.66515   -383596.79615     -2006.99615        31.90015
G18  22863182.54815    207636.79115      2075.73515        32.70015
G12  24343605.07314   -881066.65114     -4464.09114        24.80014
R16  20990439.62127   -801347.45127     -4099.12727        43.20027
R09  19186356.36226    -34519.05326      -329.73526        40.90026
C30  23218147.01126   -684660.88226     -3492.58126        39.40026
R10  21752289.90325    440485.81225      2200.51125        33.90025
C29  21540683.79515    -19382.85915      -454.85915        31.70015
C36  22991702.67514   -272002.21014     -3593.54314        28.50014
> 2025 05 03 07 38 13.0000000  0 13                      
G29  20423157.34226   -355329.37126     -1835.87826        38.80026
G11  25097157.69926   -870436.82926     -4408.46126        37.50026
G31  21330934.30125    -35095.55825      -245.37625        32.70025
G28  21043241.76715   -385600.47215     -2010.72015        31.90015
G25  21186990.75216   -694542.94216     -3529.68016        39.70016
G18  22862558.08015    209719.18515      2076.52415        32.10015
G12  24344212.75214   -885528.45214     -4469.36614        25.20014
R16  20990970.85327   -805450.30727     -4099.60827        43.10027
R09  19186182.48226    -34856.73626      -330.33426        40.80026
C30  23218576.91426   -688148.04326     -3493.19026        39.20026
C36  22992159.85915   -275591.08415     -3594.99915        34.20015
R10  21751643.85025    442665.68425      2200.52025        34.10025
C29  21540535.09815    -19834.30415      -458.63115        31.60015
> 2025 05 03 07 38 14.0000000  0 13                      
G11  25097780.96826   -874839.28326     -4408.40326        37.40026
G25  21187442.53916   -698066.56416     -3529.56516        38.10016
G31  21330776.91025    -35335.86325      -246.72425        32.70025
G28  21043406.95315   -387604.34015     -2009.88115        31.90015
G29  20423279.35826   -357159.64026     -1836.41326        38.50026
G18  22861949.20215    211803.80915      2079.82115        31.70015
G12  24344846.81314   -889989.32314     -4466.32114        25.60014
R16  20991516.47627   -809534.78527     -4100.43627        43.10027
R09  19186022.39326    -35170.69626      -331.03026        40.80026
C30  23219031.39926   -691635.53926     -3493.52626        39.00026
R10  21751014.58625    444853.21925      2200.01025        34.30025
C36  22992629.63425   -279180.91525     -3596.17225        34.20025
C29  21540398.09315    -20287.33215      -459.68315        31.50015
> 2025 05 03 07 38 15.0000000  0 13                      
G11  25098381.75226   -879241.98726     -4408.67026        37.30026
G25  21187873.34116   -701590.54416     -3530.00116        37.00016
G31  21330587.74125    -35576.56625      -246.74725        33.00025
G28  21043544.25715   -389608.20115     -2009.70115        31.90015
G18  22861320.53715    213888.72515      2079.21515        31.50015
G29  20423395.37816   -358987.74016     -1833.60916        37.00016
G12  24345462.28714   -894450.73414     -4467.52214        25.70014
R16  20992046.50927   -813631.52727     -4100.31727        43.00027
R09  19185848.51326    -35507.61526      -331.36926        40.70026
R10  21750367.33425    447040.71725      2200.11625        34.50025
C30  23219464.00026   -695122.96626     -3493.18126        38.10026
C36  22993072.72725   -282770.72325     -3595.58425        34.00025
C29  21540241.30115    -20737.82015      -455.01015        31.30015
> 2025 05 03 07 38 16.0000000  0 13                      
G11  25098984.93426   -883644.95726     -4408.96326        37.20026
G25  21188309.23926   -705115.06826     -3530.65626        36.50026
G31  21330393.17625    -35817.81925      -247.39225        33.40025
G18  22860684.67715    215972.92815      2077.98115        31.50015
G28  21043669.87015   -391611.78215     -2009.30415        31.80015
G29  20423508.39915   -360819.69615     -1839.49715        35.30015
G12  24346080.45914   -898914.56914     -4470.90714        26.10014
R16  20992577.14127   -817733.62127     -4101.02527        42.90027
R09  19185669.83726    -35819.32026      -332.03826        40.70026
R10  21749704.79325    449308.30025      2199.87625        34.50025
C30  23219905.29426   -698610.71926     -3493.72326        37.10026
C36  22993526.31325   -286360.83325     -3596.06925        33.80025
C29  21540091.10515    -21188.89315      -457.17515        31.20015
> 2025 05 03 07 38 17.0000000  0 13                      
G11  25099583.02026   -888047.98026     -4408.90926        37.10026
G25  21188749.03426   -708639.54926     -3530.32026        36.20026
G31  21330202.50825    -36059.49825      -247.75425        33.70025
G18  22860051.81515    218057.02815      2078.18415        31.70015
G28  21043805.37715   -393614.52115     -2008.17915        31.70015
G29  20423630.11515   -362655.68115     -1843.86115        34.10015
G12  24346694.73414   -903376.81414     -4467.30914        26.30014
R16  20993110.17227   -821847.18027     -4101.28627        42.70027
R09  19185497.75626    -36166.93626      -332.52026        40.60026
R10  21749051.84525    451524.78225      2200.18425        34.50025
C30  23220344.19026   -702098.63626     -3493.80726        36.50026
C36  22993984.69625   -289951.10525     -3596.16025        33.60025
C29  21539941.20915    -21640.01215      -456.95215        31.10015
> 2025 05 03 07 38 18.0000000  0 13                      
G11  25100193.99726   -892451.31426     -4409.40626        37.00026
G25  21189202.92026   -712164.41326     -3530.97226        36.10026
G31  21330031.92625    -36301.98825      -248.81425        34.10025
G18  22859429.44615    220140.92015      2077.86915        31.80015
G28  21043975.05915   -395618.49015     -2010.50215        31.50015
G29  20423757.52715   -364487.52115     -1835.68515        33.10015
G12  24347331.19314   -907838.41014     -4467.18714        26.60014
R16  20993659.69227   -825950.76427     -4101.50527        42.60027
R09  19185345.16226    -36519.86326      -333.09026        40.50026
C30  23220791.78026   -705586.82726     -3494.19026        36.00026
R10  21748411.78825    453771.80725      2199.28425        34.50025
C36  22994452.97125   -293541.58025     -3596.43925        33.60025
C29  21539809.30015    -22091.09215      -456.92415        31.10015
> 2025 05 03 07 38 19.0000000  0 13                      
G11  25100786.38726   -896854.79926     -4409.40126        37.00026
G25  21189634.32126   -715689.93826     -3530.94626        36.10026
G31  21329843.35725    -36544.87225      -248.92425        34.60025
G18  22858797.18415    222225.13315      2078.52615        31.90015
G28  21044121.95815   -397624.23715     -2012.47915        31.40015
G29  20423875.94515   -366317.65615     -1835.12615        32.40015
G12  24347943.37014   -912301.48914     -4469.66114        26.90014
R16  20994192.12327   -830062.03027     -4102.24327        42.50027
R09  19185166.78526    -36833.09626      -333.70026        40.50026
C30  23221219.88426   -709075.21726     -3494.27726        35.70026
R10  21747759.73925    455983.71325      2199.66425        34.40025
C36  22994909.85525   -297132.46325     -3596.87625        34.00025
C29  21539661.20315    -22543.93715      -459.51915        31.40015
> 2025 05 03 07 38 20.0000001  0 13                      
G11  25101414.75226   -901258.53126     -4409.71626        37.00026
G25  21190102.29726   -719215.27926     -3531.36026        36.10026
G31  21329689.56325    -36788.43325      -249.76425        34.70025
G18  22858192.50315    224308.24115      2076.69115        31.90015
G28  21044300.93415   -399630.31115     -2012.09915        31.40015
G29  20424012.35015   -368150.42715     -1839.95015        31.90015
G12  24348584.62614   -916760.61414     -4463.00814        27.10014
R16  20994751.83627   -834157.24427     -4102.40927        42.30027
R09  19185018.98826    -37150.91326      -334.08126        40.40026
C30  23221689.95926   -712563.83026     -3494.53226        35.50026
C36  22995394.91925   -300723.56225     -3597.01425        34.50025
R10  21747134.67225    458210.87225      2199.54225        34.40025
C29  21539543.98415    -22996.48615      -458.21215        31.50015
> 2025 05 03 07 38 20.9999998  0 13                      
G11  25101931.29526   -905662.63626     -4410.15126        36.90026
G25  21190446.45926   -722740.99226     -3531.75926        36.10026
G31  21329406.85925    -37032.64425      -250.39925        34.90025
G28  21044353.39715   -401637.00615     -2012.86715        31.50015
G18  22857468.50415    226391.31715      2077.19515        31.80015
G29  20424019.84515   -369980.87715     -1835.15215        31.40015
G12  24349121.25414   -921221.96214     -4468.31914        27.50014
R16  20995189.53327   -838241.75827     -4102.87927        42.20027
R09  19184750.67326    -37463.38226      -334.91226        40.30026
C36  22995756.76925   -304315.13825     -3597.62125        35.40025
C30  23222033.82125   -716052.84925     -3495.03025        35.40025
R10  21746402.87925    460368.62525      2199.11025        34.30025
C29  21539312.54415    -23449.80815      -459.51815        31.90015
> 2025 05 03 07 38 22.0000001  0 13                      
G25  21190990.88226   -726267.00526     -3532.07926        36.20026
G11  25102642.70226   -910066.65926     -4409.89726        36.80026
G31  21329316.02225    -37277.24325      -250.71025        35.20025
G28  21044605.22315   -403644.71715     -2014.13715        32.10015
G18  22856938.77115    228473.33215      2075.56415        31.80015
G29  20424244.98915   -371814.01915     -1840.40415        31.10015
G12  24349845.85214   -925684.81714     -4469.52314        28.10014
R16  20995823.29427   -842315.53527     -4103.45227        42.00027
R09  19184688.61626    -37820.89426      -335.25826        40.30026
C36  22996315.28226   -307906.60526     -3597.27526        35.90026
C30  23222572.54825   -719541.95225     -3495.00625        35.30025
R10  21745847.06325    462645.39725      2199.22925        34.20025
C29  21539260.08115    -23902.86715      -458.79115        31.90015
> 2025 05 03 07 38 22.9999998  0 13                      
G25  21191329.94826   -729793.38326     -3532.40226        36.50026
G11  25103164.34126   -914471.10526     -4410.50026        36.70026
G31  21329038.11425    -37522.58725      -251.56225        35.40025
G12  24350368.99015   -930147.43615     -4468.34215        35.30015
G18  22856213.87215    230555.07215      2075.75615        32.00015
G28  21044654.08925   -405653.06025     -2014.50225        32.20025
G29  20424267.17415   -373647.94315     -1840.15915        30.80015
R16  20996262.49027   -846409.22027     -4103.97627        41.80027
R09  19184416.40526    -38112.73326      -336.17026        40.20026
C36  22996679.83026   -311498.79926     -3598.34526        35.90026
C30  23222911.91315   -723031.32115     -3495.29215        35.20015
R10  21745120.96625    464771.87925      2199.19725        34.10025
C29  21539016.64915    -24356.42615      -459.60115        31.90015
> 2025 05 03 07 38 23.9999999  0 13                      
G25  21191790.42926   -733319.92326     -3532.48126        37.00026
G11  25103801.70026   -918875.81926     -4410.70726        36.60026
G31  21328878.62525    -37768.63425      -252.26225        35.40025
G12  24351014.74325   -934610.17125     -4468.65425        35.10025
G18  22855607.69215    232637.42215      2076.79115        32.40015
G28  21044833.36515   -407662.60915     -2016.01315        32.20015
G29  20424411.37415   -375484.38615     -1843.56415        30.60015
R16  20996823.70127   -850513.60727     -4104.02727        41.70027
R09  19184277.30126    -38475.63026      -336.38626        40.20026
C36  22997154.40126   -315090.92026     -3597.89326        35.90026
C30  23223370.59525   -726520.91725     -3495.51625        35.10025
R10  21744502.79425    466963.95325      2198.58825        34.00025
C29  21538901.22915    -24810.99415      -460.88315        31.90015
> 2025 05 03 07 38 24.9999999  0 13                      
G25  21192225.12826   -736846.80126     -3532.90826        37.40026
G11  25104403.08326   -923280.92126     -4411.15526        36.50026
G31  21328690.35525    -38015.09425      -252.53025        35.40025
G12  24351614.92825   -939072.81725     -4468.46025        34.70025
G18  22854973.63125    234719.30025      2076.52725        32.90025
G28  21044985.06015   -409672.22715     -2015.51615        32.10015
G29  20424524.39615   -377320.47415     -1841.77215        30.40015
R16  20997349.53727   -854587.42027     -4104.62427        41.60027
R09  19184105.52026    -38824.77426      -337.04626        40.20026
C36  22997616.68126   -318683.48026     -3598.58826        35.80026
C30  23223806.49325   -730010.84825     -3495.90625        35.00025
R10  21743851.34525    469172.80625      2198.50225        34.00025
C29  21538751.03315    -25266.04915      -461.10815        31.90015
> 2025 05 03 07 38 25.9999998  0 13                      
G25  21192645.13726   -740374.15126     -3533.50026        37.40026
G11  25104993.97426   -927686.22626     -4411.32226        36.50026
G31  21328479.00125    -38262.26625      -253.44625        35.40025
G18  22854334.77325    236800.71025      2075.00625        33.30025
G12  24352207.01825   -943535.65725     -4468.85225        34.40025
G28  21045129.26015   -411682.39315     -2016.35515        32.10015
G29  20424631.72215   -379156.06315     -1841.25715        30.20015
R16  20997866.67926   -858678.77526     -4105.11126        41.40026
R09  19183915.75126    -39138.73426      -337.81926        40.30026
C36  22998056.77726   -322276.27226     -3598.76826        36.80026
C30  23224230.10025   -733501.06125     -3496.21625        35.00025
R10  21743188.80425    471377.88525      2198.51225        34.10025
C29  21538595.14115    -25724.73915      -466.37115        31.80015
> 2025 05 03 07 38 26.9999999  0 13                      
G25  21193111.31426   -743901.39726     -3533.03826        37.40026
G11  25105628.93526   -932091.50926     -4411.11326        36.40026
G31  21328318.01325    -38509.80825      -253.57225        35.40025
G18  22853732.19025    238882.54125      2076.19625        33.50025
G12  24352848.57425   -947998.41825     -4468.56325        34.20025
G28  21045302.54025   -413693.22825     -2017.01425        32.10025
G29  20424775.02215   -380990.49315     -1839.69415        30.20015
R16  20998422.79426   -862756.41026     -4105.14026        41.30026
R09  19183770.05226    -39467.24826      -338.29526        40.30026
C36  22998540.34226   -325869.23126     -3598.83326        38.10026
C30  23224692.38025   -736991.20325     -3495.89625        35.00025
R10  21742571.23125    473566.90825      2198.83425        34.30025
C29  21538468.92815    -26178.37815      -456.90615        31.70015
> 2025 05 03 07 38 27.9999999  0 13                      
G18  22853099.02927    240963.79627      2075.10127        42.70027
G11  25106228.52026   -936497.12126     -4411.63626        36.40026
G31  21328132.14125    -38758.17525      -254.64225        35.40025
G25  21193564.30126   -747428.91126     -3533.50726        37.20026
G12  24353455.95325   -952461.35725     -4468.88825        33.90025
G28  21045445.24125   -415704.72225     -2017.68625        32.10025
G29  20424887.44515   -382825.82715     -1841.64815        30.20015
R16  20998956.42526   -866873.02626     -4105.89026        41.10026
R09  19183592.57526    -39785.83026      -338.67326        40.20026
C36  22998990.03126   -329462.62126     -3599.41126        38.50026
R10  21741916.48425    475793.30425      2197.86225        34.70025
C30  23225129.77725   -740481.89425     -3496.77325        35.00025
C29  21538315.13515    -26633.15515      -461.15415        31.60015
> 2025 05 03 07 38 28.9999999  0 13                      
G18  22852464.96827    243044.99327      2075.30527        42.30027
G11  25106829.30426   -940902.73426     -4411.47426        36.30026
G31  21327948.36925    -39006.96025      -254.85825        35.40025
G12  24354071.12725   -956924.16725     -4468.60525        33.60025
G28  21045586.44425   -417716.60925     -2017.94325        32.10025
G25  21194007.39416   -750956.24416     -3533.85416        36.00016
G29  20424986.67615   -384662.29715     -1842.90015        30.20015
R16  20999483.46026   -870955.24726     -4106.02826        41.10026
C36  22999440.31926   -333056.08626     -3599.31026        38.50026
R09  19183418.39626    -40120.45626      -339.10226        40.00026
R10  21741263.83625    478008.26025      2198.33325        35.00025
C30  23225562.67825   -743972.55325     -3496.45025        34.90025
C29  21538164.33915    -27088.65815      -461.67615        31.70015
> 2025 05 03 07 38 29.9999999  0 13                      
G18  22851853.09127    245125.80827      2074.70427        41.60027
G11  25107456.17026   -945308.74826     -4412.13026        36.20026
G31  21327772.99026    -39256.39426      -255.67626        35.70026
G12  24354714.18225   -961387.23125     -4469.10625        33.40025
G28  21045750.73025   -419729.14325     -2018.77625        32.30025
G25  21194456.78315   -754483.19115     -3532.42015        34.80015
G29  20425110.19015   -386495.21815     -1837.06415        30.10015
R16  21000035.97826   -875075.64826     -4106.85026        41.00026
C36  22999910.09426   -336649.91226     -3599.86826        38.60026
C30  23226017.16325   -747463.69525     -3497.24625        35.00025
R10  21740633.97225    480199.60925      2197.81625        35.20025
C29  21538039.02615    -27545.37115      -463.18315        32.50015
R09  19183260.70526    -40447.40526      -340.11026        38.80026
> 2025 05 03 07 38 30.9999999  0 13                      
G18  22851228.92326    247207.26526      2075.18126        40.80026
G31  21327585.62026    -39506.35926      -256.07626        35.90026
G11  25108062.35026   -949715.00426     -4412.21826        36.10026
G28  21045893.43125   -421742.43325     -2019.51025        32.60025
G12  24355335.05225   -965850.15225     -4468.69125        33.20025
G25  21194883.98715   -758012.03915     -3535.63915        33.80015
G29  20425230.10715   -388330.00115     -1841.55715        30.00015
R16  21000569.90826   -879193.02726     -4106.69226        41.10026
C36  23000364.87926   -340243.85526     -3599.79026        38.60026
R10  21739987.62025    482381.00525      2197.86725        35.30025
C30  23226451.86225   -750955.01525     -3497.19625        35.10025
R09  19183090.12326    -40802.66126      -340.09626        37.50026
C29  21537883.43425    -28002.43425      -463.02925        33.10025
> 2025 05 03 07 38 31.9999999  0 13                      
G18  22850593.36326    249287.60826      2074.17026        39.90026
G31  21327392.55326    -39756.76826      -256.49326        35.90026
G11  25108653.84126   -954121.44126     -4412.38726        36.00026
G28  21046018.44525   -423755.94525     -2019.48525        32.70025
G12  24355946.32925   -970313.36825     -4469.22225        33.10025
G25  21195307.89415   -761541.39715     -3535.47515        33.00015
G29  20425335.63415   -390166.72515     -1843.55615        29.80015
R16  21001099.04227   -883287.47827     -4107.66527        41.50027
C36  23000817.56526   -343838.15826     -3600.29126        38.60026
R10  21739340.66826    484564.69126      2198.13526        35.60026
C30  23226879.06625   -754446.37425     -3497.18725        35.10025
R09  19182912.34626    -41120.47926      -340.95826        36.70026
C29  21537740.13315    -28459.69715      -463.17215        33.10015
> 2025 05 03 07 38 32.9999999  0 13                      
G31  21327215.97626    -40007.82926      -257.30726        35.90026
G11  25109270.51426   -958528.02126     -4412.56826        35.80026
G12  24356569.59825   -974776.31325     -4468.72625        33.00025
G18  22849975.49116    251369.77116      2077.15416        38.30016
G25  21195747.09015   -765070.68115     -3535.16215        32.60015
G28  21046192.92415   -425767.99915     -2017.24315        32.70015
G29  20425478.33615   -392007.04715     -1848.03815        29.80015
R16  21001647.36227   -887385.71227     -4107.90427        41.70027
C36  23001288.23926   -347432.55426     -3600.30526        38.50026
R09  19182758.25326    -41466.52926      -341.50926        36.30026
R10  21738700.31126    486812.47926      2197.12626        35.60026
C30  23227332.95225   -757938.03525     -3497.67325        35.00025
C29  21537607.62525    -28917.75825      -464.32525        33.40025
> 2025 05 03 07 38 33.9999999  0 13                      
G31  21327027.40626    -40259.48126      -257.79126        35.80026
G11  25109878.19326   -962934.78426     -4412.69526        35.80026
G18  22849344.12816    253449.72516      2073.00316        37.10016
G29  20425597.65315   -393844.95115     -1842.53815        33.60015
G25  21196184.18725   -768599.81225     -3534.89725        32.70025
G12  24357180.87525   -979239.54325     -4469.21325        32.90025
G28  21046361.40715   -427783.15615     -2022.55115        32.60015
R16  21002171.09917   -891450.35417     -4107.28617        41.60017
R09  19182586.77226    -41815.67326      -341.96626        36.50026
R10  21738053.35926    488996.92626      2198.27026        35.50026
C30  23227756.55925   -761429.70525     -3497.46525        35.10025
C29  21537454.13115    -29375.06815      -462.72515        33.40015
C36  23001747.82116   -351027.59116     -3601.14616        37.40016
> 2025 05 03 07 38 35.0000000  0 13                      
G31  21326865.21826    -40511.78426      -258.49226        35.80026
G11  25110529.04226   -967341.76126     -4412.94526        35.70026
G18  22848728.65416    255529.80216      2074.27416        36.30016
G25  21196650.96425   -772129.27225     -3535.48525        33.20025
G29  20425742.45315   -395683.28015     -1844.40315        33.50015
G12  24357835.32125   -983702.85825     -4469.21725        32.80025
G28  21046528.39215   -429803.89615     -2029.39315        32.20015
R16  21002739.20627   -895591.42727     -4108.88927        41.50027
R09  19182438.37426    -42128.90626      -342.59026        36.60026
R10  21737438.48425    491170.69525      2196.78625        35.40025
C30  23228236.22725   -764920.98925     -3496.89825        35.10025
C29  21537345.90615    -29832.55515      -463.38615        33.30015
C36  23002229.28816   -354622.46616     -3600.60116        36.00016
> 2025 05 03 07 38 36.0000000  0 13                      
G31  21326686.84226    -40764.54726      -258.85526        35.80026
G11  25111120.53326   -971748.87826     -4413.04526        35.60026
G18  22848097.89126    257609.56026      2073.73326        35.70026
G25  21197092.85815   -775659.24915     -3536.09615        33.20015
G29  20425859.07225   -397521.92825     -1844.67025        33.30025
G12  24358450.79515   -988166.03315     -4468.96515        32.70015
G28  21046660.30015   -431822.36815     -2023.20015        31.10015
R09  19182269.59126    -42494.85926      -342.92826        36.90026
R10  21736796.62925    493328.44825      2197.63425        35.40025
C30  23228679.02015   -768413.41615     -3498.80615        35.00015
R16  21003265.04216   -899666.77016     -4108.36916        41.00016
C36  23002697.56415   -358221.56215     -3607.01315        34.70015
C29  21537201.70615    -30285.30515      -456.19115        32.00015
> 2025 05 03 07 38 37.0000000  0 13                      
G31  21326520.45726    -41017.85126      -259.49326        36.00026
G11  25111733.30926   -976156.04526     -4413.10826        35.50026
G18  22847483.31625    259689.08625      2073.49125        35.40025
G29  20425987.98325   -399360.84425     -1844.96725        33.20025
G25  21197535.35215   -779190.85315     -3538.33415        33.10015
G12  24359086.95515   -992628.67315     -4468.28815        32.60015
G28  21046833.28115   -433839.78215     -2022.80315        30.10015
R09  19182112.20026    -42822.57226      -343.83126        37.20026
R10  21736167.36425    495516.74525      2196.98225        35.40025
C30  23229126.01125   -771905.86825     -3498.32625        34.90025
C36  23003180.52915   -361820.46915     -3604.67615        33.40015
R16  21003819.35816   -903795.57716     -4110.10516        38.50016
C29  21537076.99215    -30737.72015      -458.11215        30.80015
> 2025 05 03 07 38 38.0000000  0 12                      
G31  21326332.48726    -41271.91326      -260.28526        36.20026
G18  22846850.15525    261768.25225      2073.13925        35.20025
G11  25112328.99625   -980563.66925     -4413.69225        35.30025
G29  20426089.31315   -401200.21315     -1845.43715        33.00015
G12  24359700.63015   -997092.17815     -4469.77915        32.40015
G28  21046976.88114   -435858.17714     -2024.72814        29.40014
R09  19181939.22026    -43164.07526      -344.26826        37.30026
R10  21735527.00826    497666.10826      2196.94826        35.50026
C30  23229553.51525   -775398.61825     -3498.68825        35.20025
R16  21004343.69516   -907863.27816     -4109.06816        36.40016
C36  23003638.31315   -365417.00815     -3601.14315        32.30015
C29  21536922.59915    -31189.17215      -456.76215        29.70015
> 2025 05 03 07 38 39.0000000  0 13                      
G31  21326142.11926    -41526.45026      -260.63926        36.30026
G18  22846209.49825    263847.20925      2072.98825        35.10025
G11  25112924.08415   -984972.22615     -4414.88415        35.10015
G29  20426201.73515   -403041.32115     -1847.84015        32.80015
G12  24360317.00315  -1001555.23615     -4468.69415        32.30015
G25  21198397.85515   -786244.66615     -3537.43815        30.60015
G28  21047122.28014   -437874.90014     -2021.74914        28.80014
R09  19181763.24226    -43490.29826      -344.95226        37.50026
C30  23229978.02126   -778891.79426     -3499.19526        35.50026
R10  21734873.46026    499886.40426      2196.89426        35.60026
R16  21004877.92615   -911983.71115     -4113.39215        35.10015
C36  23004088.30115   -369013.22815     -3601.86715        31.40015
C29  21536767.90614    -31648.41414      -468.94714        28.80014
> 2025 05 03 07 38 40.0000000  0 13                      
G31  21325953.25026    -41781.57126      -261.27526        36.40026
G18  22845579.03525    265926.02025      2072.87225        35.00025
G29  20426312.95815   -404881.25315     -1845.20615        32.70015
G12  24360933.07715  -1006016.85915     -4466.76515        32.10015
G25  21198829.55615   -789775.29115     -3536.48615        30.20015
G11  25113520.67115   -989379.47915     -4412.46015        34.30015
G28  21047274.87514   -439889.83414     -2019.90014        28.40014
R09  19181590.86126    -43836.38526      -345.16326        37.80026
R10  21734208.82026    502166.19026      2196.62226        35.60026
C30  23230413.32026   -782384.99526     -3499.02126        35.50026
R16  21005405.86015   -916068.99515     -4107.10615        34.10015
C36  23004534.99215   -372609.83015     -3602.60115        30.60015
C29  21536623.70614    -32110.48514      -469.29514        28.20014
> 2025 05 03 07 38 41.0000000  0 13                      
G29  20426460.45626   -406722.05226     -1847.14926        38.90026
G31  21325783.56726    -42037.60526      -262.40926        36.70026
G18  22844975.25325    268004.23925      2072.00325        35.10025
G25  21199291.23615   -793305.89215     -3536.50415        31.40015
G11  25114147.83715   -993785.61815     -4411.49815        33.30015
G12  24361567.73815  -1010481.18715     -4471.59515        32.00015
G28  21047435.56414   -441907.62414     -2025.13614        28.00014
R09  19181436.46826    -44180.14326      -346.28626        38.30026
R10  21733582.25426    504338.47026      2196.23526        35.70026
C30  23230867.50516   -785879.10316     -3500.42516        35.50016
R16  21005982.36115   -920317.79715     -4111.65615        33.40015
C36  23004990.67615   -376205.28215     -3600.74015        30.00015
C29  21536486.70114    -32570.33114      -464.59814        27.90014
> 2025 05 03 07 38 42.0000000  0 13                      
G29  20426575.57626   -408562.99326     -1846.85526        39.60026
G31  21325597.09626    -42293.97326      -262.38026        37.00026
G18  22844342.39126    270082.36326      2072.23026        35.80026
G11  25114754.01815   -998195.12115     -4417.02615        33.00015
G25  21199721.73815   -796836.67315     -3536.71215        31.80015
G12  24362177.51515  -1014947.36815     -4472.94915        31.80015
G28  21047586.95914   -443927.44314     -2026.67714        27.80014
R09  19181261.98926    -44514.00626      -346.61926        38.70026
R10  21732930.20526    506551.90026      2196.24826        36.10026
C30  23231309.09915   -789372.47815     -3498.79715        35.40015
R16  21006499.50315   -924346.51515     -4112.20715        33.20015
C36  23005451.75715   -379798.68715     -3598.16915        29.60015
C29  21536335.90514    -33030.65214      -466.35014        27.60014
> 2025 05 03 07 38 43.0000000  0 12                      
G29  20426680.80326   -410404.76326     -1848.04726        39.60026
G31  21325410.02626    -42551.01326      -263.23826        37.10026
G18  22843710.72826    272160.32526      2072.01626        36.00026
G11  25115368.29215  -1002604.07915     -4414.54715        32.90015
G25  21200160.03515   -800365.80115     -3534.16215        31.80015
G28  21047750.04614   -445947.61814     -2026.21514        27.70014
R09  19181091.70726    -44870.02626      -347.56026        38.90026
R10  21732282.95426    508737.87326      2196.05226        36.20026
C30  23231730.90715   -792868.27615     -3502.81715        35.20015
R16  21007038.23015   -928490.64715     -4109.83415        33.10015
C36  23005902.04515   -383396.52015     -3605.85615        29.80015
C29  21536185.70914    -33493.35914      -469.70914        27.50014
> 2025 05 03 07 38 44.0000001  0 13                      
G29  20426822.60526   -412246.17126     -1847.08826        39.50026
G31  21325253.23426    -42808.56526      -263.67326        37.40026
G18  22843109.94426    274238.10826      2071.82926        36.00026
G11  25116008.94925  -1007013.06525     -4414.85925        32.90025
G25  21200629.21015   -803900.27015     -3543.00115        31.70015
G28  21047936.21714   -447970.39114     -2029.93414        27.70014
G12  24363436.64414  -1023878.45814     -4473.33814        29.30014
R09  19180948.10626    -45209.23726      -347.08726        38.90026
C36  23006384.71115   -386994.45915     -3603.79815        32.90015
R10  21731662.68326    510939.86326      2196.39826        36.20026
C30  23232191.68816   -796361.75016     -3498.11916        35.60016
R16  21007599.44215   -932594.26915     -4112.48115        33.10015
C29  21536070.58915    -33957.21915      -470.24615        33.30015
> 2025 05 03 07 38 44.9999998  0 13                      
G29  20426842.09126   -414088.14926     -1848.12526        39.40026
G31  21324975.92626    -43066.88826      -264.57126        37.70026
G18  22842383.54726    276315.73426      2071.68226        36.00026
G11  25116525.49115  -1011423.14415     -4416.48515        32.80015
G25  21200992.55815   -807436.17715     -3542.48615        31.60015
G28  21047985.38314   -449990.24014     -2024.24814        27.60014
G12  24363968.47614  -1028346.34514     -4473.74714        27.40014
R09  19180686.08726    -45556.08926      -348.43626        38.90026
R10  21730918.89826    513162.44626      2195.54826        36.20026
C36  23006753.15616   -390592.21216     -3603.46716        36.00016
C30  23232542.74516   -799856.26416     -3500.84116        35.50016
R16  21008037.13925   -936679.54825     -4112.75225        33.10025
C29  21535831.95415    -34422.02115      -471.08315        33.10015
> 2025 05 03 07 38 46.0000001  0 13                      
G29  20427066.93626   -415930.72826     -1848.79626        39.20026
G31  21324899.17926    -43325.58926      -264.80826        37.70026
G18  22841868.50326    278392.92126      2071.04926        36.20026
G11  25117233.00115  -1015832.29715     -4414.60615        32.70015
G25  21201542.97715   -810971.28315     -3540.62115        31.50015
G28  21048232.41214   -452011.70014     -2028.18414        27.50014
G12  24364691.57514  -1032812.64814     -4471.42714        26.30014
R09  19180618.63426    -45883.80226      -348.94126        38.80026
R10  21730374.17526    515378.96326      2195.71226        36.30026
C36  23007316.76626   -394190.22326     -3604.00326        35.90026
C30  23233092.26526   -803350.92926     -3500.60326        35.50026
R16  21008684.39025   -940825.93325     -4113.10325        33.60025
C29  21535794.48015    -34882.29315      -463.87215        32.70015
> 2025 05 03 07 38 46.9999998  0 13                      
G29  20427087.32226   -417773.96926     -1849.41626        38.90026
G31  21324620.37326    -43585.02826      -265.65326        37.80026
G18  22841133.11326    280469.94126      2071.08826        36.20026
G11  25117746.54615  -1020242.90315     -4417.17315        32.50015
G25  21201885.64015   -814502.01115     -3534.38115        31.40015
G28  21048295.06914   -454035.12214     -2030.24514        27.80014
G12  24365220.10914  -1037275.52114     -4466.99814        25.50014
R09  19180354.81726    -46222.24926      -349.65926        38.80026
R10  21729637.28526    517564.17526      2195.56726        36.40026
C36  23007681.31426   -397788.58026     -3604.31826        35.90026
C30  23233437.32625   -806845.75825     -3500.69925        35.40025
R16  21009129.58225   -944950.95825     -4113.73125        33.90025
C29  21535560.04215    -35346.35215      -471.74415        32.40015
> 2025 05 03 07 38 47.9999999  0 13                      
G31  21324462.98126    -43845.24526      -266.46926        37.80026
G29  20427229.72326   -419617.44026     -1849.44726        38.70026
G18  22840533.22826    282546.64426      2070.68026        36.20026
G28  21048466.25015   -456059.05415     -2030.04815        33.10015
G11  25118373.71215  -1024652.63015     -4415.14915        32.40015
G25  21202331.13215   -818033.65915     -3537.96915        31.20015
G12  24365859.56614  -1041732.82314     -4460.37714        24.80014
R09  19180214.51426    -46579.03326      -350.29826        38.90026
R10  21729009.52026    519806.58826      2195.00826        36.50026
C36  23008169.37626   -401387.13326     -3604.45826        35.80026
C30  23233898.10715   -810341.54615     -3502.07615        35.40015
R16  21009689.89425   -949049.99225     -4114.23225        34.00025
C29  21535440.42515    -35808.97715      -467.71715        31.90015
> 2025 05 03 07 38 48.9999999  0 13                      
G31  21324275.61126    -44105.95126      -266.81426        37.80026
G29  20427344.54426   -421461.40226     -1850.07026        38.40026
G18  22839900.66616    284621.80816      2068.53016        36.10016
G28  21048620.64315   -458083.08615     -2029.94515        33.60015
G11  25118962.80415  -1029062.82815     -4416.29215        32.30015
G25  21202761.63415   -821568.92115     -3542.92915        31.10015
G12  24366468.74514  -1046193.36814     -4468.02714        24.20014
R09  19180045.43126    -46941.93026      -350.56826        39.10026
R10  21728364.36626    521981.11926      2195.03626        36.50026
C36  23008619.06426   -404986.18726     -3605.11226        35.60026
C30  23234323.81215   -813837.22515     -3501.43115        35.30015
R16  21010215.43125   -953123.04325     -4114.18025        34.00025
C29  21535292.02815    -36273.03615      -470.58615        31.50015
> 2025 05 03 07 38 49.9999999  0 12                      
G31  21324093.03826    -44367.36226      -267.62726        37.90026
G29  20427459.96426   -423305.81226     -1850.49626        38.20026
G28  21048770.53925   -460107.86825     -2031.01825        33.50025
G11  25119571.68225  -1033473.47025     -4416.72325        32.50025
G25  21203189.13815   -825102.93315     -3539.24715        31.00015
G18  22839269.30316    286696.66916      2068.84616        35.60016
G12  24367092.31314  -1050656.19614     -4469.82814        23.90014
R09  19179872.45126    -47284.19726      -351.40326        39.40026
R10  21727711.41826    524199.12726      2194.84226        36.60026
C36  23009077.14715   -408585.65515     -3605.48215        35.40015
R16  21010755.35715   -957274.81815     -4118.77115        34.00015
C29  21535144.82915    -36738.39415      -471.81715        31.10015
> 2025 05 03 07 38 50.9999999  0 13                      
G31  21323922.75526    -44629.09626      -267.81326        37.90026
G29  20427592.17226   -425150.37726     -1850.56026        38.00026
G28  21048943.22025   -462133.08025     -2031.34325        33.40025
G11  25120186.25725  -1037884.18225     -4416.66225        33.10025
G25  21203633.43015   -828637.41715     -3540.63615        31.00015
G18  22838676.01415    288772.80815      2070.85815        34.30015
G12  24367719.47914  -1055121.58214     -4472.58214        23.80014
R09  19179717.15826    -47622.60726      -351.83026        39.80026
R10  21727079.75626    526398.86526      2195.05326        36.60026
R16  21011300.97915   -961357.00115     -4113.77615        34.40015
C36  23009556.81515   -412184.95915     -3605.08515        35.10015
C29  21535018.31715    -37205.61015      -474.00915        30.80015
C30  23235199.80615   -820828.31115     -3503.36615        32.20015
> 2025 05 03 07 38 51.9999999  0 13                      
G31  21323735.08526    -44891.97626      -269.29826        37.90026
G29  20427704.89426   -426995.80126     -1851.69626        37.70026
G28  21049098.21325   -464159.22125     -2032.45025        34.10025
G11  25120790.03925  -1042295.50225     -4417.46525        33.40025
G25  21204058.23615   -832172.50115     -3541.22615        31.10015
G18  22838045.85015    290846.92215      2067.25415        32.90015
G12  24368340.94914  -1059588.81714     -4474.00014        24.10014
R09  19179541.18026    -47948.82926      -352.87226        39.80026
R10  21726427.70726    528612.29526      2194.06726        36.60026
R16  21011831.91125   -965459.09425     -4116.15425        34.90025
C36  23010007.70325   -415784.93425     -3606.09825        34.90025
C29  21534874.41715    -37671.66815      -471.27015        30.60015
C30  23235641.40015   -824324.74715     -3502.24215        31.30015
> 2025 05 03 07 38 52.9999999  0 13                      
G31  21323547.41526    -45155.60326      -269.86226        37.80026
G29  20427822.41326   -428841.89726     -1852.29526        37.50026
G28  21049239.41525   -466186.46825     -2033.66025        34.80025
G11  25121393.22125  -1046707.33625     -4417.95025        33.60025
G25  21204505.82615   -835707.36715     -3540.61615        31.40015
G18  22837406.69215    292922.48515      2070.42315        31.80015
G12  24368949.82714  -1064057.35914     -4475.05514        24.10014
R09  19179373.89626    -48320.89526      -353.78226        40.00026
R10  21725776.25826    530820.38626      2193.55626        36.60026
R16  21012364.34325   -969570.36025     -4117.09325        34.90025
C36  23010458.89125   -419385.64025     -3606.87925        34.70025
C29  21534721.52315    -38137.35215      -471.30815        30.50015
C30  23236074.00115   -827820.55215     -3501.29715        30.80015
> 2025 05 03 07 38 53.9999999  0 13                      
G31  21323382.23026    -45420.33926      -271.21026        37.80026
G29  20427955.22126   -430688.83026     -1853.26726        37.30026
G28  21049402.50225   -468214.41025     -2034.20725        34.80025
G11  25122017.08925  -1051119.78725     -4418.67525        33.80025
G25  21204966.90715   -839243.31715     -3542.40815        31.80015
G18  22836811.60415    294996.56315      2067.41615        30.90015
G12  24369589.58414  -1068525.13614     -4473.30914        24.30014
R09  19179220.10226    -48668.47326      -354.90826        40.20026
R10  21725150.59126    532989.61626      2193.27526        36.60026
R16  21012913.86225   -973673.94525     -4117.91725        34.80025
C36  23010930.16525   -422987.01325     -3607.56825        34.60025
C29  21534594.71015    -38603.51715      -472.26815        30.40015
C30  23236528.78615   -831318.63015     -3505.07715        30.40015
> 2025 05 03 07 38 54.9999999  0 13                      
G31  21323193.36026    -45686.26126      -272.35926        37.80026
G29  20428079.03526   -432536.69626     -1854.17626        37.10026
G28  21049553.59725   -470243.62225     -2035.69125        34.90025
G11  25122613.97625  -1055532.96825     -4419.38625        34.10025
G25  21205405.50315   -842781.08815     -3544.52415        32.00015
G18  22836164.65215    297075.96715      2076.21915        30.10015
G12  24370191.26814  -1072990.31114     -4469.71614        24.70014
R09  19179043.82426    -48993.16726      -355.88426        40.20026
R10  21724503.03926    535177.11426      2192.28126        36.60026
R16  21013451.39025   -977811.96125     -4118.53125        34.80025
C36  23011382.85125   -426588.98825     -3608.06425        34.40025
C29  21534454.70715    -39072.25915      -475.82315        30.30015
C30  23236975.47715   -834817.56115     -3505.14615        30.20015
> 2025 05 03 07 38 55.9999999  0 13                      
G31  21323004.79126    -45952.87026      -272.81526        37.70026
G29  20428184.86226   -434384.96926     -1854.33926        37.00026
G28  21049707.99025   -472273.80225     -2036.52525        35.00025
G11  25123213.86125  -1059946.78725     -4419.99925        34.50025
G25  21205839.00315   -846318.59515     -3543.23415        32.00015
G18  22835519.79915    299148.95215      2063.91115        29.50015
G12  24370786.35614  -1077455.64614     -4471.27514        24.80014
R09  19178875.04126    -49356.82826      -356.74326        40.10026
R10  21723858.18626    537350.88326      2192.00326        36.70026
R16  21013988.61825   -981948.44925     -4119.62125        35.10025
C36  23011840.33425   -430191.55825     -3608.67425        34.30025
C29  21534307.20915    -39542.92115      -477.43115        30.20015
C30  23237414.67315   -838317.20615     -3505.80815        30.10015
> 2025 05 03 07 38 57.0000000  0 13                      
G31  21322853.99526    -46220.80126      -274.45426        37.70026
G29  20428322.16726   -436234.53726     -1856.07726        36.80026
G28  21049884.26825   -474305.12825     -2037.76225        35.00025
G11  25123848.82125  -1064361.47225     -4420.97725        34.70025
G25  21206306.97915   -849857.89615     -3546.06015        32.00015
G18  22834922.31214    301219.52014      2063.49614        29.00014
G12  24371433.00814  -1081923.09714     -4474.36914        25.20014
R09  19178730.84126    -49693.74726      -358.09226        40.10026
R10  21723235.51726    539566.60126      2190.93026        36.90026
R16  21014540.83625   -986003.92125     -4120.61025        35.40025
C36  23012330.49515   -433794.49215     -3608.92415        34.20015
C29  21534184.29415    -40015.15915      -478.83715        30.10015
C30  23237882.64915   -841817.23515     -3506.02915        29.90015
> 2025 05 03 07 38 58.0000000  0 13                      
G31  21322662.42826    -46489.86226      -275.48926        37.60026
G29  20428437.28726   -438085.07526     -1856.88526        36.60026
G11  25124459.19925  -1068776.77025     -4421.46525        35.00025
G28  21050025.77025   -476337.71725     -2039.08125        35.00025
G25  21206745.27615   -853397.90215     -3546.21815        32.00015
G18  22834299.94314    303291.49314      2066.81114        28.60014
G12  24372040.38814  -1086392.58614     -4476.36714        25.90014
R09  19178561.75826    -50056.64426      -359.22926        40.00026
R10  21722589.76426    541744.94726      2190.65326        37.10026
R16  21015081.96126   -990161.81026     -4121.48226        35.60026
C36  23012788.57815   -437397.02815     -3608.14415        34.10015
C29  21534040.09415    -40485.37815      -475.01815        30.10015
C30  23238323.64315   -845317.58515     -3506.31615        29.80015
> 2025 05 03 07 38 59.0000000  0 13                      
G31  21322494.54426    -46760.23626      -276.94926        37.50026
G29  20428574.29226   -439936.46226     -1857.72926        36.40026
G11  25125071.67525  -1073193.07925     -4422.73125        35.20025
G28  21050200.25025   -478371.27725     -2039.96225        35.00025
G25  21207197.36315   -856938.14715     -3546.28115        32.40015
G18  22833667.98114    305364.73314      2067.95314        28.20014
G12  24372670.55114  -1090861.68214     -4474.81414        26.20014
R09  19178409.46326    -50411.09926      -360.45926        40.00026
R10  21721955.40326    543959.93926      2189.59326        37.20026
R16  21015621.88826   -994214.18626     -4122.96526        35.60026
C36  23013246.36125   -441002.14525     -3612.26925        34.00025
C29  21533912.68215    -40957.59815      -479.08415        30.20015
C30  23238762.24015   -848817.82715     -3506.05115        29.70015
> 2025 05 03 07 39 00.0000000  0 13                      
G31  21322313.47026    -47031.85826      -278.09126        37.50026
G29  20428686.11526   -441789.18426     -1859.23226        36.20026
G11  25125671.26025  -1077610.26625     -4423.46625        35.30025
G28  21050344.45025   -480406.53225     -2041.94625        35.00025
G25  21207637.45825   -860479.38825     -3547.58125        32.90025
G18  22833033.62014    307434.07414      2061.54614        28.00014
G12  24373284.82614  -1095331.36914     -4475.82314        26.20014
R09  19178237.38326    -50757.95126      -361.94426        40.00026
R10  21721307.55226    546150.48626      2188.35326        37.20026
R16  21016151.92126   -998312.45826     -4123.36726        35.60026
C36  23013703.84425   -444608.55125     -3612.84125        34.60025
C29  21533756.79015    -41431.19515      -480.07815        30.40015
C30  23239198.73715   -852318.98015     -3507.39715        29.90015
> 2025 05 03 07 39 01.0000000  0 13                      
G31  21322125.20026    -47304.84926      -279.53826        37.70026
G11  25126270.84526  -1082028.49926     -4424.61626        35.60026
G29  20428811.72826   -443642.71026     -1859.79126        36.00026
G28  21050491.94825   -482442.90725     -2042.79725        34.90025
G25  21208073.95625   -864021.40025     -3548.25725        32.90025
G18  22832408.55214    309499.83714      2058.10914        28.00014
G12  24373900.30014  -1099803.31114     -4478.93014        26.20014
R09  19178068.59926    -51125.43226      -363.00626        40.00026
R10  21720657.90126    548347.89926      2187.65226        37.30026
C36  23014157.43026   -448215.73026     -3613.37226        35.60026
R16  21016685.25226  -1002428.31126     -4125.42126        35.50026
C30  23239631.63815   -855823.47215     -3511.96815        31.20015
C29  21533608.09315    -41905.08115      -479.83915        31.00015
> 2025 05 03 07 39 02.0000000  0 13                      
G31  21321936.93026    -47579.15026      -280.81926        37.80026
G11  25126873.12826  -1086447.47726     -4425.21026        35.90026
G28  21050634.94925   -484480.50925     -2044.07725        34.90025
G18  22831794.87715    311568.95315      2064.92715        29.60015
G25  21208513.15225   -867564.89025     -3550.09025        32.90025
G29  20428922.65115   -445496.41515     -1859.65515        35.20015
G12  24374502.88314  -1104275.13514     -4477.62414        26.20014
R09  19177894.12026    -51459.29426      -364.36826        39.90026
R10  21720009.45026    550540.73726      2187.18726        37.30026
C36  23014615.81326   -451823.83926     -3614.38126        36.00026
R16  21017233.87226  -1006625.94526     -4125.85926        35.50026
C30  23240066.63715   -859327.66615     -3509.85315        32.50015
C29  21533460.29615    -42382.41915      -484.87415        31.00015
> 2025 05 03 07 39 03.0000000  0 13                      
G31  21321776.84126    -47854.50326      -281.79626        37.80026
G11  25127502.39216  -1090867.65016     -4426.68516        35.90016
G28  21050814.52425   -486519.24525     -2045.21925        34.80025
G18  22831187.19815    313635.82415      2059.83015        34.30015
G25  21208963.74025   -871108.76825     -3549.98825        33.00025
G29  20429050.66315   -447353.90715     -1865.30315        33.80015
G12  24375145.63814  -1108744.96114     -4474.74314        26.10014
R09  19177748.42126    -51848.89626      -365.47326        39.80026
R10  21719376.58826    552748.10226      2186.09626        37.20026
C36  23015090.68426   -455432.79326     -3615.23826        36.00026
R16  21017795.38316  -1010794.49716     -4127.16516        35.50016
C30  23240515.72625   -862832.76225     -3511.40925        33.40025
C29  21533335.28215    -42860.30915      -484.03015        30.90015
> 2025 05 03 07 39 04.0000000  0 12                      
G31  21321594.86726    -48131.09226      -283.05326        37.80026
G28  21050971.31625   -488559.48725     -2046.83825        34.70025
G25  21209407.73325   -874653.70325     -3551.30425        33.40025
G18  22830559.73215    315701.79715      2059.67715        34.10015
G11  25128102.87615  -1095292.36815     -4432.83215        35.30015
G29  20429174.17715   -449212.38915     -1864.82015        32.50015
G12  24375749.42014  -1113215.77914     -4477.15414        25.90014
R10  21718740.72926    554874.58226      2185.54226        37.10026
C36  23015545.46926   -459042.70126     -3616.17326        35.80026
C30  23240954.32225   -866338.81525     -3512.32025        34.10025
R09  19177574.84126    -52188.87126      -366.78926        39.20026
C29  21533206.97115    -43338.61615      -484.30815        30.80015
> 2025 05 03 07 39 05.0000001  0 12                      
G31  21321441.37326    -48408.75126      -284.05626        37.70026
G28  21051149.99225   -490600.68725     -2047.54125        34.60025
G25  21209879.90625   -878199.29625     -3551.78425        33.90025
G18  22829942.46025    317767.12525      2059.14225        33.90025
G11  25128728.24315  -1099715.94315     -4428.86415        34.10015
G29  20429329.76915   -451071.46715     -1865.23715        31.40015
G12  24376394.57314  -1117689.35814     -4480.82114        25.80014
R10  21718119.85826    557078.86026      2184.92126        36.90026
C36  23016031.73326   -462653.29426     -3616.74426        35.70026
C30  23241421.69925   -869845.64125     -3513.02025        34.40025
R09  19177442.63326    -52587.67926      -367.58126        38.20026
C29  21533087.95315    -43816.16715      -482.98115        30.70015
> 2025 05 03 07 39 05.9999998  0 13                      
G31  21321177.25626    -48687.74926      -285.53226        37.60026
G28  21051211.15025   -492643.18625     -2049.01125        34.60025
G25  21210227.66525   -881745.97625     -3553.08225        34.30025
G18  22829224.75725    319831.34725      2057.80425        34.20025
G11  25129244.48615  -1104140.42115     -4430.78715        33.30015
G29  20429347.15715   -452929.27315     -1863.03215        30.60015
G12  24376930.00314  -1122168.09214     -4487.16914        25.60014
C36  23016398.37926   -466265.01726     -3618.09526        35.80026
R10  21717394.66126    559202.28926      2183.55026        36.80026
R09  19177182.41326    -52945.22726      -369.27626        37.30026
C30  23241767.05925   -873353.38825     -3514.01525        34.40025
R16  21019346.20925                     -4130.61725        32.90025
C29  21532841.82415    -44293.03815      -482.34215        30.60015
> 2025 05 03 07 39 06.9999999  0 13                      
G31  21321020.46526    -48967.87126      -286.54726        37.50026
G28  21051393.42425   -494686.80425     -2050.03825        34.60025
G25  21210701.93725   -885293.63125     -3554.00425        34.50025
G18  22828620.67525    321894.27025      2057.15925        34.30025
G11  25129884.24315  -1108565.17615     -4430.75415        32.50015
G29  20429485.06215   -454787.72115     -1864.63115        30.00015
G12  24377573.05714  -1126645.14914     -4482.08014        25.50014
C36  23016881.94426   -469877.38626     -3618.50026        36.70026
R10  21716761.79926    561471.39726      2183.38526        36.60026
R09  19177042.71026    -53305.06826      -369.80526        36.70026
C30  23242230.83825   -876861.85525     -3514.63525        34.40025
R16  21019907.42115     -4105.15015     -4130.52115        33.10015
C29  21532722.20715    -44773.72715      -488.40715        30.40015
> 2025 05 03 07 39 07.9999998  0 13                      
G29  20429604.67915   -456647.55715     -1866.44715        32.70015
G31  21320828.89726    -49248.79226      -287.23826        37.40026
G28  21051533.42725   -496731.33225     -2050.90125        34.80025
G18  22827964.72925    323957.03025      2056.50825        34.40025
G25  21211130.04025   -888841.85325     -3554.42125        34.50025
G11  25130488.32515  -1112987.30715     -4426.73515        31.90015
G12  24378179.23814  -1131120.32514     -4480.15014        25.30014
C36  23017328.33526   -473490.49826     -3619.34426        37.70026
R16  21020420.06625     -8171.28425     -4131.87025        34.90025
R09  19176853.54126    -53622.08426      -371.20526        36.40026
R10  21716107.35226    563633.76326      2182.85826        36.40026
C30  23242656.84315   -880372.24915     -3517.21915        34.30015
C29  21532572.91015    -45254.94515      -487.34815        30.30015
> 2025 05 03 07 39 08.9999998  0 13                      
G31  21320637.63026    -49530.62626      -288.13626        37.30026
G29  20429727.89416   -458508.55116     -1867.41616        36.70016
G28  21051686.02125   -498776.86725     -2051.88025        35.10025
G18  22827334.56525    326019.60625      2056.63725        34.40025
G25  21211578.23025   -892390.24725     -3554.32125        34.50025
G11  25131092.70715  -1117408.07815     -4425.93115        31.40015
G12  24378795.61114  -1135596.55114     -4482.59314        25.20014
C36  23017785.81826   -477103.86226     -3619.27926        38.20026
R16  21020959.09326    -12317.70826     -4132.10426        36.40026
R09  19176692.25226    -54027.00426      -371.58226        36.30026
R10  21715455.60326    565844.14326      2182.54826        36.20026
C29  21532424.51315    -45740.64715      -493.73515        30.10015
C30  23243102.03515   -883889.60115     -3526.61915        33.20015
> 2025 05 03 07 39 09.9999999  0 12                      
G31  21320479.63926    -49813.81826      -289.73326        37.20026
G28  21051871.89226   -500823.41426     -2052.91626        35.50026
G29  20429877.19026   -460370.62426     -1868.47426        36.50026
G18  22826735.88025    328081.33225      2055.43725        34.40025
G25  21212045.30725   -895940.00325     -3556.29825        34.40025
G11  25131708.78015  -1121826.32915     -4422.85115        30.90015
G12  24379441.66414  -1140072.68114     -4481.94214        25.10014
C36  23018275.67926   -480718.24326     -3620.69626        38.30026
R16  21021530.79726    -16477.12726     -4133.68826        36.80026
R09  19176555.24726    -54402.12626      -373.20826        36.30026
R10  21714839.52926    568024.77526      2181.40826        35.90026
C30  23243567.61315   -887405.78815     -3521.41215        31.50015
> 2025 05 03 07 39 10.9999999  0 13                      
G31  21320292.26926    -50097.49826      -289.78926        37.00026
G28  21052022.98826   -502870.90426     -2053.82226        35.80026
G29  20429995.00926   -462233.23026     -1868.73326        36.30026
G18  22826107.81425    330142.44525      2054.94025        34.40025
G25  21212483.90325   -899489.98125     -3555.95025        34.30025
G12  24380057.43714  -1144547.59114     -4480.15914        25.00014
G11  25132321.55615  -1126243.44915     -4422.41415        29.70015
C36  23018731.06426   -484332.99526     -3620.74526        38.50026
R16  21022074.92026    -20650.30126     -4133.73626        37.10026
R09  19176387.66326    -54772.66326      -373.59026        36.50026
R10  21714202.17126    570159.64626      2181.47826        35.70026
C29  21532160.39614    -46714.75814      -491.83214        27.80014
C30  23244000.51315   -890925.25715     -3526.91815        29.90015
> 2025 05 03 07 39 11.9999999  0 13                      
G31  21320111.79426    -50382.42226      -291.40826        36.80026
G28  21052180.67926   -504919.62226     -2055.19426        35.80026
G29  20430108.63026   -464096.63326     -1869.66326        36.10026
G18  22825479.74925    332203.19925      2054.71025        34.40025
G25  21212914.10525   -903040.61425     -3556.82025        34.20025
G11  25132938.52914  -1130664.54914     -4428.95014        28.50014
G12  24380660.92014  -1149025.12814     -4484.71114        25.00014
C30  23244438.51015   -894436.56815     -3513.03915        31.60015
C36  23019190.04626   -487948.55026     -3621.76426        38.70026
R09  19176218.58026    -55135.56026      -374.69426        37.00026
R16  21022589.96426    -24668.32126     -4134.93226        37.10026
R10  21713542.32726    572411.97526      2180.90926        35.60026
C29  21532020.39214    -47200.33814      -491.39014        27.50014
> 2025 05 03 07 39 13.0000000  0 13                      
G31  21319958.90026    -50667.95126      -291.69526        36.80026
G28  21052359.95426   -506968.85226     -2055.34826        35.70026
G29  20430238.74016   -465958.79416     -1867.40216        35.80016
G18  22824890.05725    334263.25525      2053.84125        34.30025
G25  21213386.27825   -906591.75125     -3557.25025        34.10025
G11  25133562.69714  -1135093.70514     -4439.04414        28.00014
G12  24381297.07914  -1153504.91414     -4486.77014        24.90014
R09  19176076.17926    -55481.64726      -375.32526        40.10026
C36  23019674.21126   -491564.48626     -3621.93526        38.80026
C30  23244908.58516   -897948.48316     -3518.02416        36.80016
R16  21023146.97816    -28749.77516     -4133.21316        37.00016
R10  21712922.65626    574612.43926      2180.51326        35.50026
C29  21531916.96414    -47683.91114      -488.37914        27.30014
> 2025 05 03 07 39 14.0000000  0 13                      
G31  21319782.32226    -50953.93126      -292.06726        36.70026
G28  21052507.15316   -509016.82616     -2053.20616        35.60016
G29  20430362.25515   -467823.16115     -1871.33315        35.40015
G18  22824266.18915    336323.79915      2054.17415        34.30015
G25  21213823.07625   -910143.48525     -3557.89325        34.00025
G11  25134166.47914  -1139523.63714     -4436.18014        28.30014
G12  24381907.45714  -1157985.06614     -4486.19614        24.90014
R09  19175912.79227    -55873.57827      -376.13727        42.50027
C36  23020137.39126   -495180.86626     -3622.40826        38.80026
R10  21712278.40226    576783.15726      2180.52426        35.70026
C30  23245346.58126   -901460.84326     -3518.39026        36.70026
R16  21023705.49216    -32999.38416     -4134.72616        36.20016
C29  21531784.15614    -48166.70814      -488.21914        27.10014
> 2025 05 03 07 39 14.9999999  0 13                      
G11  25134757.07015  -1143950.61615     -4431.41815        33.20015
G31  21319587.45726    -51241.59926      -294.43226        36.70026
G29  20430465.38325   -469688.32425     -1871.47625        35.30025
G28  21052647.75515   -511069.50515     -2060.95015        35.40015
G18  22823625.53325    338383.13925      2053.06825        34.40025
G25  21214252.67825   -913695.77925     -3558.48925        34.00025
G12  24382512.73814  -1162465.23514     -4486.09114        24.80014
R09  19175732.61727    -56241.02227      -377.11027        42.70027
C36  23020582.88216   -498797.49216     -3622.61016        38.70016
R10  21711621.25726    578960.01426      2179.01826        35.90026
R16  21024225.93116    -37109.08516     -4137.66816        35.70016
C30  23245774.08516   -904972.92016     -3517.79616        36.30016
C29  21531625.26614    -48653.74614      -495.02214        27.00014
> 2025 05 03 07 39 16.0000000  0 13                      
G11  25135391.13126  -1148378.17926     -4433.69626        38.60026
G31  21319433.66326    -51529.33726      -293.61626        36.60026
G29  20430619.17725   -471554.11725     -1871.95225        35.20025
G18  22823021.75125    340441.84725      2052.54525        34.90025
G28  21052823.73315   -513121.39615     -2057.34015        35.30015
G25  21214726.95025   -917247.85325     -3557.80825        34.00025
G12  24383155.19314  -1166945.21114     -4485.72314        24.90014
R09  19175596.51127    -56619.20027      -377.25627        42.70027
C36  23021068.84616   -502414.80016     -3623.44016        38.50016
R10  21711004.88426    581140.64826      2180.11826        36.10026
C30  23246238.16416   -908485.33216     -3518.37016        35.80016
R16  21024789.54126    -41224.93726     -4137.56226        35.60026
C29  21531508.04714    -49144.74014      -498.76314        27.00014
> 2025 05 03 07 39 17.0000000  0 13                      
G11  25136008.10426  -1152805.76726     -4433.46126        38.60026
G31  21319250.19016    -51816.44316      -293.40316        36.50016
G29  20430742.39126   -473419.90126     -1871.64226        35.50026
G18  22822393.38625    342500.84825      2053.28325        34.90025
G28  21052972.73015   -515173.29215     -2057.75915        35.20015
G25  21215164.94725   -920800.99425     -3559.53525        34.00025
G12  24383781.45914  -1171422.61114     -4481.97114        24.90014
R09  19175428.92727    -56991.26627      -377.98127        42.70027
C36  23021526.62926   -506032.32426     -3623.43826        38.30026
R10  21710361.52926    583306.79026      2179.69326        36.10026
R16  21025318.37515    -45317.09115     -4135.96615        35.40015
C30  23246677.06016   -911998.48116     -3519.32416        35.60016
C29  21531362.04814    -49630.92514      -489.59114        28.50014
> 2025 05 03 07 39 18.0000000  0 12                      
G11  25136604.39126  -1157233.70326     -4433.96826        38.30026
G31  21319065.81816    -52105.26816      -295.29916        36.40016
G29  20430865.00626   -475286.03126     -1872.16426        35.70026
G18  22821759.02525    344559.57625      2052.72725        35.00025
G28  21053135.81725   -517225.86125     -2058.76725        35.10025
G25  21215600.84525   -924353.16825     -3557.54925        33.90025
G12  24384404.42814  -1175900.18614     -4483.52214        25.10014
R09  19175261.64327    -57362.56727      -378.44627        42.60027
R10  21709710.68026    585511.83126      2179.16126        36.00026
C30  23247117.15615   -915511.79515     -3519.20415        35.30015
R16  21025853.80415    -49443.64615     -4138.71015        35.20015
C29  21531219.64714    -50116.37714      -490.89414        29.30014
> 2025 05 03 07 39 19.0000001  0 13                      
G11  25137242.34926  -1161661.82526     -4433.32726        38.10026
G31  21318908.42726    -52394.92326      -295.18226        36.30026
G29  20431014.90316   -477152.16116     -1871.99216        35.60016
G18  22821159.44015    346614.20815      2046.71915        35.00015
G28  21053318.09115   -519281.68515     -2063.31415        35.00015
G25  21216065.82315   -927908.11215     -3562.19215        33.80015
G12  24385050.78114  -1180374.92614     -4479.18314        25.10014
R09  19175126.13627    -57745.32927      -378.93727        42.40027
R10  21709085.91326    587738.22826      2180.10926        36.20026
R16  21026433.60315    -53646.62815     -4137.39015        34.90015
C30  23247589.92825   -919024.92125     -3518.84025        35.00025
C36  23022469.77615   -513263.70315     -3621.47115        34.80015
C29  21531106.92515    -50603.01415      -493.04015        29.50015
> 2025 05 03 07 39 20.0000000  0 13                      
G11  25137823.04716  -1166090.49416     -4435.85616        37.80016
G31  21318716.56026    -52684.64026      -295.91626        36.20026
G28  21053465.58915   -521335.05415     -2058.05815        34.90015
G18  22820515.78615    348669.38615      2049.53015        34.90015
G25  21216514.91215   -931460.97915     -3557.74315        33.70015
G29  20431107.23915   -479016.40915     -1869.22515        34.70015
G12  24385655.46214  -1184850.09914     -4481.30414        25.10014
R10  21708430.86626    589904.40626      2179.56426        36.40026
R09  19174948.95926    -58127.29026      -378.87026        41.30026
R16  21026956.44115    -57768.55615     -4137.67615        34.80015
C30  23248019.23125   -922538.25725     -3519.30225        34.70025
C36  23022914.66815   -516880.84915     -3622.98915        34.00015
C29  21530937.24215    -51093.07115      -497.63015        29.70015
> 2025 05 03 07 39 21.0000000  0 12                      
G31  21318529.48926    -52974.18026      -296.04726        36.10026
G28  21053620.28215   -523388.63715     -2059.53315        34.80015
G18  22819893.11715    350727.87315      2054.29615        34.70015
G25  21216956.20715   -935013.71115     -3558.50515        33.50015
G29  20431222.95915   -480881.80115     -1871.80715        33.40015
G12  24386275.13314  -1189324.46614     -4479.80514        25.90014
R10  21707788.41126    592065.97126      2179.78926        36.50026
R09  19174778.67726    -58484.07526      -379.60126        40.10026
R16  21027495.46825    -61914.21725     -4138.32425        34.80025
C36  23023372.75115   -520498.70915     -3624.00615        33.80015
C30  23248457.52825   -926051.80125     -3519.43725        34.40025
C29  21530796.04015    -51581.26815      -493.05915        30.10015
> 2025 05 03 07 39 22.0000001  0 12                      
G31  21318375.99526    -53264.70926      -296.63626        36.00026
G28  21053807.65225   -525442.98325     -2060.59025        34.60025
G18  22819294.73115    352786.30215      2052.53515        34.50015
G29  20431375.55315   -482748.56415     -1873.31015        32.30015
G12  24386924.18414  -1193802.68614     -4486.00714        26.40014
G11  25139058.49215  -1174960.90315     -4443.25615        31.70015
R10  21707163.64326    594292.36826      2179.56926        36.90026
R09  19174644.67026    -58874.47826      -380.16826        39.20026
R16  21028062.97525    -66052.23225     -4138.83525        34.90025
C36  23023859.01425   -524116.77225     -3623.97325        33.80025
C30  23248917.11025   -929565.49625     -3519.57825        34.00025
C29  21530689.91415    -52070.23115      -495.15515        30.10015
> 2025 05 03 07 39 22.9999998  0 13                      
G31  21318118.47426    -53555.67226      -297.04326        35.90026
G28  21053873.60725   -527497.78425     -2060.88925        34.50025
G18  22818580.62525    354844.63725      2052.42225        34.40025
G29  20431404.93315   -484616.88915     -1874.96715        31.90015
G12  24387437.12914  -1198279.42514     -4481.85614        27.00014
G25  21217782.43514   -942107.76114     -3560.82014        29.30014
G11  25139589.12515  -1179398.61715     -4443.57315        29.70015
R10  21706433.64926    596440.96926      2179.84926        37.40026
R09  19174387.74826    -59248.07126      -380.40126        38.50026
R16  21028522.85715    -70255.98015     -4139.82215        34.80015
C36  23024222.96225   -527734.80625     -3623.82525        33.80025
C30  23249262.77025   -933079.06125     -3519.30725        33.70025
C29  21530453.37715    -52559.88715      -495.81315        30.10015
> 2025 05 03 07 39 23.9999999  0 13                      
G31  21317967.67826    -53847.27826      -297.79026        35.80026
G28  21054058.57925   -529552.79425     -2060.97725        34.30025
G18  22817981.64015    356902.77615      2052.17715        34.20015
G29  20431553.63015   -486484.66315     -1873.36115        32.90015
G25  21218243.21614   -945662.80414     -3560.90314        29.30014
G12  24388076.58614  -1202755.80014     -4482.05514        27.30014
G11  25140242.37214  -1183832.49714     -4437.82314        28.20014
R10  21705815.17726    598632.28026      2179.61626        37.70026
R09  19174244.14726    -59588.81026      -381.17426        38.10026
R16  21029090.96315    -74398.58115     -4135.40415        34.70015
C36  23024706.82725   -531353.11925     -3624.26225        33.70025
C30  23249735.54325   -936592.76125     -3519.57425        33.50025
C29  21530336.15815    -53048.13815      -493.35815        30.00015
> 2025 05 03 07 39 24.9999998  0 13                      
G31  21317775.81126    -54139.89126      -298.28426        36.00026
G18  22817334.08825    358960.41325      2051.46625        34.00025
G28  21054202.47925   -531608.82425     -2062.45625        34.10025
G29  20431663.95315   -488352.85615     -1874.32015        33.10015
G25  21218668.02215   -949216.45815     -3558.87615        31.70015
G12  24388686.96314  -1207228.47414     -4476.73714        27.30014
G11  25140836.86114  -1188260.00514     -4430.23714        27.40014
R10  21705156.53326    600818.28926      2179.30826        37.90026
R09  19174069.06826    -59981.46826      -380.97426        37.70026
R16  21029595.21415    -78418.09215     -4140.64615        34.50015
C36  23025157.11525   -534971.60825     -3624.43725        33.70025
C30  23250160.94915   -940105.78415     -3518.54715        33.30015
C29  21530181.16615    -53539.02815      -498.07415        29.90015
> 2025 05 03 07 39 25.9999999  0 13                      
G31  21317620.51826    -54432.84026      -299.21226        36.10026
G18  22816743.79725    361017.87025      2051.52025        33.90025
G11  25141453.53415  -1192688.43215     -4434.72815        31.30015
G28  21054388.05015   -533665.56415     -2062.94015        33.90015
G29  20431820.14515   -490221.34415     -1874.48015        33.00015
G25  21219154.58515   -952773.04915     -3563.90115        31.70015
G12  24389338.11314  -1211704.42314     -4483.42914        27.20014
R10  21704539.26026    603002.73626      2179.04126        37.90026
C36  23025643.97825   -538590.63525     -3625.08625        33.60025
R09  19173943.75516    -60420.00616      -381.14716        37.20016
R16  21030175.61215    -82627.19015     -4139.55215        34.40015
C30  23250620.23115   -943620.27615     -3521.01615        33.20015
C29  21530074.73915    -54029.23915      -495.66215        29.80015
> 2025 05 03 07 39 26.9999999  0 13                      
G31  21317434.64726    -54726.16726      -299.38026        36.20026
G11  25142051.62015  -1197117.55215     -4435.32515        33.40015
G18  22816124.72615    363073.78815      2049.28415        33.70015
G28  21054534.64915   -535722.36315     -2062.68915        33.70015
G29  20431948.75615   -492090.21115     -1874.91815        32.90015
G25  21219584.78715   -956328.37915     -3560.56115        31.80015
G12  24389940.09614  -1216184.87814     -4488.56714        27.10014
R10  21703886.91226    605216.93026      2179.04526        37.90026
R09  19173756.68416    -60686.63216      -383.36216        36.60016
C36  23026096.96525   -542209.86425     -3625.13725        33.60025
R16  21030720.03515    -86801.89815     -4144.04815        34.20015
C30  23251056.72815   -947134.79615     -3520.34115        33.10015
C29  21529943.13115    -54520.13415      -497.04815        29.70015
> 2025 05 03 07 39 27.9999999  0 13                      
G25  21220008.09416   -959883.53916     -3560.93516        37.30016
G31  21317254.77226    -55020.19126      -300.23526        36.60026
G18  22815494.86215    365130.62815      2051.43615        33.60015
G11  25142656.60125  -1201547.27625     -4435.88625        33.40025
G28  21054688.74225   -537779.96125     -2063.85925        33.50025
G29  20432059.67925   -493959.66125     -1875.60225        32.90025
G12  24390535.48414  -1220666.23114     -4487.66114        27.00014
R10  21703238.46126    607409.00426      2178.69626        38.00026
R09  19173595.09626    -61089.26026      -383.34426        36.20026
C30  23251500.12125   -950649.90125     -3521.20425        33.10025
C36  23026556.24725   -545829.61925     -3625.82525        33.60025
R16  21031207.49815    -90671.63315     -4143.50015        34.00015
C29  21529782.44215    -55008.54015      -492.97015        29.70015
> 2025 05 03 07 39 28.9999999  0 13                      
G25  21220432.00126   -963439.30926     -3561.93426        38.40026
G31  21317071.89826    -55314.84726      -300.83426        36.90026
G18  22814864.69825    367187.17625      2050.53725        33.90025
G28  21054850.33025   -539838.46325     -2064.81525        33.50025
G29  20432187.99125   -495829.66525     -1876.14225        33.20025
G11  25143276.87225  -1205977.03725     -4435.64025        33.30025
G12  24391159.95114  -1225145.30714     -4483.79814        26.90014
R10  21702597.80426    609560.65426      2178.50726        38.20026
R09  19173431.11026    -61480.42726      -384.21026        37.20026
C30  23251942.31525   -954165.23325     -3521.25225        34.20025
R16  21031751.02225    -94840.98825     -4140.50725        33.90025
C36  23027023.32325   -549449.67525     -3626.01325        33.50025
C29  21529648.43515    -55499.24015      -497.65615        29.60015
> 2025 05 03 07 39 30.0000000  0 13                      
G29  20432333.39026   -497700.17926     -1876.63226        38.70026
G28  21055035.90226   -541897.67226     -2065.42426        37.40026
G31  21316924.70026    -55610.57326      -302.12426        37.30026
G25  21220880.49026   -966994.90826     -3561.37526        38.20026
G18  22814262.11525    369243.43625      2050.25125        34.10025
G11  25143916.32925  -1210406.88525     -4435.75225        33.30025
G12  24391793.11314  -1229625.31614     -4486.33514        26.70014
R10  21701979.03326    611755.77926      2177.88026        38.40026
R09  19173294.10526    -61854.02126      -385.05726        38.00026
C30  23252408.19325   -957680.83125     -3521.53925        34.90025
R16  21032321.22725    -98993.52625     -4141.97925        34.10025
C36  23027518.28115   -553069.81115     -3625.98415        33.70015
C29  21529535.71315    -55991.50415      -498.85715        30.40015
> 2025 05 03 07 39 30.9999999  0 13                      
G29  20432441.31526   -499570.44326     -1876.05526        39.90026
G28  21055179.80226   -543957.80526     -2065.76226        38.00026
G31  21316732.83326    -55906.40226      -301.79826        37.80026
G25  21221318.78726   -970550.66026     -3561.74326        38.00026
G18  22813633.75015    371299.29315      2049.73615        34.10015
G11  25144511.41725  -1214837.16425     -4435.65825        33.30025
G12  24392407.98714  -1234102.80214     -4482.14014        26.60014
R09  19173119.62526    -62251.26326      -384.83026        38.40026
R10  21701323.08726    613926.53526      2178.32726        38.40026
C30  23252832.09926   -961196.36226     -3521.35926        35.70026
R16  21032858.45515   -103191.88715     -4144.30315        34.10015
C36  23027957.47715   -556693.18215     -3630.85015        33.60015
C29  21529371.72615    -56483.91315      -498.34515        30.70015
> 2025 05 03 07 39 32.0000000  0 13                      
G29  20432582.81726   -501441.59226     -1877.43626        39.70026
G31  21316581.43826    -56203.22626      -303.16626        38.20026
G28  21055363.27526   -546018.55326     -2067.14926        38.20026
G25  21221799.35426   -974107.17526     -3562.74026        37.80026
G18  22813030.56825    373354.42325      2048.92025        34.10025
G11  25145155.67115  -1219267.27715     -4436.87315        33.30015
G12  24393057.33814  -1238579.23814     -4481.75214        26.50014
R09  19172981.72126    -62620.27226      -386.44726        38.90026
R10  21700700.41826    616140.72826      2177.87526        38.40026
C30  23253306.37126   -964712.53626     -3522.28426        36.70026
R16  21033425.96225   -107329.90325     -4143.35925        34.00025
C29  21529262.30215    -56978.75115      -501.84415        30.70015
C36  23028449.43615   -560312.42115     -3622.96115        32.70015
> 2025 05 03 07 39 33.0000000  0 13                      
G29  20432698.53726   -503313.00826     -1877.41026        39.50026
G28  21055518.26826   -548079.35126     -2066.68426        38.80026
G31  21316401.56226    -56499.99126      -302.59826        38.70026
G25  21222250.84126   -977663.36326     -3561.88426        37.70026
G18  22812399.20525    375409.68525      2049.46325        34.10025
G11  25145754.05715  -1223697.70115     -4436.18815        33.30015
G12  24393661.71914  -1243052.48914     -4477.51814        26.40014
R09  19172817.73426    -63010.67526      -386.30426        39.30026
R10  21700063.35926    618273.31026      2178.13626        38.30026
C30  23253739.27126   -968228.82126     -3522.14726        37.30026
R16  21033960.49225   -111451.86925     -4142.74725        34.30025
C29  21529134.59015    -57472.10315      -498.41915        31.80015
C36  23028911.11715   -563934.47115     -3629.26415        31.50015
> 2025 05 03 07 39 34.0000000  0 12                      
G29  20432820.55326   -505184.99426     -1878.13426        39.60026
G28  21055670.26326   -550140.99326     -2067.92626        39.20026
G31  21316219.88826    -56798.10826      -304.65626        38.70026
G18  22811761.54625    377464.91425      2049.34725        34.30025
G11  25146365.33415  -1228128.75215     -4437.22515        33.20015
G12  24394275.99414  -1247529.49014     -4484.73614        26.30014
R09  19172651.64926    -63388.85326      -387.01526        39.30026
C30  23254179.06726   -971745.43626     -3522.58726        37.70026
R10  21699413.70826    620473.01226      2177.54926        38.30026
R16  21034499.21925   -115596.76825     -4144.79125        34.40025
C29  21528999.38415    -57965.49515      -499.22115        32.20015
C36  23029362.60415   -567556.03915     -3627.13415        30.90015
> 2025 05 03 07 39 35.0000000  0 13                      
G29  20432938.07126   -507057.76526     -1879.02526        40.00026
G28  21055831.25126   -552203.52026     -2068.83026        39.40026
G31  21316039.71326    -57096.85726      -304.92726        38.90026
G18  22811145.17325    379519.81725      2048.87625        34.80025
G11  25146976.61015  -1232559.94115     -4437.11715        33.00015
G25  21223111.84515   -984777.12915     -3563.89915        35.40015
G12  24394898.36314  -1252006.64314     -4483.08914        26.80014
R09  19172487.06326    -63776.96426      -388.33926        39.20026
C30  23254612.26726   -975262.71426     -3523.41826        38.20026
R10  21698778.14826    622596.44126      2176.84026        38.20026
R16  21035056.83315   -119841.02415     -4143.84415        34.30015
C29  21528848.58815    -58460.63815      -501.82915        33.00015
C36  23029827.88215   -571177.63415     -3627.41515        31.40015
> 2025 05 03 07 39 36.0000000  0 13                      
G29  20433076.27626   -508930.75426     -1879.01526        40.30026
G28  21056003.33226   -554266.57826     -2069.24226        39.40026
G31  21315872.72826    -57396.21226      -305.57626        39.20026
G18  22810532.09725    381574.49725      2048.64925        35.20025
G25  21223581.02115   -988335.43615     -3564.20515        34.40015
G11  25147580.99215  -1236988.22415     -4432.74515        32.20015
G12  24395544.71614  -1256483.99914     -4483.37314        27.00014
R09  19172338.96626    -64153.57626      -388.35426        39.10026
C30  23255068.85126   -978779.82126     -3522.88326        38.20026
R10  21698141.08926    624827.45026      2177.01026        38.10026
C29  21528721.47615    -58955.80015      -501.03515        33.80015
R16  21035591.06315   -123863.59015     -4145.35815        34.20015
C36  23030303.95215   -574800.66715     -3629.61415        31.70015
> 2025 05 03 07 39 37.0000000  0 13                      
G29  20433191.69626   -510805.00226     -1879.97026        40.50026
G31  21315698.24926    -57696.43926      -306.50926        39.50026
G28  21056158.92526   -556330.64526     -2070.41326        39.40026
G18  22809907.03026    383628.32826      2047.56026        35.50026
G25  21224027.41215   -991892.92115     -3562.91615        34.00015
G11  25148191.96915  -1241418.91715     -4437.74015        31.40015
G12  24396161.68914  -1260963.24214     -4486.02714        27.00014
R09  19172166.28526    -64497.37226      -389.58526        39.10026
C30  23255507.74726   -982297.54726     -3523.82426        38.20026
R10  21697495.33726    627005.03426      2176.50426        38.10026
C29  21528580.57425    -59451.60725      -501.92125        35.00025
R16  21036116.00015   -127934.34515     -4146.48815        34.10015
C36  23030770.13015   -578423.46315     -3628.46715        32.20015
> 2025 05 03 07 39 38.0000000  0 13                      
G29  20433312.51226   -512679.16726     -1880.23526        40.50026
G31  21315518.67326    -57997.20826      -306.90226        39.80026
G28  21056312.41826   -558395.26326     -2070.75626        39.50026
G18  22809279.86426    385682.22126      2048.05826        35.60026
G25  21224441.12515   -995450.27015     -3563.14215        33.60015
G11  25148790.35515  -1245850.54215     -4437.95015        31.00015
G12  24396768.16914  -1265440.96814     -4482.82714        27.20014
R09  19172008.29526    -64919.86526      -390.09026        39.10026
C30  23255951.74026   -985815.71326     -3524.19426        38.50026
R10  21696842.08926    629223.80326      2176.19226        38.00026
C29  21528438.17226    -59947.81626      -502.21926        35.80026
R16  21036662.22215   -132118.22115     -4145.81015        34.00015
C36  23031230.91115   -582046.39915     -3628.81115        32.20015
> 2025 05 03 07 39 39.0000001  0 13                      
G29  20433461.50926   -514553.94526     -1880.94826        40.60026
G31  21315368.47726    -58298.91826      -308.04426        40.20026
G28  21056499.78926   -560460.69826     -2071.70626        39.50026
G18  22808678.78026    387735.49326      2047.09726        36.00026
G25  21224906.70315   -999004.84315     -3559.04515        33.10015
G11  25149424.11615  -1250283.03315     -4438.78515        30.70015
G12  24397413.02214  -1269922.20914     -4488.85814        27.20014
C30  23256419.11626   -989334.36026     -3524.69426        38.80026
R09  19171864.39426    -65257.54826      -390.93826        39.00026
R10  21696235.30926    631354.86026      2175.81626        38.00026
C29  21528322.75226    -60444.74826      -503.10226        36.20026
R16  21037226.43125   -136237.89525     -4146.87125        34.20025
C36  23031720.17215   -585668.99915     -3628.24115        32.10015
> 2025 05 03 07 39 39.9999998  0 13                      
G29  20433490.88926   -516429.16726     -1881.30526        40.70026
G31  21315095.96626    -58601.27626      -308.54526        40.30026
G28  21056566.64226   -562526.72826     -2072.18926        39.50026
G18  22807964.37526    389788.49626      2047.00426        36.20026
G25  21225254.16215  -1002566.95815     -3571.74515        32.40015
G11  25149938.56015  -1254720.14315     -4445.27715        30.40015
G12  24397936.16014  -1274401.16414     -4483.67214        27.30014
C30  23256764.77726   -992853.17526     -3524.70526        39.10026
R09  19171614.06826    -65667.05226      -391.38626        39.00026
R10  21695495.42126    633555.32426      2175.75526        37.90026
C29  21528095.80926    -60942.03426      -503.27326        36.20026
R16  21037668.92515   -140349.16015     -4149.32315        34.20015
C36  23032087.11815   -589292.29015     -3629.44315        32.70015
> 2025 05 03 07 39 40.9999999  0 13                      
G29  20433642.58426   -518304.92126     -1881.88126        40.90026
G31  21314945.47026    -58904.41426      -309.39026        40.30026
G28  21056754.61226   -564593.68426     -2073.28126        39.40026
G18  22807362.69116    391841.33016      2046.88516        36.20016
G11  25150583.41315  -1259153.19415     -4436.88315        30.10015
G25  21225736.52815  -1006127.46815     -3565.56915        31.80015
G12  24398584.31214  -1278883.28614     -4489.56514        27.30014
C30  23257232.45326   -996372.37926     -3525.20726        39.70026
R09  19171482.45926    -66068.91626      -392.36526        39.00026
R10  21694873.35226    635767.99326      2175.31826        37.90026
C29  21527987.88426    -61440.07626      -504.23026        36.30026
R16  21038271.20815   -144672.90815     -4146.02115        34.10015
C36  23032581.47615   -592915.90115     -3629.57815        32.70015
> 2025 05 03 07 39 41.9999998  0 13                      
G29  20433754.40626   -520181.28026     -1882.57926        41.20026
G31  21314761.09826    -59208.27026      -310.13326        40.50026
G28  21056903.30926   -566661.33226     -2073.91126        39.40026
G18  22806729.82916    393893.83816      2046.42516        36.10016
G11  25151176.10315  -1263587.63715     -4441.05415        30.10015
G25  21226151.74115  -1009689.19015     -3568.24315        31.00015
G12  24399195.28914  -1283365.20714     -4487.73514        27.30014
C30  23257660.55726   -999891.96926     -3525.64326        40.00026
R09  19171302.88326    -66438.65226      -393.00826        39.30026
R10  21694203.91526    638010.44226      2174.92726        37.80026
C29  21527836.78926    -61938.56726      -504.58026        36.50026
R16  21038792.54715   -148786.42715     -4150.21715        34.00015
C36  23033021.57115   -596540.92815     -3631.59615        32.60015
> 2025 05 03 07 39 42.9999999  0 13                      
G29  20433908.79927   -522058.03227     -1882.79227        41.50027
G31  21314612.40126    -59512.77126      -310.66926        40.80026
G28  21057087.98126   -568729.71826     -2074.59826        39.30026
G18  22806118.85216    395946.10316      2046.29716        35.90016
G11  25151808.06615  -1268021.78115     -4439.83715        30.40015
G25  21226629.31015  -1013250.42815     -3566.83915        30.30015
G12  24399845.83814  -1287844.04114     -4483.13314        27.20014
C30  23258129.43226  -1003411.92626     -3525.93126        40.00026
R09  19171178.17026    -66879.48326      -393.58626        39.70026
R10  21693589.34126    640182.68526      2174.88726        37.80026
C29  21527723.46726    -62437.65326      -505.17426        36.90026
R16  21039353.75825   -152889.28425     -4147.93325        33.90025
C36  23033503.93715   -600166.79515     -3632.07815        31.70015
> 2025 05 03 07 39 43.9999999  0 13                      
G29  20434025.71827   -523935.46527     -1883.63427        41.70027
G31  21314432.22626    -59818.14926      -311.67926        41.10026
G28  21057244.17326   -570798.77826     -2075.25826        39.30026
G18  22805494.98416    397998.59516      2046.74016        35.70016
G11  25152412.44715  -1272456.80015     -4441.31515        30.40015
G25  21227058.01415  -1016809.09815     -3563.24515        29.80015
G12  24400468.80714  -1292327.85714     -4492.16514        27.10014
R09  19171009.98626    -67246.20026      -394.29226        40.10026
C30  23258567.72926  -1006932.20826     -3526.25026        40.00026
C29  21527581.66526    -62937.17426      -505.54926        37.30026
R10  21692943.28826    642362.55626      2174.46026        37.70026
R16  21039883.19225   -156984.50025     -4149.07925        33.80025
C36  23033965.91715   -603793.59915     -3633.07815        30.50015
> 2025 05 03 07 39 44.9999999  0 13                      
G29  20434145.63527   -525813.45627     -1884.13227        41.90027
G31  21314255.04826    -60124.22926      -312.29526        41.30026
G28  21057401.26426   -572868.75026     -2076.28926        39.20026
G18  22804870.81616    400046.94116      2040.40916        35.60016
G11  25153017.12915  -1276890.84915     -4439.42515        30.80015
G25  21227508.30214  -1020370.07814     -3567.99514        29.40014
G12  24401095.07314  -1296808.88514     -4485.49514        27.00014
R09  19170846.89926    -67641.18726      -395.42026        40.40026
C30  23259007.52426  -1010453.06726     -3526.95526        40.00026
C29  21527442.86126    -63437.44426      -506.45426        37.80026
R10  21692298.73426    644534.03826      2173.98326        37.60026
R16  21040428.51415   -161163.79115     -4151.12415        33.80015
C36  23034429.39615   -607418.88515     -3630.33515        30.30015
> 2025 05 03 07 39 45.9999999  0 12                      
G29  20434264.65327   -527692.06427     -1884.77827        42.10027
G31  21314080.86926    -60431.17026      -313.23426        41.30026
G28  21057554.75826   -574939.46126     -2076.94126        39.10026
G11  25153627.80615  -1281325.95515     -4441.49415        31.30015
G25  21227966.38514  -1023932.09314     -3568.39314        29.20014
G18  22804245.74915    402092.81615      2038.77415        34.90015
G12  24401713.84514  -1301288.47414     -4484.72914        26.80014
R09  19170685.01126    -68043.05126      -396.03326        40.70026
C30  23259449.41826  -1013974.32226     -3527.26026        40.00026
C29  21527300.76026    -63938.37426      -507.06926        38.40026
R10  21691658.37726    646684.92526      2173.71326        37.60026
C36  23034887.17915   -611045.40515     -3632.94415        32.70015
> 2025 05 03 07 39 47.0000000  0 13                      
G29  20434414.54927   -529570.97127     -1884.91827        42.40027
G31  21313927.37526    -60738.65026      -313.61126        41.30026
G28  21057740.33026   -577010.70226     -2077.36926        38.90026
G11  25154264.26515  -1285761.72915     -4441.96815        31.40015
G25  21228437.95814  -1027493.13914     -3566.42314        29.20014
G12  24402369.19114  -1305767.09814     -4484.00114        26.60014
G18  22803647.36315    404139.55215      2041.30115        33.30015
R09  19170547.40626    -68414.35226      -396.30726        40.80026
C30  23259917.39426  -1017495.79626     -3527.39226        40.10026
C29  21527190.13626    -64439.54426      -507.10026        38.90026
C36  23035375.54126   -614672.03126     -3632.48626        37.70026
R10  21691052.79726    648809.11726      2173.67926        37.50026
R16  21041519.75915   -169365.68315     -4150.79815        32.60015
> 2025 05 03 07 39 47.9999999  0 13                      
G29  20434522.77427   -531450.64327     -1885.97127        42.50027
G31  21313744.20226    -61047.18126      -314.97526        41.30026
G25  21228872.05816  -1031055.94016     -3569.59416        35.70016
G11  25154860.85215  -1290196.91715     -4440.81015        31.70015
G28  21057886.02916   -579083.04916     -2079.56616        37.90016
G12  24402978.66914  -1310244.95014     -4483.38014        26.40014
G18  22803006.40715    406187.13815      2042.09115        31.50015
R09  19170372.32726    -68807.01026      -397.84026        40.80026
C30  23260344.59926  -1021017.81626     -3528.15426        40.10026
C29  21527035.74326    -64941.67926      -508.48226        39.10026
C36  23035823.13126   -618299.42226     -3633.63526        39.00026
R10  21690397.45026    650976.05926      2172.89526        37.50026
R16  21042056.08815   -173559.45815     -4153.16315        31.90015
> 2025 05 03 07 39 49.0000000  0 13                      
G29  20434675.06927   -533330.84627     -1886.31227        42.60027
G31  21313594.90526    -61356.34526      -315.32526        41.30026
G25  21229347.52926  -1034619.46926     -3569.73626        36.20026
G28  21058075.19816   -581157.49316     -2081.08616        36.70016
G11  25155493.11415  -1294633.16015     -4442.61315        32.00015
G18  22802421.51215    408235.49215      2042.89115        30.20015
G12  24403625.32214  -1314722.43814     -4483.14814        26.20014
R09  19170235.62226    -69183.66026      -397.95726        40.80026
C30  23260816.17226  -1024540.13826     -3528.26326        40.10026
C29  21526926.01926    -65444.18126      -508.47726        39.40026
C36  23036310.89426   -621927.04926     -3633.53526        39.00026
R10  21689780.17826    653162.79426      2172.84026        37.40026
R16  21042644.88015   -177811.35915     -4152.58815        32.00015
> 2025 05 03 07 39 50.0000000  0 13                      
G29  20434794.98627   -535211.70527     -1887.05027        42.60027
G31  21313413.23126    -61666.26726      -316.16526        41.40026
G25  21229783.72726  -1038183.48626     -3570.12126        36.90026
G11  25156100.79415  -1299070.37315     -4443.55715        32.10015
G28  21058232.28916   -583232.61416     -2081.32016        35.60016
G18  22801784.45314    410283.75514      2042.35414        29.20014
G12  24404227.90514  -1319200.85414     -4484.73814        25.90014
R09  19170068.63826    -69558.78126      -399.30126        40.80026
C30  23261250.87126  -1028063.04226     -3529.00126        40.00026
C29  21526786.01626    -65947.40026      -509.38626        39.70026
C36  23036769.57626   -625555.13226     -3634.11726        39.00026
R10  21689125.13126    655388.42826      2172.33526        37.40026
R16  21043175.51315   -181914.21815     -4152.28215        33.20015
> 2025 05 03 07 39 51.0000000  0 13                      
G29  20434914.00327   -537093.00227     -1887.37727        42.80027
G31  21313232.45626    -61976.97326      -316.96126        41.40026
G25  21230220.22426  -1041747.78726     -3570.30326        37.40026
G11  25156703.97625  -1303507.56125     -4443.03625        32.30025
G28  21058390.28015   -585308.56615     -2082.23115        34.70015
G18  22801160.88514    412332.30614      2042.82914        28.60014
G12  24404842.77914  -1323681.25114     -4487.24714        25.60014
R09  19169909.44826    -69974.39826      -399.34626        40.70026
C29  21526643.31526    -66451.20026      -509.90226        39.70026
C36  23037230.35726   -629183.77726     -3634.73326        38.90026
C30  23261692.46526  -1031586.20826     -3529.10526        39.90026
R10  21688479.07826    657568.29926      2172.28726        37.40026
R16  21043715.73925   -186065.22625     -4153.43625        34.60025
> 2025 05 03 07 39 52.0000000  0 13                      
G29  20435036.91827   -538974.90927     -1888.07427        42.80027
G31  21313057.97727    -62288.32427      -317.53727        41.50027
G25  21230668.11426  -1045312.57926     -3570.89826        37.70026
G28  21058548.87015   -587384.25515     -2081.41815        34.10015
G11  25157312.85515  -1307944.91215     -4443.29215        32.30015
G18  22800542.11314    414380.29314      2041.84114        28.40014
G12  24405447.76014  -1328158.56114     -4481.62614        25.40014
R09  19169749.65826    -70387.72326      -400.64726        40.70026
C29  21526502.11326    -66955.46226      -510.30226        39.60026
C36  23037688.14026   -632812.66026     -3634.80826        38.90026
C30  23262134.35926  -1035109.82326     -3529.64626        39.60026
R10  21687829.12826    659769.52626      2171.60426        37.40026
R16  21044249.36925   -190182.60625     -4154.19125        34.90025
> 2025 05 03 07 39 53.0000001  0 12                      
G29  20435189.81227   -540857.22127     -1888.37627        42.90027
G31  21312906.28227    -62600.42227      -318.33327        41.50027
G25  21231142.98626  -1048877.80126     -3571.29826        37.70026
G28  21058744.63425   -589460.03425     -2081.68725        33.70025
G18  22799944.02714    416427.31814      2040.68014        28.30014
G12  24406092.01414  -1332630.54914     -4475.18714        25.10014
R09  19169616.55126    -70782.71026      -400.91126        40.60026
C29  21526393.88826    -67460.28026      -510.90526        39.60026
C36  23038173.80426   -636441.92026     -3635.25726        38.90026
R10  21687215.75326    661934.90526      2171.66726        37.30026
R16  21044824.97125   -194364.19025     -4154.54325        35.20025
C30  23262591.24316  -1038633.52516     -3529.55316        39.00016
> 2025 05 03 07 39 54.0000000  0 13                      
G29  20435300.43627   -542740.04127     -1888.99227        43.10027
G31  21312718.31227    -62913.25827      -319.12327        41.70027
G25  21231573.18826  -1052443.49026     -3571.83726        37.70026
G28  21058880.14125   -591536.94925     -2083.39825        33.50025
G18  22799306.06914    418473.00214      2039.09314        28.20014
G12  24406693.39814  -1337097.80214     -4470.80114        24.80014
G11  25158540.80515  -1316820.00615     -4443.24615        29.60015
R09  19169443.87026    -71188.35726      -401.73026        40.60026
C29  21526241.89326    -67965.61826      -511.46226        39.60026
C36  23038623.19326   -640071.58226     -3635.72326        38.80026
R10  21686563.10526    664088.11826      2171.28126        37.20026
R16  21045345.71025   -198473.88825     -4154.96225        35.40025
C30  23263027.74116  -1042156.50316     -3528.47816        37.60016
> 2025 05 03 07 39 55.0000001  0 13                      
G29  20435450.63227   -544623.67427     -1889.88327        43.10027
G31  21312571.71427    -63227.03427      -320.09127        41.90027
G25  21232046.86026  -1056009.70426     -3572.32026        37.70026
G18  22798707.68315    420520.36715      2042.35915        31.70015
G28  21059064.81325   -593615.09725     -2083.85925        33.40025
G12  24407340.05014  -1341562.34414     -4469.02814        24.40014
G11  25159167.97014  -1321257.94214     -4443.79714        28.00014
R09  19169306.86526    -71562.71426      -402.92626        40.50026
C29  21526129.17126    -68471.87126      -512.50226        39.60026
C36  23039112.15526   -643701.92626     -3636.47526        38.80026
R10  21685938.33726    666314.51326      2170.45126        37.20026
R16  21045911.11925   -202600.44125     -4156.04225        35.40025
C30  23263501.71316  -1045681.47316     -3531.75516        36.30016
> 2025 05 03 07 39 55.9999998  0 13                      
G29  20435479.41227   -546507.42027     -1889.66327        43.10027
G31  21312302.80027    -63541.23327      -320.27427        42.00027
G25  21232397.61726  -1059576.35326     -3572.72626        37.70026
G11  25159689.01014  -1325697.90314     -4446.83214        27.00014
G18  22797985.78316    422567.21516      2040.72516        35.70016
G28  21059140.06125   -595692.87825     -2083.70925        33.30025
G12  24407861.08914  -1346027.80214     -4471.77514        24.10014
R09  19169052.34126    -71950.82526      -402.74826        40.50026
C29  21525902.52826    -68978.14726      -512.09726        39.60026
C36  23039484.79726   -647332.87026     -3637.05126        38.80026
R10  21685199.94826    668507.35126      2171.11126        37.00026
R16  21046374.89826   -206824.06126     -4155.60926        35.50026
C30  23263854.26916  -1049206.62916     -3531.05616        35.60016
> 2025 05 03 07 39 56.9999998  0 12                      
G29  20435598.72927   -548392.13727     -1891.06427        43.00027
G31  21312124.42327    -63856.61227      -321.83127        42.00027
G25  21232848.50526  -1063143.29326     -3572.94726        37.60026
G11  25160318.57415  -1330137.82215     -4445.75815        34.40015
G18  22797360.11616    424611.58116      2037.26016        35.50016
G28  21059303.74725   -597772.23425     -2086.00425        33.60025
G12  24408468.16914  -1350500.81514     -4482.65014        23.90014
R09  19168898.24826    -72393.94826      -404.46326        40.40026
R10  21684563.18926    670639.17126      2169.89026        37.00026
R16  21046916.62326   -210984.24426     -4157.34726        35.80026
C30  23264293.46515  -1052730.51015     -3529.05115        35.10015
C29  21525763.72416    -69490.63016      -521.39716        38.80016
> 2025 05 03 07 39 57.9999999  0 13                      
G29  20435750.72427   -550277.43527     -1891.45227        42.90027
G31  21311980.52327    -64172.67327      -322.26627        41.90027
G25  21233320.07826  -1066710.49726     -3573.19626        37.50026
G18  22796770.42415    426657.88215      2041.40315        35.20015
G11  25160964.02725  -1334577.79425     -4445.85825        34.40025
G28  21059495.91425   -599852.18625     -2086.11225        33.70025
G12  24409107.32714  -1354982.53414     -4491.93314        23.70014
R09  19168760.34326    -72762.95726      -404.82826        40.40026
R10  21683947.71526    672815.22826      2169.82126        36.90026
R16  21047483.53026   -215119.20126     -4157.29926        36.00026
C30  23264770.13515  -1056253.55215     -3528.43015        34.60015
C29  21525654.59916    -69998.97516      -512.08616        37.30016
C36  23040415.95216   -654591.63716     -3634.14916        36.40016
> 2025 05 03 07 39 58.9999999  0 13                      
G29  20435870.64127   -552163.21127     -1891.87527        42.80027
G31  21311805.14427    -64489.60827      -323.23527        41.80027
G25  21233755.07726  -1070278.62526     -3574.45026        37.40026
G18  22796139.06115    428703.12915      2038.85515        35.00015
G28  21059650.00825   -601932.83325     -2086.85625        33.90025
G11  25161575.00425  -1339018.27125     -4446.58825        34.20025
G12  24409730.89514  -1359469.20714     -4495.00914        23.70014
R09  19168597.55626    -73159.47326      -405.75726        40.60026
R16  21048019.85926   -219251.10526     -4158.41926        36.50026
R10  21683299.56426    675006.53826      2169.22926        36.80026
C29  21525513.69716    -70506.69016      -513.20916        35.90016
C36  23040880.33015   -658223.04815     -3637.21815        34.40015
C30  23265209.33115  -1059780.25715     -3534.34415        33.20015
> 2025 05 03 07 39 59.9999999  0 13                      
G29  20436019.03827   -554049.86327     -1893.00727        42.70027
G31  21311651.65127    -64806.94727      -323.45927        41.70027
G25  21234221.55426  -1073846.96326     -3574.36026        37.40026
G18  22795529.88325    430747.96925      2038.71825        34.90025
G28  21059829.58325   -604013.55025     -2087.42025        34.10025
G11  25162200.67115  -1343458.75715     -4446.40615        33.90015
G12  24410365.85514  -1363959.02914     -4497.31114        23.80014
R09  19168449.45926    -73537.61326      -406.80826        40.60026
R16  21048590.96426   -223470.10226     -4158.43026        36.90026
R10  21682673.59726    677178.05626      2169.40626        36.70026
C29  21525396.77815    -71015.59115      -515.35815        35.00015
C36  23041357.60015   -661857.40115     -3641.68615        33.00015
C30  23265659.31915  -1063305.16315     -3529.86915        31.80015
> 2025 05 03 07 40 00.9999998  0 13                      
G29  20436143.75227   -555936.82227     -1892.95727        42.60027
G31  21311474.17327    -65125.65427      -325.23627        41.60027
G25  21234658.95226  -1077416.34726     -3574.99726        37.40026
G18  22794902.41725    432792.25925      2038.16825        35.30025
G28  21059984.27625   -606095.91925     -2088.78725        34.10025
G11  25162810.44915  -1347900.77615     -4448.62715        33.50015
G12  24410979.23114  -1368447.82114     -4494.11914        24.10014
R09  19168292.36726    -73963.16326      -407.00726        40.50026
R16  21049126.69326   -227598.94726     -4159.40526        37.10026
R10  21682025.44626    679369.36926      2168.22426        36.70026
C29  21525258.27425    -71525.38125      -516.02625        34.50025
C30  23266102.71215  -1066831.73515     -3533.19315        31.10015
C36  23041830.97215   -665490.02515     -3637.54915        32.10015
> 2025 05 03 07 40 01.9999999  0 13                      
G29  20436263.36927   -557824.46227     -1893.84227        42.60027
G31  21311292.79927    -65444.91727      -325.40427        41.60027
G25  21235078.66126  -1080985.74826     -3575.52026        37.40026
G18  22794268.65625    434836.16125      2037.84425        35.30025
G28  21060147.06425   -608179.18025     -2089.57025        34.10025
G11  25163427.42215  -1352343.12415     -4448.37115        33.10015
G12  24411597.10314  -1372932.56414     -4488.57914        24.10014
R09  19168131.97826    -74372.66726      -408.15926        40.50026
R16  21049649.53126   -231658.23926     -4160.06726        37.50026
R10  21681388.38726    681501.18826      2168.21426        36.60026
C29  21525114.97325    -72035.81925      -516.57225        34.90025
C30  23266546.40515  -1070360.25415     -3535.30015        30.90015
C36  23042298.34915   -669123.20315     -3639.26315        31.50015
> 2025 05 03 07 40 02.9999998  0 13                      
G29  20436386.28427   -559712.61927     -1894.27727        42.70027
G31  21311116.52127    -65764.81527      -326.07827        41.50027
G25  21235528.05026  -1084556.04326     -3576.60226        37.30026
G18  22793648.98525    436879.72125      2037.52425        35.20025
G28  21060299.95825   -610262.87625     -2089.77525        34.10025
G11  25164037.20015  -1356788.64215     -4452.96315        32.70015
G12  24412225.16814  -1377417.53614     -4490.94614        24.20014
R09  19167969.49126    -74772.23926      -408.86726        40.80026
R16  21050193.65426   -235830.65026     -4160.75526        37.50026
C29  21524975.86926    -72546.70726      -516.92226        35.90026
R10  21680747.73126    683652.83926      2168.40226        36.50026
C30  23266973.90915  -1073888.40615     -3533.77515        31.70015
C36  23042757.63115   -672756.92515     -3639.80015        31.20015
> 2025 05 03 07 40 04.0000000  0 13                      
G29  20436539.47827   -561601.50527     -1895.11327        42.90027
G31  21310974.12027    -66085.77927      -327.36127        41.50027
G18  22793051.19926    438922.65226      2036.75226        35.60026
G28  21060493.02425   -612347.70325     -2091.25425        34.20025
G25  21235993.62816  -1088126.45916     -3577.08816        35.70016
G11  25164687.44915  -1361232.52715     -4448.92915        32.30015
G12  24412860.42814  -1381902.68314     -4491.09514        24.60014
R09  19167835.48426    -75161.11326      -409.72126        41.00026
R16  21050776.15126   -240048.92026     -4161.22826        37.60026
C29  21524869.14326    -73058.43826      -517.96326        36.50026
R10  21680111.87126    685937.96426      2167.46226        36.40026
C30  23267445.78215  -1077416.99515     -3534.61615        32.30015
C36  23043251.98915   -676391.77615     -3641.22315        31.40015
> 2025 05 03 07 40 05.0000000  0 13                      
G29  20436662.69327   -563490.67827     -1895.17827        43.10027
G31  21310800.24026    -66407.02726      -327.25326        41.40026
G18  22792424.33326    440965.26526      2036.58826        35.90026
G28  21060645.61825   -614432.97425     -2091.35525        34.40025
G11  25165291.23115  -1365674.58215     -4446.99915        32.00015
G25  21236443.31615  -1091698.62815     -3578.65515        34.20015
G12  24413461.21214  -1386388.60214     -4492.16414        24.60014
R09  19167679.59226    -75595.06726      -410.02126        41.00026
R16  21051318.17626   -244209.86726     -4161.74726        37.90026
C29  21524730.63926    -73570.43426      -517.93726        37.10026
R10  21679482.60626    688027.83326      2167.67826        36.30026
C30  23267888.57615  -1080945.38215     -3534.09215        32.50015
C36  23043714.56815   -680030.70215     -3646.77015        31.50015
> 2025 05 03 07 40 06.0000000  0 13                      
G29  20436782.91027   -565380.49327     -1895.99827        43.20027
G31  21310619.16526    -66729.14126      -328.40926        41.40026
G18  22791800.76526    443007.53426      2036.23326        35.90026
G28  21060809.00525   -616519.29725     -2092.71125        34.60025
G25  21236892.10615  -1095270.19115     -3577.12015        33.70015
G11  25165883.32215  -1370118.61515     -4450.88215        31.70015
G12  24414089.87714  -1390874.57114     -4491.85414        24.60014
R09  19167521.60126    -76017.56126      -410.81826        41.00026
R16  21051886.58226   -248512.97726     -4161.92626        37.90026
C29  21524587.03826    -74083.12626      -518.85126        37.40026
R10  21678840.45126    690188.63826      2167.43526        36.20026
C30  23268343.66115  -1084474.56315     -3535.38515        33.10015
C36  23044172.05215   -683668.02715     -3642.33215        31.50015
> 2025 05 03 07 40 07.0000000  0 13                      
G29  20436921.71427   -567270.45727     -1895.95727        43.20027
G31  21310461.77427    -67051.71127      -328.71627        41.60027
G18  22791190.68726    445049.53926      2035.95226        35.90026
G28  21060981.68625   -618605.82125     -2092.54025        34.90025
G25  21237350.18825  -1098841.52425     -3577.13425        33.90025
G11  25166499.39515  -1374559.61415     -4445.39715        31.60015
G12  24414720.94014  -1395359.75214     -4490.70214        24.60014
R09  19167375.60226    -76405.63426      -411.38026        41.00026
R16  21052444.19626   -252659.36326     -4162.47726        37.80026
C29  21524462.02526    -74596.05526      -518.91026        37.40026
R10  21678209.98826    692383.03726      2167.16026        36.20026
C30  23268805.94125  -1088003.83025     -3535.17225        35.00025
C36  23044651.72015   -687303.30115     -3640.11115        31.40015
> 2025 05 03 07 40 08.0000000  0 13                      
G29  20437044.92827   -569160.79927     -1896.37327        43.10027
G31  21310288.79427    -67375.13427      -329.69527        42.00027
G18  22790570.11726    447091.67926      2036.36226        35.90026
G28  21061142.67425   -620692.99025     -2093.33625        35.20025
G25  21237802.27525  -1102413.29725     -3577.83525        34.80025
G11  25167104.37615  -1379002.22715     -4449.26215        31.40015
G12  24415352.00414  -1399842.43214     -4487.27014        24.60014
R09  19167210.71626    -76791.45326      -411.74826        40.90026
C29  21524328.31826    -75109.28826      -519.17726        37.40026
R16  21052980.22526   -256790.50126     -4162.34726        37.80026
R10  21677572.02926    694518.67026      2166.86426        36.30026
C30  23269247.23526  -1091533.32526     -3535.39726        35.60026
C36  23045118.49615   -690938.88915     -3641.53315        31.40015
> 2025 05 03 07 40 09.0000000  0 13                      
G29  20437170.54127   -571051.48127     -1896.71527        43.10027
G31  21310109.21827    -67698.80627      -329.65927        42.10027
G25  21238253.76326  -1105985.10026     -3577.67826        35.80026
G18  22789947.14826    449133.71526      2036.12026        36.00026
G28  21061302.76326   -622780.70626     -2093.85026        35.70026
G11  25167717.75215  -1383443.67315     -4446.72215        31.30015
G12  24415952.48814  -1404325.00714     -4488.38314        24.60014
R09  19167046.73026    -77181.09126      -412.36426        40.90026
C29  21524191.91226    -75622.97526      -519.72326        38.20026
R16  21053506.36126   -260867.37226     -4163.19726        37.60026
R10  21676927.17626    696692.43926      2167.08526        36.50026
C30  23269683.43326  -1095063.01826     -3535.60026        35.80026
C36  23045588.57115   -694577.40215     -3645.78315        31.30015
> 2025 05 03 07 40 10.0000001  0 13                      
G29  20437324.33527   -572942.41727     -1896.92427        43.10027
G31  21309962.32027    -68023.05627      -330.40227        42.30027
G18  22789350.26126    451175.52726      2035.83526        36.30026
G25  21238732.23226  -1109556.94326     -3577.72426        36.40026
G28  21061499.12826   -624868.83226     -2094.19426        35.90026
G11  25168361.10615  -1387885.93815     -4448.53415        31.10015
G12  24416591.04614  -1408809.61114     -4491.47914        24.60014
R09  19166913.92226    -77578.37126      -412.67626        41.00026
C29  21524083.68726    -76136.87626      -519.81826        39.10026
R16  21054075.66726   -265013.79526     -4162.95826        37.50026
R10  21676309.60326    698880.70026      2167.15826        36.80026
C30  23270151.11026  -1098592.86226     -3535.72726        36.40026
C36  23046068.53915   -698215.02115     -3642.97915        31.20015
> 2025 05 03 07 40 10.9999998  0 13                      
G29  20437356.41327   -574833.59927     -1897.16727        43.10027
G31  21309698.50327    -68347.66127      -330.64527        42.50027
G18  22788634.95626    453217.13626      2035.64326        36.90026
G25  21239088.68526  -1113129.23426     -3578.37426        36.40026
G28  21061567.18026   -626957.35626     -2094.58426        36.00026
G11  25168872.85215  -1392329.75515     -4450.45215        31.10015
G12  24417124.07714  -1413298.30714     -4496.60114        24.50014
R09  19166670.19026    -78024.55026      -413.17826        41.00026
C29  21523855.54526    -76651.00226      -520.04826        39.60026
R16  21054523.85626   -269156.39726     -4163.77326        37.50026
R10  21675579.30926    701030.06226      2166.99626        36.90026
C30  23270494.37226  -1102122.55726     -3535.42726        36.60026
C36  23046434.58515   -701852.24915     -3642.84015        31.30015
> 2025 05 03 07 40 11.9999999  0 13                      
G29  20437507.80827   -576725.23827     -1897.73027        43.10027
G31  21309553.10327    -68673.04727      -331.64027        42.50027
G18  22788033.57326    455258.49226      2035.36526        37.10026
G25  21239561.15826  -1116701.69026     -3578.40026        36.60026
G28  21061763.24526   -629046.77226     -2095.72526        36.00026
G11  25169521.30315  -1396773.99915     -4450.31815        31.30015
G12  24417782.42114  -1417785.98014     -4493.02214        24.50014
R09  19166533.78526    -78402.72826      -413.90926        41.00026
C29  21523747.91926    -77165.73126      -520.84126        39.60026
R16  21055088.36626   -273277.59926     -4164.04526        37.70026
R10  21674965.33426    703197.72926      2166.71926        37.20026
C30  23270956.35226  -1105652.65526     -3536.10726        36.60026
C36  23046925.94515   -705490.33515     -3644.32115        31.40015
> 2025 05 03 07 40 12.9999998  0 13                      
G29  20437618.13127   -578617.13627     -1897.94327        43.10027
G31  21309365.43327    -68998.83027      -331.89927        42.60027
G18  22787399.81126    457299.71326      2035.23426        37.20026
G25  21239997.65626  -1120274.84326     -3578.66726        36.70026
G28  21061912.84126   -631136.53726     -2095.85526        36.00026
G11  25170126.28415  -1401219.36515     -4451.84315        31.60015
G12  24418402.69214  -1422273.06514     -4492.70514        24.40014
R09  19166364.70226    -78827.47626      -414.36026        40.90026
C29  21523602.22026    -77680.68926      -520.93726        39.50026
R16  21055620.79726   -277450.73726     -4164.42426        38.10026
R10  21674312.08626    705354.75626      2166.73026        37.50026
C30  23271393.45026  -1109182.89926     -3536.17926        36.50026
C36  23047398.71815   -709125.71315     -3639.88615        31.40015
> 2025 05 03 07 40 13.9999999  0 13                      
G31  21309219.43427    -69324.92927      -332.10127        42.90027
G29  20437769.82627   -580509.37227     -1898.25027        43.00027
G18  22786810.12026    459340.65026      2034.94726        37.20026
G25  21240469.52926  -1123847.51426     -3578.52326        36.80026
G28  21062107.70626   -633226.59026     -2096.04126        36.00026
G11  25170750.15215  -1405663.88615     -4449.94015        31.90015
G12  24419043.64814  -1426759.11614     -4491.37614        24.80014
R09  19166231.59426    -79222.46326      -414.52026        40.90026
C29  21523491.59726    -78195.92926      -521.17226        39.50026
R16  21056190.10326   -281597.92426     -4164.47626        38.40026
R10  21673704.10726    707491.15226      2166.81626        37.70026
C30  23271857.82826  -1112713.49826     -3536.56626        36.40026
C36  23047890.67715   -712759.90615     -3639.39015        31.30015
> 2025 05 03 07 40 14.9999999  0 13                      
G31  21309047.65327    -69651.78027      -333.09127        43.10027
G29  20437893.34127   -582401.92427     -1898.57127        43.00027
G18  22786190.44916    461381.41716      2034.81816        37.20016
G25  21240912.32226  -1127420.45526     -3578.93626        36.80026
G28  21062262.39926   -635317.36126     -2096.99226        36.10026
G11  25171357.53215  -1410107.07315     -4448.37915        31.90015
G12  24419656.42414  -1431243.30014     -4489.11014        25.30014
R09  19166071.20526    -79632.73126      -415.28626        40.80026
C29  21523352.19326    -78711.69726      -521.84126        39.50026
R16  21056719.23726   -285691.61126     -4165.20626        38.50026
R10  21673052.35826    709702.29526      2166.42426        38.00026
C30  23272311.11426  -1116244.23126     -3536.60626        36.20026
C36  23048349.95915   -716396.71315     -3643.92115        31.20015
> 2025 05 03 07 40 15.9999999  0 13                      
G31  21308874.97327    -69979.29627      -333.71227        43.30027
G29  20438014.75727   -584294.76827     -1898.85127        42.90027
G25  21241353.91726  -1130993.83526     -3579.46026        36.80026
G18  22785557.88726    463422.77726      2035.79026        37.10026
G28  21062428.78426   -637408.80126     -2097.63526        36.30026
G11  25171962.21315  -1414552.36215     -4452.19915        31.90015
G12  24420260.20614  -1435727.70314     -4490.37314        25.60014
R09  19165915.61326    -80067.45026      -415.96126        40.80026
C29  21523217.28726    -79227.63126      -521.82626        39.60026
R16  21057263.06026   -289862.49226     -4165.11626        38.50026
R10  21672412.90126    711846.31826      2166.06826        38.10026
C30  23272741.91626  -1119774.80726     -3536.30526        36.10026
C36  23048790.65415   -720034.53815     -3644.14115        31.10015
> 2025 05 03 07 40 16.9999999  0 13                      
G31  21308703.49227    -70307.11127      -333.82727        43.40027
G29  20438136.47327   -586187.78227     -1898.96127        42.90027
G25  21241792.81326  -1134567.45326     -3579.59626        36.80026
G28  21062584.97626   -639500.73726     -2098.04526        36.30026
G11  25172569.59315  -1418996.14515     -4448.89015        31.80015
G18  22784940.01415    465463.40415      2034.39615        35.40015
G12  24420880.77614  -1440212.51714     -4490.87914        25.70014
R09  19165757.02326    -80486.88726      -416.02326        40.70026
C29  21523079.98226    -79744.01626      -522.42026        39.90026
R16  21057809.28226   -294047.13426     -4165.54526        38.50026
R10  21671763.55026    714044.49426      2166.77026        38.20026
C30  23273192.50426  -1123305.56326     -3536.65426        36.10026
C36  23049239.74315   -723674.19415     -3646.37915        31.00015
> 2025 05 03 07 40 18.0000000  0 13                      
G31  21308556.89327    -70635.28127      -334.21027        43.50027
G29  20438288.46727   -588080.87427     -1898.99327        42.70027
G25  21242258.09126  -1138140.87226     -3579.18226        36.70026
G28  21062778.64226   -641592.68626     -2097.81926        36.30026
G11  25173209.35015  -1423439.75515     -4449.38415        31.80015
G18  22784344.02715    467503.27715      2033.63215        34.00015
G12  24421516.03614  -1444696.85314     -4489.95714        25.70014
R09  19165618.51826    -80852.07626      -416.39426        40.70026
C29  21522969.95826    -80260.43926      -522.25226        39.90026
R16  21058378.28826   -298192.79226     -4165.87926        38.50026
R10  21671146.87726    716228.17726      2166.61526        38.20026
C30  23273665.87626  -1126836.34826     -3536.60726        36.50026
C36  23049734.70115   -727316.16415     -3648.93415        30.80015
> 2025 05 03 07 40 18.9999999  0 13                      
G31  21308372.22127    -70964.17627      -335.17727        43.50027
G29  20438405.08727   -589974.64227     -1900.02327        42.60027
G25  21242693.09026  -1141714.76326     -3580.04226        36.60026
G28  21062927.03926   -643685.63226     -2099.36026        36.30026
G11  25173816.43015  -1427884.31515     -4450.95015        32.00015
G18  22783715.06215    469544.38315      2035.80215        33.40015
G12  24422136.30714  -1449182.51014     -4492.23214        25.60014
R09  19165447.93626    -81269.18326      -417.44926        40.70026
C29  21522825.15826    -80777.49726      -523.23926        39.90026
R10  21670492.73026    718389.78126      2166.20426        38.40026
R16  21058903.22516   -302325.42116     -4167.14716        38.50016
C30  23274095.17926  -1130367.55926     -3537.28526        36.90026
C36  23050185.28915   -730949.21715     -3634.45715        30.40015
> 2025 05 03 07 40 20.0000000  0 13                      
G31  21308228.02127    -71293.58927      -335.51627        43.50027
G29  20438556.78227   -591868.71327     -1900.06627        42.40027
G25  21243169.46026  -1145288.86526     -3580.04926        36.60026
G28  21063122.50416   -645778.95216     -2099.35216        36.20016
G11  25174457.08615  -1432329.18115     -4450.86115        32.10015
G18  22783126.27015    471585.47415      2035.23715        33.00015
G12  24422788.05614  -1453668.26414     -4491.64514        25.60014
R09  19165316.92726    -81675.63126      -417.68026        40.60026
C29  21522720.23126    -81294.74926      -523.14126        39.70026
R10  21669876.65726    720569.65226      2166.00926        38.50026
R16  21059475.22926   -306487.13226     -4166.35726        38.40026
C30  23274559.85726  -1133898.82626     -3537.08526        37.00026
C36  23050671.85215   -734586.55315     -3645.26515        30.50015
> 2025 05 03 07 40 21.0000000  0 13                      
G31  21308054.44127    -71623.42627      -335.91327        43.40027
G29  20438678.79727   -593763.09527     -1900.39827        42.20027
G25  21243608.65626  -1148863.14926     -3580.23626        36.70026
G28  21063282.89316   -647872.96516     -2100.22116        36.10016
G11  25175072.26015  -1436774.93815     -4452.06115        32.10015
G18  22782490.71015    473626.11015      2034.54315        32.70015
G12  24423393.93614  -1458149.92614     -4485.47514        25.60014
R09  19165164.33326    -82127.92326      -418.14926        40.50026
C29  21522581.12726    -81812.47626      -523.77326        39.60026
R10  21669238.99826    722705.28526      2166.11926        38.50026
R16  21060028.04626   -310706.92926     -4166.84526        38.30026
C30  23275000.55226  -1137430.35426     -3537.46526        37.00026
C36  23051130.53415   -738223.61515     -3642.73315        30.60015
> 2025 05 03 07 40 22.0000000  0 13                      
G31  21307881.16127    -71953.85627      -336.58927        43.30027
G29  20438804.11027   -595657.75927     -1900.66727        41.80027
G25  21244054.14726  -1152437.59226     -3580.38326        36.70026
G28  21063435.18726   -649967.27926     -2100.32626        36.00026
G11  25175688.03415  -1441220.97515     -4452.03715        32.00015
G18  22781859.64715    475664.41815      2031.27915        32.40015
G12  24424022.60114  -1462634.94314     -4492.55514        26.00014
R09  19165011.43916    -82577.15816      -418.64416        39.60016
C29  21522439.62526    -82330.55826      -524.07026        39.30026
R10  21668592.94526    724884.39426      2166.13326        38.40026
R16  21060582.96226   -314937.43026     -4167.32826        38.10026
C30  23275441.84726  -1140961.98526     -3537.48926        37.00026
C36  23051597.61115   -741862.78415     -3646.02915        30.50015
> 2025 05 03 07 40 23.0000000  0 13                      
G31  21307708.78027    -72284.84227      -337.12627        43.10027
G29  20438928.52426   -597552.86526     -1901.18826        41.10026
G25  21244486.44826  -1156012.19926     -3580.54926        36.60026
G28  21063603.37126   -652062.37526     -2101.34826        35.90026
G18  22781238.17715    477705.11615      2036.02715        32.10015
G11  25176304.40715  -1445668.25215     -4453.75715        31.80015
G12  24424622.18614  -1467119.05114     -4489.51314        26.10014
R09  19164839.35816    -82924.01016      -419.55516        39.10016
C29  21522304.41926    -82849.11426      -524.60326        39.10026
R10  21667940.89726    727096.29726      2165.70826        38.30026
C30  23275882.24226  -1144493.91026     -3537.88026        37.00026
R16  21061112.99516   -319034.93816     -4166.96516        37.30016
C36  23052058.99215   -745501.57915     -3644.41615        30.20015
> 2025 05 03 07 40 24.0000001  0 13                      
G31  21307560.08327    -72616.55827      -337.94527        43.00027
G29  20439079.02026   -599448.32526     -1901.49926        40.60026
G25  21244964.91726  -1159587.40126     -3581.36026        36.50026
G28  21063790.14226   -654158.13426     -2101.95126        35.80026
G11  25176936.07015  -1450115.29815     -4452.79115        31.70015
G18  22780649.98415    479742.38015      2029.68415        31.90015
G12  24425279.33114  -1471603.72314     -4490.81514        26.10014
R09  19164711.34626    -83345.73926      -419.83526        39.00026
C29  21522197.39326    -83368.07326      -524.96926        38.90026
R10  21667327.22126    729264.72826      2165.60626        38.20026
C30  23276367.60626  -1148025.96026     -3537.92026        37.10026
R16  21061679.60316   -323167.60316     -4168.50416        36.80016
C36  23052554.24915   -749139.10515     -3642.69815        30.00015
> 2025 05 03 07 40 25.0000000  0 13                      
G31  21307374.51227    -72948.77827      -338.38927        42.80027
G29  20439189.64326   -601344.22326     -1902.03326        40.40026
G25  21245407.71026  -1163162.49526     -3580.95526        36.40026
G28  21063938.53926   -656254.41926     -2102.46526        35.70026
G11  25177524.26315  -1454561.30915     -4451.40715        31.60015
G18  22780005.13115    481779.89215      2031.71515        31.70015
G12  24425880.11514  -1476089.46814     -4492.19414        26.10014
R09  19164543.16326    -83776.59926      -420.68026        39.60026
C29  21522044.49926    -83887.33326      -525.27626        38.70026
R10  21666664.68026    731469.80526      2165.31726        38.10026
C30  23276795.41026  -1151558.25626     -3538.28026        37.50026
R16  21062218.92926   -327377.42826     -4168.50326        36.60026
C36  23052996.14315   -752778.81315     -3646.66115        29.80015
> 2025 05 03 07 40 26.0000000  0 13                      
G29  20439310.46026   -603240.61526     -1902.48326        40.10026
G25  21245846.90626  -1166738.35726     -3582.08926        36.40026
G31  21307206.62826    -73281.69526      -339.11026        41.40026
G28  21064098.32826   -658350.91926     -2102.45126        35.70026
G11  25178135.24015  -1459008.61415     -4453.79415        31.50015
G18  22779365.97315    483817.73515      2032.16315        31.50015
G12  24426517.47414  -1480576.30114     -4493.21914        26.10014
R09  19164385.77226    -84202.14926      -421.16226        39.60026
R10  21666022.82526    733627.55726      2165.36626        38.00026
C29  21521903.59626    -84407.04026      -525.72126        38.50026
C30  23277232.50726  -1155091.07826     -3538.87426        37.60026
R16  21062760.35426   -331536.08226     -4169.24926        36.50026
C36  23053474.01215   -756418.42015     -3645.34615        30.10015
> 2025 05 03 07 40 27.0000001  0 13                      
G29  20439466.05226   -605137.18526     -1902.52126        39.90026
G31  21307054.03326    -73614.91626      -339.23726        40.40026
G25  21246317.58026  -1170314.14026     -3581.60326        36.30026
G28  21064291.09516   -660448.78616     -2104.41216        35.60016
G11  25178773.19815  -1463454.30615     -4450.74515        31.80015
G18  22778762.79115    485857.65015      2035.08615        31.40015
G12  24427161.42814  -1485059.49414     -4487.23314        26.00014
R09  19164255.36226    -84610.88926      -421.39326        39.60026
R10  21665410.04926    735789.88626      2165.39726        38.00026
C30  23277695.68726  -1158623.79026     -3538.46526        37.60026
C29  21521799.26816    -84927.69216      -526.93516        38.30016
R16  21063322.16526   -335643.52626     -4169.45026        36.50026
C36  23053966.57115   -760056.66215     -3643.36615        31.80015
> 2025 05 03 07 40 27.9999998  0 13                      
G31  21306795.01326    -73949.00226      -340.38226        40.10026
G29  20439502.62726   -607034.38226     -1903.37226        39.70026
G25  21246670.13626  -1173890.07726     -3581.87526        36.30026
G28  21064366.64226   -662546.98826     -2104.23126        35.50026
G11  25179290.34015  -1467898.69715     -4449.60015        31.80015
G18  22778051.68315    487897.16115      2033.44515        31.40015
G12  24427696.85714  -1489543.74914     -4490.64614        26.00014
R09  19164003.83626    -85014.28126      -422.49026        39.50026
R10  21664680.35426    737936.96026      2164.93626        38.30026
R16  21063776.65126   -339818.99426     -4169.87426        37.10026
C30  23278048.54226  -1162156.97126     -3539.22226        37.50026
C36  23054343.41015   -763697.65615     -3648.17715        32.40015
C29  21521579.52116    -85446.40216      -523.54816        36.90016
> 2025 05 03 07 40 28.9999999  0 13                      
G31  21306650.21326    -74283.80426      -341.02226        41.00026
G29  20439663.01626   -608931.90626     -1903.55026        39.50026
G25  21247134.21526  -1177466.66226     -3582.77026        36.30026
G28  21064558.21025   -664645.67725     -2104.79325        35.40025
G11  25179930.69715  -1472345.44215     -4453.78315        32.00015
G18  22777455.99515    489937.01115      2034.15515        31.40015
G12  24428340.81214  -1494026.34714     -4487.62914        25.90014
R09  19163873.72626    -85424.54926      -423.23626        39.40026
R10  21664070.27626    740085.56026      2164.58426        38.30026
R16  21064352.55226   -344000.57726     -4171.38626        37.10026
C30  23278524.91316  -1165690.25716     -3539.14616        37.30016
C36  23054839.56715   -767338.70915     -3646.89015        32.40015
C29  21521465.59915    -85965.88615      -525.68115        35.30015
> 2025 05 03 07 40 29.9999999  0 13                      
G31  21306478.73227    -74619.32627      -341.74627        41.80027
G29  20439793.42526   -610829.98426     -1904.21626        39.30026
G28  21064718.29926   -666744.97226     -2105.46126        35.60026
G25  21247573.41116  -1181046.72216     -3588.40816        36.20016
G11  25180535.07825  -1476792.87325     -4453.63325        32.10025
G18  22776822.53415    491977.12015      2034.37315        31.40015
G12  24428945.79314  -1498508.27614     -4487.45414        26.00014
R09  19163717.83426    -85858.50326      -423.56126        39.40026
R10  21663407.43526    742354.66826      2164.64626        38.40026
C30  23278973.40226  -1169223.96726     -3539.72926        37.10026
C36  23055300.64715   -770978.47715     -3644.93215        32.60015
C29  21521322.29915    -86487.28315      -528.16215        34.00015
R16  21064878.38816   -348076.68616     -4174.91816        36.60016
> 2025 05 03 07 40 30.9999999  0 13                      
G31  21306326.43727    -74955.49227      -342.40527        42.20027
G29  20439943.02226   -612728.59426     -1904.79326        39.20026
G28  21064900.27326   -668845.38926     -2106.89426        35.70026
G11  25181152.95115  -1481240.32715     -4453.38015        32.10015
G25  21248018.00316  -1184627.52216     -3586.83616        35.80016
G18  22776225.04815    494015.14115      2031.05715        31.40015
G12  24429569.36114  -1502994.57914     -4494.40714        26.30014
R09  19163577.23226    -86276.37526      -424.37926        39.40026
R10  21662785.96526    744501.77926      2163.79626        38.40026
C30  23279429.08726  -1172757.96326     -3540.00126        37.50026
R16  21065449.79316   -352296.44216     -4168.53116        36.20016
C36  23055778.21725   -774619.26525     -3647.15925        33.40025
C29  21521208.97715    -87008.97615      -527.70615        33.40015
> 2025 05 03 07 40 31.9999999  0 13                      
G31  21306150.75927    -75292.33627      -343.02927        42.20027
G29  20440061.14026   -614627.47626     -1904.86226        39.10026
G28  21065057.36426   -670945.96626     -2106.50026        35.70026
G25  21248475.18715  -1188205.24515     -3582.02615        35.30015
G18  22775605.37615    496051.89515      2030.27415        31.80015
G11  25181765.42715  -1485687.88015     -4453.44315        32.00015
G12  24430179.43914  -1507485.13714     -4498.52614        26.30014
R09  19163416.54326    -86683.58726      -424.87026        39.40026
R10  21662146.20826    746648.09126      2163.59126        38.50026
C30  23279866.78416  -1176292.89616     -3541.19116        37.50016
R16  21066009.20516   -356552.16616     -4171.27416        36.30016
C36  23056236.00025   -778260.44125     -3647.16025        34.30025
C29  21521068.37415    -87530.88515      -527.80915        33.10015
> 2025 05 03 07 40 32.9999999  0 13                      
G31  21305976.28027    -75629.26827      -342.83927        42.20027
G29  20440179.55826   -616526.62126     -1905.13826        39.10026
G18  22774976.41216    498087.78316      2029.59016        37.90016
G25  21248930.27225  -1191783.12125     -3583.81325        35.00025
G28  21065225.24826   -673047.32126     -2107.60526        35.60026
G11  25182394.39115  -1490135.80215     -4453.96615        31.90015
G12  24430784.72014  -1511971.43614     -4490.02914        26.30014
R09  19163259.75126    -87112.95726      -425.03026        39.50026
R10  21661499.55626    748831.77626      2164.83126        38.50026
C30  23280307.47826  -1179827.01226     -3539.51426        37.40026
R16  21066531.44426   -360608.40126     -4172.82726        36.30026
C36  23056693.78325   -781901.28825     -3646.48825        34.60025
C29  21520937.06515    -88049.79515      -523.22015        32.90015
> 2025 05 03 07 40 33.9999999  0 13                      
G31  21305806.59727    -75967.19727      -344.29027        42.50027
G29  20440303.07326   -618426.32626     -1905.84526        39.30026
G28  21065382.63926   -675149.32126     -2108.18426        35.60026
G18  22774351.94416    500127.03616      2035.07116        37.70016
G25  21249362.57225  -1195361.10825     -3583.90225        35.20025
G11  25182996.67415  -1494585.18115     -4455.96815        31.80015
G12  24431413.38414  -1516456.93214     -4490.95414        26.50014
R09  19163102.96026    -87540.79926      -426.32326        39.90026
R10  21660860.99826    750970.45926      2163.32826        38.40026
C30  23280749.97226  -1183361.81526     -3540.95426        37.60026
C36  23057160.86026   -785542.94226     -3647.86526        35.50026
R16  21067069.57116   -364748.70916     -4172.92916        36.10016
C29  21520792.26615    -88573.33015      -531.65715        33.80015
> 2025 05 03 07 40 35.0000000  0 13                      
G31  21305662.99627    -76305.78827      -344.78527        42.90027
G29  20440466.16026   -620326.50226     -1906.27526        39.40026
G18  22773754.75816    502163.63016      2029.40016        37.30016
G28  21065581.40126   -677252.02726     -2108.92226        35.70026
G25  21249844.03925  -1198939.81225     -3584.92425        35.20025
G11  25183627.13815  -1499033.98415     -4454.37515        31.70015
G12  24432078.62414  -1520939.65514     -4487.19614        26.60014
R09  19162972.55026    -87951.83126      -426.75026        40.10026
R10  21660244.62526    753151.85526      2163.27126        38.60026
C30  23281226.34226  -1186896.99626     -3541.17826        38.10026
C36  23057662.41226   -789184.96926     -3648.02026        35.80026
R16  21067661.36216   -369018.19016     -4170.90416        35.80016
C29  21520690.33625    -89097.33925      -530.05725        34.30025
> 2025 05 03 07 40 36.0000000  0 13                      
G31  21305489.41727    -76644.79527      -345.07727        43.10027
G29  20440586.67626   -622226.76126     -1906.16226        39.40026
G18  22773133.88726    504199.71826      2029.96926        37.00026
G28  21065748.08626   -679354.97826     -2108.93526        35.80026
G25  21250294.32725  -1202518.39125     -3584.37625        35.20025
G11  25184233.61815  -1503483.07115     -4455.08815        31.60015
G12  24432709.38714  -1525423.36314     -4490.06114        26.60014
R09  19162812.46126    -88363.62726      -426.89926        40.30026
R10  21659603.66826    755304.26826      2163.63826        39.10026
C30  23281667.63726  -1190431.97226     -3540.67926        38.50026
C36  23058132.78726   -792826.99226     -3647.82726        35.80026
R16  21068198.59016   -373154.67916     -4174.12216        35.50016
C29  21520549.13425    -89621.55825      -530.13325        34.30025
> 2025 05 03 07 40 37.0000000  0 13                      
G31  21305334.42427    -76984.64727      -346.19327        43.20027
G29  20440727.27926   -624127.69026     -1907.18026        39.50026
G18  22772524.70926    506234.95726      2028.89526        36.90026
G28  21065935.15726   -681458.88526     -2110.30226        35.80026
G25  21250746.11526  -1206097.83726     -3585.04626        35.60026
G11  25184876.37315  -1507934.15815     -4458.00115        31.60015
G12  24433335.95314  -1529910.35114     -4494.54314        26.50014
R09  19162675.75626    -88801.36426      -427.85126        40.40026
R10  21658978.90126    757468.92326      2162.78726        39.30026
C30  23282127.21926  -1193967.47526     -3541.63026        38.70026
C36  23058597.76516   -796469.21616     -3648.18816        35.70016
C29  21520439.71015    -90146.10515      -530.57415        34.30015
R16  21068754.40515   -377291.12715     -4171.97815        35.20015
> 2025 05 03 07 40 38.0000000  0 13                      
G31  21305164.44227    -77324.92927      -346.34227        43.40027
G29  20440853.79126   -626029.15526     -1907.57726        39.50026
G18  22771910.43426    508270.40326      2029.70326        36.90026
G28  21066093.14726   -683563.38326     -2110.63626        35.80026
G25  21251204.19726  -1209677.19626     -3585.40726        35.60026
G11  25185502.93915  -1512381.45915     -4451.25015        31.40015
G12  24433937.63714  -1534394.59114     -4488.70614        26.50014
R09  19162517.76526    -89223.85826      -428.79726        40.40026
R10  21658329.85026    759664.04726      2163.22526        39.40026
C30  23282569.71226  -1197502.76026     -3540.96326        38.60026
C36  23059061.54416   -800111.91216     -3648.72016        35.60016
C29  21520302.10525    -90671.38525      -531.43925        34.40025
R16  21069289.23515   -381415.38815     -4174.51715        34.90015
> 2025 05 03 07 40 39.0000000  0 13                      
G31  21304989.96227    -77665.87827      -347.14527        43.40027
G29  20440977.30626   -627930.87126     -1907.70426        39.50026
G18  22771284.46826    510305.55326      2029.13826        37.20026
G28  21066254.73526   -685668.48826     -2111.27026        36.00026
G25  21251656.28426  -1213256.72426     -3585.47326        35.60026
G11  25186116.91415  -1516827.70315     -4451.57515        31.20015
G12  24434541.11914  -1538878.16414     -4489.09914        26.40014
R09  19162359.77426    -89645.58726      -428.81526        40.30026
R10  21657688.89426    761817.98626      2162.71626        39.40026
C30  23283018.50226  -1201038.69726     -3542.07226        38.40026
C29  21520162.10225    -91196.91425      -531.46225        35.30025
C36  23059511.83226   -803754.86026     -3648.88126        35.50026
R16  21069841.75215   -385632.12715     -4174.21515        34.70015
> 2025 05 03 07 40 40.0000000  0 13                      
G31  21304815.48327    -78007.25727      -347.45727        43.40027
G29  20441102.61926   -629832.71926     -1907.77426        39.40026
G18  22770662.09926    512340.67126      2029.23626        37.60026
G28  21066418.12226   -687774.02026     -2111.60826        36.20026
G25  21252099.07826  -1216836.54126     -3585.82326        35.60026
G11  25186710.50315  -1521276.36215     -4455.72615        31.00015
G12  24435167.08614  -1543367.26514     -4497.72514        26.40014
R09  19162199.68526    -90056.61926      -429.32126        40.30026
R10  21657047.03826    763974.97526      2162.94626        39.30026
C29  21520026.29626    -91722.80926      -531.88826        35.90026
R16  21070383.77725   -389793.83925     -4175.35825        34.60025
C30  23283452.90126  -1204575.00626     -3542.30126        37.70026
C36  23059978.90915   -807396.70815     -3647.10515        34.60015
> 2025 05 03 07 40 41.0000001  0 13                      
G31  21304675.18027    -78349.34127      -348.30127        43.40027
G29  20441259.71026   -631735.18326     -1908.63526        39.40026
G18  22770070.90826    514375.36726      2028.62126        37.90026
G28  21066611.48826   -689880.10626     -2112.22526        36.30026
G25  21252571.25126  -1220416.71326     -3586.21026        35.60026
G11  25187359.55415  -1525724.43715     -4453.64415        30.90015
G12  24435824.23114  -1547853.47914     -4490.63214        26.80014
R09  19162069.57526    -90467.65226      -430.11126        40.30026
R10  21656433.36326    766143.40526      2162.52926        39.30026
C29  21519921.66826    -92249.14726      -532.37026        36.10026
C30  23283919.97826  -1208111.40526     -3542.25126        37.10026
R16  21070941.99025   -393882.93825     -4175.42725        34.60025
C36  23060487.05715   -811040.03415     -3649.87115        33.70015
> 2025 05 03 07 40 41.9999998  0 13                      
G31  21304417.05927    -78692.10927      -348.97227        43.40027
G29  20441286.39226   -633638.01526     -1908.87726        39.30026
G18  22769356.20326    516409.76826      2028.38826        38.10026
G28  21066684.03826   -691987.08826     -2113.29126        36.30026
G25  21252925.30626  -1223997.23226     -3586.55226        35.50026
G11  25187878.79415  -1530174.82115     -4457.39715        30.80015
G12  24436357.56214  -1552339.04514     -4491.10014        27.10014
R09  19161821.64726    -90890.14526      -430.87726        40.30026
R10  21655698.87226    768314.88626      2162.33526        39.30026
C30  23284277.63026  -1211648.12126     -3542.68226        36.80026
C29  21519699.82226    -92776.08426      -533.04626        36.40026
R16  21071408.46725   -398121.08225     -4176.22325        34.50025
C36  23060865.39515   -814683.83015     -3649.83915        33.30015
> 2025 05 03 07 40 43.0000001  0 13                      
G31  21304355.90127    -79035.41527      -349.49327        43.30027
G29  20441522.62826   -635540.97826     -1908.94626        39.30026
G18  22768839.66026    518443.48626      2028.20726        38.40026
G28  21066957.74926   -694094.19026     -2113.07926        36.30026
G25  21253479.32226  -1227577.84026     -3586.56926        35.50026
G11  25188595.89815  -1534625.27015     -4456.39715        30.70015
G12  24437084.85814  -1556826.41314     -4494.18614        27.30014
R09  19161773.68026    -91322.53426      -431.00726        40.60026
R10  21655160.14526    770499.36926      2162.22826        39.40026
C30  23284833.14526  -1215184.92326     -3542.70726        37.30026
C29  21519669.54326    -93303.06726      -532.86926        36.60026
R16  21072079.10315   -402392.05315     -4174.98815        34.40015
C36  23061433.50225   -818327.86325     -3650.01425        33.20025
> 2025 05 03 07 40 43.9999998  0 13                      
G31  21304094.78227    -79379.40827      -350.18127        43.40027
G29  20441557.40426   -637444.70426     -1909.95126        39.30026
G18  22768131.85026    520477.24626      2027.68426        38.40026
G28  21067035.99426   -696202.26826     -2114.40926        36.30026
G25  21253830.37926  -1231158.98926     -3587.26126        35.70026
G11  25189102.84715  -1539077.20615     -4458.52115        30.60015
G12  24437610.39414  -1561309.89614     -4487.38114        27.40014
R09  19161525.45226    -91742.73526      -431.99926        40.60026
R10  21654428.05126    772659.41026      2162.03426        39.60026
C30  23285185.10226  -1218722.16926     -3543.25626        38.40026
C29  21519445.29816    -93830.99916      -534.19816        36.50016
C36  23061806.44425   -821972.19025     -3650.26125        34.40025
R16  21072525.19415   -406521.66115     -4176.23015        34.40015
> 2025 05 03 07 40 44.9999998  0 12                      
G31  21303922.70127    -79723.87527      -350.56627        43.40027
G29  20441682.71826   -639348.87226     -1910.25126        39.30026
G18  22767507.08326    522511.20726      2028.19726        38.40026
G28  21067200.88026   -698310.66326     -2114.41526        36.30026
G25  21254274.07226  -1234740.22026     -3587.13326        35.70026
G11  25189712.32515  -1543527.05515     -4454.66415        31.00015
G12  24438214.17614  -1565796.43414     -4493.92514        27.60014
C36  23062264.82626   -825616.75726     -3650.49526        39.10026
R09  19161366.26226    -92158.35226      -432.42926        40.50026
R10  21653781.09926    774843.85726      2161.83126        39.70026
C30  23285629.69426  -1222259.41426     -3543.05126        39.00026
R16  21073069.91715   -410697.89315     -4178.66415        34.30015
> 2025 05 03 07 40 45.9999999  0 13                      
G31  21303782.39827    -80069.43427      -351.96927        43.40027
G29  20441839.20926   -641253.44726     -1910.64026        39.20026
G18  22766911.09526    524544.23126      2026.69026        38.40026
G28  21067392.44826   -700419.93526     -2115.57326        36.30026
G25  21254749.54326  -1238321.87326     -3587.72426        35.70026
G11  25190344.88715  -1547975.91915     -4454.23115        31.00015
G12  24438863.82714  -1570283.88714     -4493.77214        27.70014
C36  23062759.48426   -829261.77326     -3651.04926        40.90026
R10  21653168.02426    777007.71126      2161.21126        39.90026
R09  19161246.94526    -92627.45226      -433.41926        40.40026
C30  23286102.46726  -1225797.14526     -3543.78226        39.40026
R16  21073646.71825   -414884.82725     -4177.71425        34.20025
C29  21519201.26715    -94859.04615      -534.10715        33.90015
> 2025 05 03 07 40 46.9999999  0 13                      
G31  21303607.02027    -80414.94827      -351.35427        43.30027
G29  20441964.82226   -643158.14626     -1910.62326        39.50026
G18  22766290.52526    526577.19026      2027.06126        38.30026
G28  21067553.43626   -702529.56326     -2115.66826        36.30026
G25  21255175.84826  -1241904.01326     -3588.24426        35.70026
G11  25190956.46415  -1552426.60215     -4457.45315        31.00015
G12  24439483.79714  -1574772.69614     -4495.34614        27.70014
R10  21652530.06526    779144.87126      2162.02226        40.10026
R09  19161089.85426    -93054.53026      -433.33826        40.30026
C30  23286543.46126  -1229334.84126     -3543.48626        39.50026
C36  23063228.65926   -832906.94726     -3651.05926        40.70026
C29  21519068.75915    -95388.17115      -534.93515        35.20015
R16  21074196.83715   -419090.86715     -4176.70015        34.00015
> 2025 05 03 07 40 47.9999999  0 13                      
G31  21303439.13627    -80761.51427      -352.95527        43.30027
G29  20442087.73726   -645063.33326     -1911.29226        39.60026
G18  22765666.95726    528610.47126      2027.57726        38.30026
G28  21067722.51926   -704640.13526     -2116.90526        36.30026
G25  21255625.83626  -1245486.32726     -3588.26126        35.70026
G11  25191582.43015  -1556879.27515     -4459.52715        30.80015
G12  24440094.47514  -1579261.40114     -4494.51214        27.70014
R09  19160934.26126    -93490.01226      -434.38026        40.30026
R10  21651882.21426    781334.65526      2160.99926        40.10026
C30  23286975.46226  -1232872.82626     -3543.93526        39.40026
C29  21518935.65126    -95917.70226      -535.54326        37.30026
C36  23063670.55316   -836553.14216     -3652.51316        40.20016
R16  21074749.35515   -423308.37315     -4178.69315        34.00015
> 2025 05 03 07 40 48.9999999  0 12                      
G31  21303282.34527    -81108.39027      -352.94827        43.20027
G29  20442234.93526   -646969.07726     -1911.94026        39.60026
G18  22765048.78526    530643.23626      2026.58726        38.10026
G28  21067907.79126   -706751.78526     -2117.35526        36.70026
G25  21256093.51326  -1249068.76726     -3588.42026        35.80026
G12  24440729.13514  -1583751.43714     -4496.61714        27.60014
R09  19160786.76326    -93870.44526      -435.06526        40.20026
R10  21651251.45126    783530.58026      2161.14226        40.10026
C30  23287438.04226  -1236411.11926     -3544.31026        39.20026
C29  21518820.23126    -96447.50826      -535.80826        37.60026
R16  21075283.88515   -427331.70415     -4178.62215        33.90015
C36  23064144.52516   -840198.57416     -3650.91316        38.20016
> 2025 05 03 07 40 49.9999999  0 13                      
G31  21303109.96427    -81456.21127      -354.13927        43.20027
G29  20442363.84626   -648875.28026     -1912.27426        39.60026
G28  21068076.27426   -708863.64726     -2118.06126        37.10026
G25  21256546.49926  -1252651.86626     -3589.26926        35.80026
G18  22764434.51016    532675.93616      2026.07216        37.10016
G12  24441346.40814  -1588238.99014     -4492.15214        27.60014
G11  25192825.37014  -1565790.51114     -4459.52014        28.00014
R09  19160635.96826    -94331.14126      -435.55626        40.20026
R10  21650609.29526    785690.62226      2160.74426        40.10026
C30  23287883.23416  -1239949.52616     -3544.25116        39.00016
C29  21518684.42526    -96978.06726      -536.72626        37.50026
R16  21075831.30625   -431522.45925     -4179.48425        34.00025
C36  23064611.90116   -843844.63816     -3652.16916        36.50016
> 2025 05 03 07 40 50.9999999  0 13                      
G31  21302940.88127    -81804.93827      -355.04427        43.20027
G29  20442488.56026   -650782.00626     -1912.85126        39.60026
G28  21068246.55626   -710976.34526     -2118.97926        37.20026
G25  21256986.29526  -1256235.20826     -3589.32426        35.70026
G18  22763811.84126    534707.79026      2025.81526        36.30026
G12  24441958.88414  -1592724.20814     -4489.90914        27.50014
G11  25193424.95514  -1570243.25914     -4458.60714        27.10014
R09  19160477.97726    -94753.63426      -436.42826        40.20026
R10  21649974.63426    787809.47426      2160.28426        40.10026
C30  23288324.82826  -1243488.33426     -3544.81726        38.70026
C29  21518551.91626    -97509.01526      -536.95226        37.40026
R16  21076377.52725   -435707.09925     -4180.12225        34.60025
C36  23065070.28416   -847491.17616     -3652.58216        35.60016
> 2025 05 03 07 40 52.0000000  0 13                      
G31  21302804.77527    -82154.31827      -355.56927        43.10027
G29  20442639.65526   -652689.18426     -1913.26526        39.60026
G28  21068436.02526   -713089.60426     -2119.40126        37.20026
G25  21257456.06926  -1259819.03326     -3589.92926        35.60026
G18  22763214.95426    536739.41226      2025.64226        36.00026
G12  24442592.04614  -1597202.74614     -4481.05814        27.50014
G11  25194068.60914  -1574692.46114     -4453.29014        26.50014
R09  19160355.06226    -95202.10526      -437.03026        40.20026
R10  21649358.86126    789987.81926      2159.86526        40.00026
C30  23288795.80226  -1247027.71026     -3545.46726        38.50026
C29  21518439.79426    -98040.43526      -537.46626        37.20026
R16  21076962.72225   -439939.12625     -4180.03125        35.10025
C36  23065556.24825   -851138.23625     -3653.12925        35.10025
> 2025 05 03 07 40 53.0000000  0 13                      
G31  21302631.49527    -82504.13227      -355.89427        43.10027
G29  20442768.56626   -654596.86326     -1913.79126        39.70026
G28  21068605.10826   -715203.67326     -2120.33526        37.20026
G25  21257903.95926  -1263403.25526     -3590.27926        35.50026
G18  22762594.08426    538770.85426      2025.48626        35.80026
G12  24443214.41514  -1601678.41714     -4480.09814        27.30014
G11  25194705.66814  -1579142.99614     -4457.06114        26.10014
R09  19160203.06726    -95656.68926      -437.69226        40.50026
R10  21648715.50626    792153.96226      2160.15726        40.00026
C30  23289235.89726  -1250567.53926     -3545.86226        38.30026
C29  21518304.58826    -98572.27126      -537.85326        37.20026
R16  21077502.04925   -444086.31725     -4181.53425        35.20025
C36  23066033.51715   -854783.30415     -3649.87815        34.60015
> 2025 05 03 07 40 54.0000000  0 13                      
G31  21302479.20127    -82854.38327      -356.38727        43.10027
G29  20442907.96926   -656505.17026     -1914.53926        39.90026
G28  21068790.38026   -717318.26026     -2120.76326        37.10026
G25  21258360.54325  -1266987.59825     -3590.32025        35.40025
G18  22761988.80316    540801.73316      2024.67916        35.60016
G12  24443864.06514  -1606163.78114     -4496.12514        27.20014
G11  25195327.73814  -1583595.55514     -4459.48614        25.60014
R09  19160060.96626    -96066.15626      -438.51726        40.90026
R10  21648091.03826    794317.08926      2159.76626        39.90026
C30  23289703.27426  -1254107.66126     -3546.13126        38.20026
C29  21518189.16816    -99105.02816      -539.08316        37.20016
R16  21078067.15815   -448273.21115     -4183.59115        35.20015
C36  23066511.08715   -858430.70915     -3654.43615        34.20015
> 2025 05 03 07 40 55.0000000  0 13                      
G31  21302309.21827    -83205.34327      -357.16027        43.00027
G29  20443035.98126   -658412.93026     -1913.32826        40.00026
G28  21068948.07126   -719432.98426     -2120.63626        37.10026
G25  21258806.03526  -1270572.10326     -3590.42826        35.70026
G18  22761369.73226    542832.32126      2025.34526        35.50026
G12  24444496.62714  -1610658.54114     -4505.30114        27.00014
G11  25195942.61214  -1588050.90614     -4462.58914        25.30014
R09  19159902.07626    -96483.30126      -438.00726        41.30026
R10  21647443.78726    796503.82626      2160.32026        39.80026
C30  23290143.96926  -1257647.57826     -3545.60326        38.80026
C29  21518052.46216    -99638.26216      -539.26316        37.10016
R16  21078606.48425   -452421.92825     -4180.99525        35.20025
C36  23066971.56815   -862078.37515     -3653.58615        33.90015
> 2025 05 03 07 40 56.0000000  0 13                      
G29  20443160.39526   -660321.56926     -1914.94226        40.00026
G28  21069106.36126   -721548.36326     -2121.56726        37.00026
G31  21302140.13527    -83556.64927      -357.34227        42.30027
G25  21259238.33616  -1274155.91516     -3590.07716        35.60016
G18  22760736.57015    544860.20315      2019.66315        35.30015
G12  24445118.39714  -1615148.44214     -4493.33014        26.90014
G11  25196546.69414  -1592510.67314     -4467.83414        25.00014
R09  19159747.98226    -96927.18826      -439.24226        41.30026
R10  21646800.13226    798670.73026      2159.71026        39.70026
C30  23290586.46326  -1261187.69526     -3546.02526        38.80026
C29  21517919.35416   -100171.23516      -538.65216        37.00016
R16  21079148.80926   -456584.40326     -4181.83026        35.90026
C36  23067445.84015   -865726.12715     -3653.60015        33.70015
> 2025 05 03 07 40 57.0000000  0 13                      
G29  20443285.70826   -662230.75326     -1915.31826        40.10026
G31  21301969.85326    -83908.80026      -358.43626        41.40026
G28  21069271.24726   -723664.66326     -2122.62326        36.90026
G25  21259686.52516  -1277741.23916     -3591.68916        35.50016
G18  22760105.50715    546888.90115      2023.49115        35.20015
G12  24445723.37814  -1619638.13614     -4495.45014        26.70014
G11  25197142.68114  -1596964.84414     -4457.23214        24.90014
R09  19159593.88926    -97370.31126      -439.96226        41.30026
R10  21646158.57626    800826.19426      2159.36426        39.60026
C30  23291029.25626  -1264728.12326     -3546.38926        38.70026
C29  21517783.24926   -100704.92726      -539.86126        36.80026
R16  21079691.43326   -460749.17126     -4183.06126        36.10026
C36  23067903.92215   -869374.40915     -3654.35515        33.40015
> 2025 05 03 07 40 58.0000001  0 13                      
G25  21260162.89526  -1281326.83226     -3591.58926        40.80026
G29  20443443.39926   -664140.32426     -1915.62726        40.30026
G31  21301830.74926    -84261.58826      -358.97026        40.90026
G28  21069467.91126   -725781.76026     -2123.35726        36.90026
G18  22759501.42515    548918.62715      2024.37615        35.00015
G12  24446359.23814  -1624126.05914     -4492.89814        26.60014
G11  25197770.74614  -1601417.01214     -4457.02714        25.00014
R09  19159467.37727    -97801.20827      -440.52027        41.50027
R10  21645541.90326    803009.11626      2159.16026        39.50026
C30  23291501.72926  -1268269.07326     -3547.01926        38.60026
C29  21517677.72226   -101238.98626      -540.05226        37.20026
R16  21080262.53826   -464908.58826     -4182.52726        36.10026
C36  23068395.88225   -873022.86125     -3654.34425        33.30025
> 2025 05 03 07 40 59.0000000  0 13                      
G25  21260597.59527  -1284912.60427     -3591.77627        43.10027
G31  21301654.17226    -84615.04726      -359.71226        40.70026
G29  20443557.62026   -666050.37526     -1916.20726        40.40026
G28  21069623.80326   -727899.36626     -2123.77726        37.00026
G18  22758866.16515    550948.38515      2023.85315        34.80015
G12  24446952.82714  -1628612.47414     -4491.57614        26.50014
G11  25198355.94114  -1605869.42714     -4458.45214        25.30014
R09  19159302.49127    -98248.11527      -441.58427        41.80027
R10  21644896.45026    805124.95526      2158.78826        39.40026
C30  23291931.93126  -1271810.10426     -3546.93326        38.60026
C29  21517536.51926   -101773.71126      -540.92126        38.10026
R16  21080807.26126   -469145.16526     -4183.65026        36.10026
C36  23068847.66925   -876671.76325     -3654.98825        34.10025
> 2025 05 03 07 41 00.0000001  0 13                      
G25  21261073.66527  -1288498.96927     -3592.50427        43.00027
G29  20443715.01126   -667960.93426     -1916.65726        40.60026
G31  21301513.56926    -84969.33726      -360.55126        40.60026
G28  21069821.36626   -730017.72226     -2124.57426        37.10026
G18  22758285.46725    552977.58425      2023.07425        34.70025
G12  24447588.38714  -1633098.01614     -4490.94714        26.40014
G11  25198987.30414  -1610323.39914     -4460.59214        25.60014
R09  19159176.27827    -98681.30427      -441.74327        41.90027
R10  21644279.77726    807305.58826      2158.57326        39.40026
C29  21517429.79326   -102308.86426      -541.15926        38.70026
C30  23292412.19926  -1275351.68326     -3547.64326        38.80026
R16  21081386.46016   -473346.61616     -4181.88816        36.10016
C36  23069338.72925   -880321.01625     -3655.21925        34.90025
> 2025 05 03 07 41 00.9999998  0 13                      
G25  21261434.31527  -1292086.17227     -3592.73227        42.70027
G18  22757573.46026    555006.56526      2023.00626        40.00026
G29  20443752.78426   -669872.04126     -1917.24326        40.60026
G31  21301254.24926    -85324.50026      -361.46226        40.50026
G28  21069899.31226   -732136.90026     -2125.45126        37.30026
G11  25199512.54014  -1614779.49114     -4463.01214        25.80014
G12  24448112.12414  -1637585.97014     -4495.01914        26.30014
R09  19158933.74627    -99132.83227      -442.89327        41.90027
R10  21643543.48726    809488.51026      2158.17826        39.40026
C29  21517210.34526   -102844.55926      -541.77526        38.70026
C30  23292764.15526  -1278893.48026     -3547.71226        38.80026
R16  21081853.23716   -477587.82216     -4185.87716        36.00016
C36  23069715.56825   -883970.72525     -3655.74325        35.10025
> 2025 05 03 07 41 01.9999999  0 13                      
G25  21261909.78627  -1295673.10827     -3592.91227        42.30027
G29  20443911.37526   -671783.48926     -1917.47926        40.50026
G31  21301112.44726    -85679.97426      -361.49426        40.40026
G18  22756977.47226    557035.16126      2022.53926        40.00026
G28  21070094.77726   -734256.57026     -2125.77726        37.40026
G11  25200155.89514  -1619234.63414     -4460.52914        25.80014
G12  24448770.76814  -1642076.13014     -4497.12414        26.10014
R09  19158806.03527    -99556.08927      -443.18427        41.90027
R10  21642934.00926    811632.53426      2158.24726        39.60026
C29  21517105.41826   -103380.73926      -542.23226        38.70026
C30  23293235.12926  -1282435.69426     -3548.23026        38.60026
R16  21082413.84926   -481687.61926     -4184.50126        35.90026
C36  23070206.92825   -887620.65525     -3655.84825        35.30025
> 2025 05 03 07 41 02.9999998  0 13                      
G25  21262359.17527  -1299260.31527     -3593.20427        42.10027
G29  20444032.49126   -673695.38226     -1917.97826        40.40026
G31  21300940.06626    -86036.15626      -362.39826        40.20026
G18  22756358.70126    559063.57426      2022.45726        39.80026
G28  21070259.96326   -736376.88326     -2126.49626        37.40026
G11  25200775.26614  -1623693.30614     -4466.29514        26.10014
G12  24449400.93214  -1646567.41214     -4497.70214        25.90014
R09  19158659.43627   -100038.94327      -443.73827        41.80027
R10  21642290.05426    813802.48826      2157.99526        39.60026
C29  21516975.00826   -103917.21226      -542.42926        38.60026
C30  23293682.11926  -1285977.90526     -3548.01726        38.50026
R16  21082958.57126   -485864.61826     -4185.47726        35.90026
C36  23070668.00915   -891271.01415     -3656.38115        35.30015
> 2025 05 03 07 41 03.9999998  0 13                      
G25  21262802.86827  -1302848.13527     -3593.98727        41.90027
G31  21300770.08426    -86393.18326      -363.31326        40.00026
G18  22755735.43226    561091.49826      2021.81426        39.50026
G28  21070428.14626   -738498.08026     -2127.50126        37.40026
G29  20444158.70326   -675607.91626     -1918.71726        39.70026
G11  25201393.13914  -1628148.68214     -4459.58914        26.30014
G12  24450003.81514  -1651063.82714     -4504.84114        25.60014
R09  19158501.44527   -100462.20027      -444.71427        41.70027
R10  21641645.20126    815976.25726      2157.44426        39.80026
C30  23294121.01626  -1289520.71426     -3548.91526        38.30026
C29  21516844.29926   -104454.36126      -543.29626        38.40026
R16  21083499.99726   -490023.27126     -4185.96126        35.80026
C36  23071130.28915   -894921.97715     -3657.07215        35.20015
> 2025 05 03 07 41 04.9999999  0 13                      
G25  21263266.94727  -1306435.82727     -3593.54427        41.70027
G31  21300618.98826    -86750.56926      -363.48326        39.80026
G18  22755138.54526    563119.52326      2022.15726        39.20026
G28  21070610.42026   -740619.51526     -2127.47026        37.40026
G29  20444304.40326   -677520.47426     -1918.48726        38.80026
G11  25202027.79914  -1632600.13114     -4455.40014        26.30014
G12  24450649.86714  -1655558.39114     -4499.55414        25.40014
R09  19158361.14327   -100880.83627      -444.78327        41.50027
R10  21641028.52826    818096.67426      2157.90726        39.80026
C29  21516726.48026   -104991.65826      -543.23526        38.20026
C30  23294582.39626  -1293063.26426     -3548.28326        38.10026
R16  21084063.60626   -494202.52226     -4186.09726        36.30026
C36  23071622.84825   -898572.99225     -3656.90225        35.00025
> 2025 05 03 07 41 05.9999999  0 13                      
G25  21263716.33527  -1310024.26627     -3594.65427        41.50027
G31  21300450.80526    -87108.74726      -364.41926        39.60026
G18  22754511.67916    565148.47516      2023.56816        38.80016
G28  21070775.90516   -742741.30016     -2128.55316        37.30016
G29  20444433.31326   -679433.66226     -1919.34726        38.00026
G11  25202636.67814  -1637051.60814     -4457.33314        26.30014
G12  24451267.74014  -1660046.14214     -4490.18614        25.20014
R09  19158207.34926   -101324.72326      -445.96326        41.40026
R10  21640380.97626    820285.69626      2156.92426        39.80026
R16  21084613.72626   -498407.03626     -4187.10726        36.80026
C30  23295027.58826  -1296606.70426     -3549.67326        37.90026
C36  23072087.22615   -902223.51615     -3656.06815        34.40015
C29  21516591.27416   -105529.57216      -544.01416        37.70016
> 2025 05 03 07 41 06.9999999  0 13                      
G31  21300286.51826    -87467.45526      -364.83626        39.40026
G29  20444561.62526   -681347.38426     -1919.85026        37.50026
G25  21264165.12526  -1313612.87826     -3594.55826        40.90026
G18  22753892.30816    567175.43516      2020.09916        38.40016
G28  21070943.48916   -744864.75916     -2129.90816        36.50016
G11  25203238.36114  -1641509.49414     -4466.95014        26.50014
G12  24451888.91014  -1664530.18414     -4488.04614        24.90014
R09  19158053.55626   -101770.13826      -446.31426        41.30026
R10  21639734.62326    822467.09326      2157.23026        39.70026
R16  21085152.45326   -502550.40226     -4186.84926        37.10026
C30  23295473.37926  -1300150.07526     -3549.14326        37.60026
C36  23072552.20415   -905874.82215     -3657.50415        34.00015
C29  21516455.16816   -106067.58516      -543.87216        36.80016
> 2025 05 03 07 41 08.0000000  0 12                      
G31  21300142.91826    -87827.14326      -366.04226        39.20026
G29  20444720.81426   -683261.54626     -1920.24526        37.20026
G18  22753300.81816    569202.94616      2021.92116        37.30016
G25  21264635.19916  -1317204.64616     -3599.95816        39.30016
G28  21071125.76315   -746988.30015     -2129.44315        35.30015
G11  25203876.02014  -1645965.02014     -4460.20614        26.60014
R09  19157930.94026   -102221.66526      -447.25326        41.10026
R10  21639129.94226    824585.94626      2156.66326        39.70026
R16  21085726.85526   -506725.87126     -4188.00126        37.20026
C30  23295945.85226  -1303693.85526     -3549.79326        37.40026
C36  23073045.06325   -909526.82225     -3658.15325        34.20025
C29  21516353.83826   -106606.79526      -545.61826        35.90026
> 2025 05 03 07 41 09.0000000  0 12                      
G31  21299973.53526    -88186.77326      -365.46426        39.00026
G29  20444853.02326   -685176.30026     -1920.91126        37.00026
G18  22752672.15316    571229.99816      2020.95816        36.40016
G28  21071299.64315   -749112.21315     -2129.96015        34.20015
G25  21265063.00316  -1320794.36516     -3594.30416        37.60016
G11  25204495.69114  -1650421.01214     -4462.08414        26.60014
R10  21638482.39026    826774.20726      2156.84126        39.70026
R16  21086266.78126   -510876.11626     -4188.74026        37.30026
C30  23296387.44716  -1307237.77216     -3549.79116        37.30016
R09  19157769.65226   -102625.05726      -447.77726        40.60026
C36  23073509.14215   -913178.36015     -3657.11515        34.20015
C29  21516219.23125   -107145.66825      -544.51325        35.30025
> 2025 05 03 07 41 10.0000000  0 12                      
G31  21299805.35226    -88547.74126      -367.50126        40.60026
G29  20444978.03626   -687091.48326     -1921.26026        36.90026
G18  22752056.37916    573256.06116      2019.70416        35.90016
G28  21071472.62315   -751237.47215     -2131.79415        33.70015
G25  21265512.99216  -1324384.62216     -3596.38716        36.30016
G11  25205107.56714  -1654867.41614     -4447.47114        26.50014
R10  21637836.33826    828954.07726      2156.06826        39.60026
R16  21086818.69926   -515091.32926     -4189.31326        37.30026
C30  23296826.64316  -1310781.32816     -3549.18316        37.10016
R09  19157609.56326   -103036.08926      -448.56226        39.60026
C36  23073977.41815   -916830.77515     -3658.66015        34.10015
C29  21516087.02325   -107685.67825      -546.38925        34.80025
> 2025 05 03 07 41 11.0000000  0 12                      
G31  21299658.45327    -88909.52327      -368.10727        47.00027
G29  20445126.73326   -689007.27126     -1922.00626        36.70026
G18  22751441.80526    575281.59626      2019.35026        35.70026
G28  21071665.09025   -753363.59025     -2132.46525        33.60025
G25  21265975.57115  -1327973.15215     -3593.58215        35.20015
G11  25205731.73514  -1659319.45014     -4460.76314        26.40014
R10  21637214.26826    831103.47626      2155.58626        39.60026
C30  23297291.92026  -1314326.32826     -3551.58326        37.40026
R16  21087385.90726   -519288.92426     -4189.03526        37.20026
R09  19157476.75526   -103495.22026      -449.57526        38.60026
C36  23074459.18425   -920484.07625     -3659.60525        34.00025
C29  21515975.20015   -108226.29215      -546.78115        34.30015
> 2025 05 03 07 41 12.0000000  0 12                      
G31  21299489.97028    -89272.15828      -368.90628        47.50028
G29  20445252.04726   -690923.66826     -1922.54626        36.60026
G18  22750823.93226    577306.72226      2019.07626        35.70026
G28  21071830.87515   -755490.19615     -2132.69215        33.60015
G25  21266432.75515  -1331563.89415     -3597.68915        34.50015
G11  25206338.51514  -1663781.17714     -4472.41614        26.40014
G12  24455004.05314     -8981.30814     -4499.59714        23.50014
R10  21636575.11126    833248.26226      2155.36526        39.50026
C30  23297736.81226  -1317871.80126     -3551.49926        38.20026
R09  19157321.76226   -103934.52326      -449.98226        38.00026
C36  23074925.96125   -924137.75025     -3659.64925        34.10025
C29  21515834.89725   -108767.66825      -547.54825        33.90025
> 2025 05 03 07 41 13.0000000  0 13                      
G31  21299321.78628    -89635.15828      -369.79528        47.50028
G25  21266880.04526  -1335155.24926     -3597.52226        36.00026
G29  20445377.95926   -692840.67126     -1923.16726        36.50026
G18  22750204.86126    579330.83126      2018.48526        35.60026
G28  21071998.15915   -757620.05615     -2137.34815        33.50015
G11  25206938.69914  -1668243.76814     -4468.88214        26.40014
G12  24455639.31314    -13474.20814     -4498.76014        24.40014
C30  23298179.30626  -1321417.83426     -3552.12126        38.80026
R10  21635929.35826    835425.84526      2154.86826        39.30026
R09  19157169.46826   -104386.05026      -451.21626        37.80026
C36  23075394.83725   -927791.83125     -3660.09225        34.90025
C29  21515707.48625   -109309.67325      -548.12825        33.70025
R16  21088466.65815   -527594.76815     -4192.14615        33.60015
> 2025 05 03 07 41 14.0000000  0 13                      
G31  21299155.70127    -89999.22327      -370.21127        47.40027
G25  21267327.03626  -1338746.77926     -3597.47826        38.20026
G29  20445506.57026   -694758.26526     -1923.75126        36.60026
G18  22749578.29526    581355.00526      2018.09126        35.70026
G28  21072164.84415   -759748.56315     -2133.69315        33.40015
G11  25207545.77914  -1672702.42914     -4462.55514        26.50014
G12  24456277.57114    -17966.40314     -4497.70314        24.40014
C30  23298622.39926  -1324963.91026     -3551.90426        39.10026
R09  19157018.37226   -104845.98226      -451.53126        38.60026
R10  21635283.00526    837607.24126      2154.90626        39.20026
C36  23075860.41426   -931446.16626     -3660.26926        35.80026
C29  21515572.57925   -109852.29825      -548.74525        34.20025
R16  21089019.77515   -531816.86115     -4193.35115        32.20015
> 2025 05 03 07 41 15.0000001  0 13                      
G31  21299018.09727    -90364.16527      -371.24427        47.40027
G25  21267803.70616  -1342338.98616     -3598.40716        38.10016
G29  20445666.95926   -696676.32626     -1924.15726        36.60026
G18  22748990.10226    583378.86526      2017.83926        35.70026
G28  21072368.70325   -761877.57325     -2135.12325        33.40025
G11  25208199.92614  -1677158.68914     -4460.92014        26.60014
G12  24456911.93214    -22456.57714     -4495.02314        24.40014
R09  19156896.65626   -105301.33026      -452.45826        38.90026
C30  23299093.07426  -1328510.34326     -3552.42026        39.10026
R10  21634667.53126    839784.05926      2154.26526        39.00026
C36  23076354.77226   -935100.91726     -3660.76626        36.10026
C29  21515464.95425   -110395.29025      -548.98525        34.40025
R16  21089592.37915   -535980.86015     -4189.39915        31.40015
> 2025 05 03 07 41 16.0000000  0 13                      
G31  21298837.92127    -90729.75327      -371.82827        47.40027
G29  20445783.27926   -698594.77726     -1924.56226        36.50026
G25  21268236.90626  -1345931.66026     -3598.82226        37.80026
G18  22748354.54226    585402.44426      2017.52026        35.70026
G28  21072529.69125   -764007.19925     -2135.85125        33.70025
G11  25208800.71014  -1681617.43714     -4465.90614        27.00014
G12  24457515.41414    -26946.20214     -4495.26514        25.10014
C30  23299524.47526  -1332057.12926     -3552.82426        39.10026
R09  19156730.57126   -105742.88826      -453.18726        39.10026
R10  21634025.97526    841879.30626      2154.05126        38.90026
C36  23076801.46326   -938756.16226     -3661.35426        36.40026
C29  21515324.95025   -110938.81625      -549.65625        34.80025
R16  21090131.10615   -540188.39515     -4190.74915        30.90015
> 2025 05 03 07 41 17.0000001  0 13                      
G31  21298701.81627    -91096.07527      -372.53527        47.30027
G29  20445940.37026   -700513.90126     -1925.30526        36.40026
G25  21268712.97626  -1349524.49526     -3598.75826        37.40026
G18  22747769.94716    587425.26416      2015.84316        35.60016
G28  21072720.35925   -766137.61625     -2136.65625        33.70025
G11  25209450.36114  -1686080.76814     -4471.46414        27.20014
G12  24458157.57014    -31438.03314     -4498.77614        25.70014
R09  19156604.35926   -106174.54926      -453.76726        39.20026
C30  23299997.24826  -1335604.52226     -3553.48626        39.00026
R10  21633423.69226    843985.19326      2153.79426        38.70026
C36  23077302.11626   -942411.75126     -3661.55026        37.00026
C29  21515221.52225   -111483.00725      -550.31525        35.20025
R16  21090703.11015   -544349.34115     -4193.31315        30.70015
> 2025 05 03 07 41 17.9999998  0 13                      
G31  21298446.69227    -91462.92927      -372.98327        47.30027
G29  20445975.14626   -702433.20726     -1925.25826        36.40026
G25  21269070.32916  -1353117.99116     -3599.68716        36.90016
G18  22747060.93716    589448.92516      2018.46616        35.50016
G28  21072806.69925   -768268.65825     -2137.21525        33.70025
G11  25209972.59914  -1690543.62414     -4468.47814        27.10014
G12  24458689.70114    -35930.52514     -4498.68114        26.20014
C30  23300353.70126  -1339152.01026     -3553.34126        39.00026
R09  19156360.62726   -106619.20026      -454.32426        39.20026
C36  23077673.85926   -946067.64026     -3661.84526        37.60026
R10  21632691.89926    846142.94826      2153.95226        38.50026
C29  21514993.38025   -112027.59025      -550.58925        35.30025
R16  21091169.58715   -548588.24915     -4193.25715        31.80015
