     4.01           OBSERVATION DATA    M                   RINEX VERSION / TYPE
GnssLogger          samsung 13          20250510 090045 UTC PGM / RUN BY / DATE
Google GnssLogger                                           MARKER NAME
Unknown                                                     MARKER NUMBER
Unknown             Unknown                                 OBSERVER / AGENCY
Unknown             GnssLogger          v3.1.0.4            REC # / TYPE / VERS
Unknown             Unknown                                 ANT # / TYPE
        0.0000        0.0000        0.0000                  ANTENNA: DELTA H/E/N
G    4 C1C L1C D1C S1C                                      SYS / # / OBS TYPES
R    4 C1C L1C D1C S1C                                      SYS / # / OBS TYPES
C    4 C2C L2C D2C S2C                                      SYS / # / OBS TYPES
  2025    05    10    09    00   45.0000000     GPS         TIME OF FIRST OBS
 4 R02 -4 R09 -2 R16 -1 R18 -3                              GLONASS SLOT / FRQ #
samsung SM-A515F (Android 13) HW Year: 2016 HW Model:       COMMENT
S.LSI,K102                                                  COMMENT
                                                            END OF HEADER
> 2025 05 10 09 00 45.9999999  0 17                      
G31  22799148.97826   -151609.71226     -4110.86326        40.60026
G18  20620381.80726    -47856.76726     -1311.18226        39.70026
G26  20425777.22916    -29143.88416      -809.17516        38.10016
G16  21297766.46325     42481.79625      1132.88025        34.60025
G29  22675435.42315   -139768.80515     -3787.69915        32.30015
G27  23272076.07715     69254.15415      1860.59215        30.40015
G05  23742978.67815    -95846.83615     -2607.51115        30.10015
C29  22371545.10216   -108909.83116     -2954.77616        37.70016
C26  22542250.82416    -19608.11816      -768.11116        35.50016
R09  19212658.05425    -34032.75725      -940.88825        35.10025
C35  22137223.71915      7207.90615       181.40115        34.10015
C13  38189836.32615 -93686776.01915      -576.20615        31.60015
R18  21217365.12415   -165908.28115     -4500.92315        29.60015
C24  25237715.39315 -31161600.54715      1623.44215        33.00015
R02  23811929.74414  15981940.02014      -445.47914        26.80014
R16  21169889.39115   -179964.59915     -4880.12615        35.10015
C08  38593246.05214 -93705202.07014     -1071.20914        25.30014
> 2025 05 10 09 00 46.9999999  0 17                      
G31  22799692.20226   -155715.69026     -4112.29526        40.40026
G18  20620394.39826    -49161.93426     -1310.98626        39.70026
G16  21297314.07616     43620.85316      1133.34616        35.90016
G26  20425689.09016    -29944.37916      -805.07716        37.70016
G27  23271481.88816     71122.07416      1862.81316        35.80016
G29  22675921.68615   -143547.87615     -3783.51715        32.60015
G05  23743237.99815    -98450.35115     -2609.64915        30.00015
C29  22371875.77316   -111857.27916     -2952.43716        37.80016
C08  38593219.97014 -93706269.61414     -1073.71414        26.50014
R18  21217984.49515   -170480.27415     -4499.31415        32.50015
C26  22542159.08816    -20368.16616      -765.85716        35.80016
C35  22136953.30626      7395.81526       182.15326        36.10026
R09  19212591.79925    -34944.24825      -940.51725        35.10025
C24  25237161.67715 -31159974.98215      1618.30515        32.40015
R02  23811789.44114  15981423.91114      -445.38314        29.00014
C13  38189705.01715 -93687344.51015      -573.44615        31.80015
R16  21170571.71815   -184876.10915     -4882.31615        34.10015
> 2025 05 10 09 00 47.9999999  0 16                      
G31  22800253.41326   -159822.71826     -4113.46926        40.30026
G18  20620420.18016    -50469.36816     -1314.48516        39.80016
G16  21296877.57816     44758.90116      1131.62516        37.80016
G26  20425625.83316    -30748.35316      -811.63116        37.50016
G29  22676422.93915   -147331.55715     -3791.90115        33.10015
G05  23743522.80115   -101055.02615     -2611.17115        30.10015
C29  22372223.53216   -114807.32816     -2957.21116        39.10016
C35  22136697.88316      7582.11116       179.62416        36.00016
C26  22542088.03716    -21130.23316      -768.94116        36.50016
R18  21218612.26016   -174998.76516     -4497.36016        35.80016
R09  19212539.03615    -35830.48515      -944.61115        35.20015
C24  25236631.64315 -31158350.56015      1617.98515        33.20015
C13  38189596.49215 -93687915.57715      -578.21815        32.40015
C08  38593204.38115 -93707343.11115     -1082.33815        30.90015
R16  21171269.63515   -189772.29515     -4884.07415        33.10015
R02  23811633.84914  15981085.74214      -439.66914        29.10014
> 2025 05 10 09 00 49.0000001  0 14                      
G26  20425618.33916    -31553.76816      -812.03516        37.30016
G16  21296505.23616     45901.40616      1138.83316        37.50016
G29  22676987.74815   -151114.15215     -3787.95015        33.20015
G05  23743863.66515   -103660.96715     -2612.47115        30.30015
G27  23270398.13915     74856.08215      1859.62315        33.40015
C29  22372631.25016   -117758.34116     -2957.34116        39.10016
C26  22542071.84816    -21888.03816      -761.52016        36.40016
R09  19212549.52915    -36735.06115      -942.77015        35.20015
C35  22136504.51716      7768.33516       180.34216        35.90016
C13  38189543.12915 -93688484.70615      -574.00715        32.40015
C24  25236160.67015 -31156733.97815      1606.81615        33.00015
C08  38593247.25115 -93708416.67015     -1079.43515        30.50015
R16  21172069.78115   -194895.48415     -4883.22315        32.00015
R02  23811563.69714  15980613.19014      -441.98014        28.70014
> 2025 05 10 09 00 49.9999998  0 6                      
G05  23744036.04615   -106262.99815     -2605.92015        30.20015
G27  23269719.40815     76720.44615      1858.49915        32.00015
C35  22136139.07015      7951.58315       175.96815        35.40015
C08  38593118.34015 -93709490.39215     -1079.59615        29.70015
R16  21172644.18315   -199710.67915     -4859.52315        30.80015
R02  23811304.37714  15980251.30814      -447.33814        27.90014
> 2025 05 10 09 00 51.0000001  0 11                      
G31  22801989.51115   -172158.05615     -4119.04715        33.20015
G16  21295609.75615     48194.72915      1138.88215        34.10015
G27  23269238.24215     78581.23815      1853.08715        30.60015
G18  20620564.38015    -54381.85915     -1308.57115        32.90015
C35  22135975.38315      8133.86515       175.93415        34.60015
C29  22373309.98015   -123657.12915     -2955.06415        33.30015
C26  22541912.95815    -23403.56415      -768.60415        32.20015
C08  38593194.78714 -93710570.17014     -1088.66814        28.90014
R16  21173400.86015   -204439.47515     -4853.35215        29.70015
R02  23811302.27814  15979574.90214      -439.01914        27.10014
C24  25235085.01414 -31153517.97414      1601.67914        29.30014
> 2025 05 10 09 00 52.0000000  0 10                      
G27  23268639.55614     80440.51014      1852.61014        29.30014
G16  21295142.38015     49338.02315      1136.17415        31.90015
G31  22802523.14215   -176269.67515     -4117.51615        31.30015
G18  20620567.67815    -55685.69015     -1309.73015        30.60015
R16  21174090.08214   -209450.30214     -4835.13214        28.60014
C08  38593151.01814 -93711652.27714     -1089.11714        28.00014
C26  22541818.52415    -24165.35115      -767.63315        30.50015
R02  23811124.20214  15979198.55314      -440.54314        26.30014
C29  22373638.55215   -126605.58715     -2954.30215        31.10015
C24  25234518.70614 -31151910.09014      1602.03614        27.70014
> 2025 05 10 09 00 53.0000000  0 11                      
G27  23268060.95714     82299.00314      1852.20314        28.10014
G16  21294704.08315     50486.00215      1144.42115        30.20015
G31  22803082.55415   -180378.81815     -4113.80215        29.60015
G18  20620592.26114    -56989.52114     -1309.72914        28.60014
R16  21174756.22114   -214177.56914     -4828.06314        27.70014
C08  38593147.42014 -93712737.30114     -1092.32814        27.20014
R02  23810984.19914  15978777.15214      -450.19614        25.50014
C26  22541744.47514    -24930.25614      -772.30914        29.00014
C29  22373985.71214   -129551.26914     -2950.13814        29.20014
C24  25233985.07614 -31150304.96914      1597.89314        26.20014
C13  38189057.76514 -93690756.41114      -578.41114        24.60014
> 2025 05 10 09 00 54.0000000  0 8                      
G27  23267458.67414     84155.36914      1849.45414        27.00014
G16  21294251.99614     51638.31814      1148.63914        28.50014
G31  22803621.58114   -184479.53914     -4102.35014        27.90014
G18  20620601.85414    -58291.57914     -1307.01614        26.60014
R16  21175422.36014   -219001.93914     -4812.30014        26.90014
C26  22541650.64014    -25696.50414      -772.71114        27.50014
C29  22374310.38714   -132498.02514     -2953.08214        27.30014
C24  25233438.55414 -31148703.68314      1593.57414        24.70014
> 2025 05 10 09 00 55.0000000  0 10                      
G27  23266891.16614     86011.05414      1849.42514        26.10014
G16  21293816.09814     52797.44614      1156.61414        27.00014
G31  22804176.79714   -188576.56514     -4101.09514        26.40014
G18  20620641.12714    -59594.61314     -1309.43914        25.00014
G05  23745446.86913   -119266.49813     -2606.33913        21.30013
R16  21176149.35714   -224054.80714     -4801.46714        26.20014
C26  22541577.19114    -26468.18314      -780.25914        26.10014
C29  22374661.74414   -135447.02214     -2955.98114        25.60014
C24  25232917.21513 -31147105.94313      1590.10313        23.40013
C13  38188801.44313 -93691904.03213      -581.34613        22.00013
> 2025 05 10 09 00 56.0000000  0 10                      
G27  23266317.96314     87862.76014      1843.81514        25.20014
G16  21293380.20014     53963.07514      1162.98014        25.70014
G31  22804740.40714   -192667.99114     -4094.52414        25.10014
G18  20620674.40414    -60901.68714     -1314.99414        23.60014
G05  23745712.48513   -121865.50113     -2604.17713        19.90013
R16  21176798.70714   -228692.64714     -4790.87214        25.50014
C26  22541522.02914    -27243.44914      -782.90514        24.80014
C29  22375012.50114   -138396.83914     -2956.07114        24.20014
C24  25232386.58213 -31145504.66813      1597.19413        22.30013
C13  38188695.61613 -93692481.31713      -584.45013        20.80013
> 2025 05 10 09 00 56.9999999  0 8                      
G27  23265703.68814     89708.93914      1837.51514        24.50014
G16  21292913.42314     55133.02014      1166.20214        24.60014
G31  22805268.64114   -196748.32414     -4080.68214        24.00014
G18  20620681.29913    -62210.61813     -1315.75813        22.50013
C26  22541417.10214    -28024.69414      -790.07914        23.80014
C29  22375322.48713   -141346.18913     -2954.96013        23.00013
C24  25231832.86613 -31143902.44013      1596.85713        21.30013
C35  22134368.19613      9302.27813       198.07113        21.10013
> 2025 05 10 09 00 57.9999999  0 8                      
G27  23265124.19014     91548.36314      1830.14514        23.80014
G16  21292478.42414     56307.07314      1170.20614        23.70014
G31  22805839.14613   -200821.28713     -4075.17713        23.00013
G18  20620714.57613    -63524.97213     -1322.96413        21.50013
C26  22541343.35313    -28814.83813      -800.44013        22.90013
C29  22375668.44713   -144295.70313     -2955.44113        21.90013
C24  25231304.93113 -31142296.46113      1602.00813        20.50013
C35  22134106.77713      9507.83713       199.71313        20.20013
> 2025 05 10 09 00 58.9999999  0 8                      
G27  23264548.88813     93383.24313      1826.76213        23.20013
G16  21292008.34913     57490.77913      1182.68613        23.00013
G31  22806379.37213   -204889.47813     -4071.64613        22.20013
G18  20620735.26213    -64843.77713     -1326.87513        20.60013
C26  22541261.80913    -29613.97113      -809.41913        22.10013
C29  22375988.62513   -147242.55613     -2951.31213        21.10013
C24  25230760.20813 -31140686.82913      1605.66513        19.90013
C35  22133821.97413      9716.94813       205.09413        19.40013
> 2025 05 10 09 00 59.9999999  0 8                      
G27  23263980.18213     95211.37113      1818.83313        22.70013
G16  21291556.56213     58683.56313      1191.40513        22.40013
G31  22806931.89013   -208948.83813     -4060.86013        21.50013
G18  20620766.14113    -66165.31313     -1328.81813        19.90013
C26  22541205.44813    -30422.67813      -819.35813        21.50013
C29  22376332.78713   -150188.52313     -2951.38613        20.40013
C24  25230226.27813 -31139069.44613      1615.39313        19.30013
C35  22133568.34913      9930.37713       209.72413        18.70013
> 2025 05 10 09 01 00.9999998  0 8                      
G27  23263384.19413     97031.03313      1809.52713        22.20013
G16  21291085.28813     59880.50113      1193.11313        21.80013
G31  22807461.32313   -213002.32613     -4056.44913        20.90013
G18  20620773.03613    -67492.83213     -1336.41013        19.30013
C26  22541108.31513    -31239.21113      -826.29213        20.90013
C29  22376660.46013   -153134.23513     -2951.42913        19.90013
C24  25229662.96813 -31137444.72813      1622.53813        18.90013
C35  22133268.25713     10147.03413       212.42513        18.10013
> 2025 05 10 09 01 02.0000001  0 7                      
G27  23262921.01513     98842.87713      1802.03413        21.70013
G31  22808100.78013   -217050.90513     -4052.02113        20.40013
G18  20620893.25313    -68827.02613     -1343.43013        18.80013
C26  22541146.68913    -32064.64213      -835.72513        20.40013
C29  22377096.35913   -156078.40413     -2949.24213        19.40013
C24  25229209.38213 -31135814.48513      1627.15713        18.40013
C35  22133101.87213     10367.18813       216.05613        17.60013
> 2025 05 10 09 06 17.9999984  0 11                      
G26  20408256.75826     -3979.63926     -1001.74226        40.80026
G18  20634707.38916     -4507.90616     -1507.39016        39.20016
G31  22987557.74516    -12630.82816     -4217.45716        38.00016
G16  21155718.20115       999.87715       993.97715        32.90015
R02  23772919.85016      -732.14316      -707.26816        40.00016
R09  19205326.62917     -3757.17717     -1227.64717        43.30017
R18  21424667.11217 -16012262.05317     -4570.11217        42.60017
R16  21403317.39216     -9801.86116     -5031.31416        35.60016
C24  25062568.24525      3069.88225      1529.07825        34.90025
C20  26480835.09925                      1172.81025        31.30025
C08  38589454.57615     -2288.76015     -1148.60715        30.20015
> 2025 05 10 09 06 18.9999999  0 14                      
G05  23840068.86426                     -2818.96426        35.70026
G18  20634833.30216     -6007.22216     -1503.43716        38.40016
G16  21155358.75015      2001.32815       996.44115        34.50015
G26  20408236.97216     -4535.31316     -1002.04116        39.60016
G29  22842251.63815     -3834.14315     -3836.63815        33.70015
G31  22988195.10416    -16841.48116     -4216.19816        37.00016
R02  23772875.78116     -1415.49816      -705.68316        40.50016
R18  21425348.84017 -16016818.81317     -4570.18917        41.90017
R09  19205377.59417     -4947.58517     -1229.38117        42.40017
C29  22488136.78725                     -3034.82825        34.70025
R16  21404098.65116    -14894.55816     -5033.51816        36.10016
C24  25062105.06625      4604.90525      1529.32825        34.80025
C08  38589505.24115     -3431.29615     -1148.15915        30.40015
C20  26480448.66715      1177.13115      1171.35315        31.10015
> 2025 05 10 09 06 19.9999999  0 13                      
G31  22988767.70716    -21053.23816     -4218.18816        36.30016
G05  23840378.54916     -2812.35416     -2818.21516        35.60016
G16  21154929.14725      3002.72525       995.49025        34.80025
G29  22842747.79515     -7663.50815     -3835.22615        33.40015
G18  20634886.06616     -7502.70716     -1499.45016        35.70016
R02  23772776.24916     -2149.97616      -709.27516        40.50016
R09  19205372.49717     -6186.85417     -1229.22817        41.60017
R18  21425959.81716 -16021345.74416     -4570.22416        41.20016
R16  21404805.26216    -19934.47416     -5035.25516        36.00016
C24  25061567.83825      6139.56825      1528.65525        34.90025
C20  26479991.18415      2351.49315      1167.15015        30.90015
C29  22488470.15615     -3029.10115     -3034.90815        34.20015
C08  38589486.05515     -4575.57815     -1150.98315        30.30015
