     4.01           OBSERVATION DATA    M                   RINEX VERSION / TYPE
GnssLogger          samsung 13          20250510 095356 UTC PGM / RUN BY / DATE
Google GnssLogger                                           MARKER NAME
Unknown                                                     MARKER NUMBER
Unknown             Unknown                                 OBSERVER / AGENCY
Unknown             GnssLogger          v3.1.0.4            REC # / TYPE / VERS
Unknown             Unknown                                 ANT # / TYPE
        0.0000        0.0000        0.0000                  ANTENNA: DELTA H/E/N
G    4 C1C L1C D1C S1C                                      SYS / # / OBS TYPES
R    4 C1C L1C D1C S1C                                      SYS / # / OBS TYPES
C    4 C2C L2C D2C S2C                                      SYS / # / OBS TYPES
  2025    05    10    09    53   56.0000000     GPS         TIME OF FIRST OBS
 1 R09 -2                                                   GLONASS SLOT / FRQ #
samsung SM-A515F (Android 13) HW Year: 2016 HW Model:       COMMENT
S.LSI,K102                                                  COMMENT
                                                            END OF HEADER
> 2025 05 10 09 53 56.9999999  0 14                      
G18  21231459.86627    -56354.91427     -2975.54627        42.20027
G16  20357891.02516   -102725.56216      -521.55916        41.10016
G26  20771912.50416   -835248.56816     -2692.66316        36.10016
G10  23875363.13026     33557.17826      2230.46126        35.70026
G27  21609153.09515    319027.99415      1193.00115        33.60015
G29  24389179.52215   -500517.30115     -4188.66415        34.20015
G31  24790564.44913    -69302.97713     -4614.29213        21.40013
C29  23655468.96027    -63194.32827     -3518.10027        41.60027
C13  38027811.69426    -97509.39126     -1231.47626        39.80026
C24  23858579.84926    124970.08026       415.36926        38.80026
C35  21627856.54627   -174710.87527      -853.26827        46.40027
R09  19879571.85916   -722702.86716     -3643.91316        36.00016
C26  22837498.12915   -627586.60315     -2526.39615        31.70015
C08  38745902.77015    -29562.85215     -1747.09015        30.30015
> 2025 05 10 09 53 57.9999999  0 15                      
G26  20772202.10416   -837936.27716     -2694.00816        36.00016
G18  21231805.82726    -59325.20526     -2976.57326        41.10026
G10  23874723.97316     35793.79816      2230.87916        35.60016
G27  21608706.10415    320225.49815      1191.00615        33.60015
G16  20357772.30716   -103242.66616      -523.96616        39.50016
G29  24389756.02315   -504699.27015     -4187.89615        33.10015
G31  24791232.38713    -73912.12113     -4615.35513        21.10013
C29  23655924.34426    -66706.47826     -3518.01526        41.40026
C13  38027829.08226    -98735.18026     -1231.78026        39.70026
C24  23858279.75716    125389.90116       413.19216        38.70016
C26  22837769.44115   -630104.06515     -2521.94515        31.80015
R09  19880020.94815   -726267.88015     -3640.81715        35.20015
C08  38746021.48715    -31304.17115     -1747.33815        30.10015
C35  21627802.28417   -175558.12317      -853.13817        44.10017
C20  25454923.42315      1603.34015       107.56615        33.90015
> 2025 05 10 09 53 58.9999998  0 15                      
G18  21232123.60726    -62296.27826     -2977.36226        39.80026
G27  21608231.53315    321422.23815      1190.45615        33.50015
G26  20772463.52316   -840622.93916     -2692.03616        35.50016
G16  20357623.01116   -103761.04116      -524.91116        37.70016
G10  23874041.34515     38030.19215      2230.38115        34.60015
G29  24390308.84115   -508884.45115     -4192.68315        32.10015
G31  24791858.95313    -78521.71313     -4615.71213        20.80013
C13  38027814.09226    -99961.36026     -1232.22226        39.60026
C29  23656350.05026    -70219.04026     -3518.61126        40.30026
C24  23857952.38316    125809.79016       414.07716        37.90016
C35  21627714.14516   -176405.92216      -853.92016        40.80016
C26  22838004.77815   -632624.42015     -2527.64515        31.80015
R09  19880464.94115   -729967.36915     -3640.80015        34.40015
C08  38746107.52815    -33047.12815     -1749.62015        30.00015
C20  25454649.71315      1715.86515       106.67915        32.60015
> 2025 05 10 09 53 59.9999999  0 15                      
G18  21232482.15816    -65264.65216     -2973.61816        38.70016
G27  21607793.83625    322619.87725      1192.24425        33.60025
G16  20357508.49016   -104279.73616      -524.69916        36.40016
G26  20772767.81215   -843314.47615     -2699.81715        34.80015
G10  23873413.28015     40268.05415      2232.74815        33.50015
G29  24390905.72715   -513067.90515     -4188.43315        31.20015
G31  24792537.08413    -83132.19513     -4616.76913        20.50013
C24  23857660.38516    126230.57116       415.43516        37.00016
C29  23656818.02616    -73730.81216     -3517.16516        39.10016
C26  22838275.79115   -635145.93315     -2527.88215        31.80015
R09  19880930.21815   -733558.39915     -3648.92115        33.70015
C35  21627674.57216   -177254.31516      -854.48116        38.50016
C08  38746239.43715    -34788.48215     -1746.34315        29.90015
C13  38027839.87416   -101185.87716     -1229.47516        38.00016
C20  25454423.07015      1826.33915       103.65615        31.60015
> 2025 05 10 09 54 00.9999998  0 10                      
G27  21607316.86615    323811.38915      1182.52815        33.60015
G16  20357357.09515   -104797.64815      -523.43715        35.20015
G26  20773034.62715   -846011.98115     -2706.40515        33.90015
G10  23872735.44915     42505.05715      2230.65415        32.40015
G29  24391447.75215   -517245.78815     -4181.01215        30.40015
G31  24793163.05013    -87740.71113     -4613.44713        20.20013
C24  23857328.81516    126657.02916       423.43216        36.20016
C29  23657244.03116    -77246.09516     -3522.90116        37.70016
C26  22838519.22215   -637666.80315     -2526.41115        31.70015
C20  25454150.25815      1932.91515        98.76215        30.70015
> 2025 05 10 09 54 03.0000001  0 8                      
G16  20357191.31015   -105829.40215      -520.96415        31.80015
G27  21606508.32614    326168.99814      1179.56014        28.70014
G26  20773694.77015   -851434.17215     -2721.40015        30.70015
G31  24794554.98713    -96945.64713     -4602.06413        19.70013
C24  23856804.17815    127516.86615       412.82915        32.40015
C26  22839116.40914   -642698.45114     -2528.25114        28.20014
C29  23658228.54915    -84284.88615     -3524.96315        31.40015
R09  19882369.82214   -744528.53814     -3649.67714        26.10014
> 2025 05 10 09 54 04.0000000  0 11                      
G16  20357045.91016   -106349.81416      -528.78716        35.90016
G27  21606025.95915    327363.94815      1189.04915        31.60015
G26  20773950.49315   -854129.37515     -2692.05715        29.60015
G18  21233860.90414    -77108.50914     -2978.02014        28.30014
G31  24795186.35013   -101539.94613     -4597.69113        19.40013
C24  23856478.30415    127933.48815       410.77515        33.10015
C35  21627460.22115      -849.46015      -854.85215        29.90015
C26  22839350.84614   -645222.03314     -2529.42614        28.10014
R09  19882806.91914   -748189.82414     -3651.28614        26.20014
C29  23658658.75114    -87803.14214     -3524.10014        29.30014
C08  38746723.00213    -41747.56413     -1749.81613        18.00013
> 2025 05 10 09 54 05.0000000  0 12                      
G16  20356922.39626   -106870.85926      -527.26126        35.70026
G27  21605575.97115    328558.40115      1188.30415        33.70015
G26  20774240.39314   -856820.10014     -2694.38514        29.40014
G18  21234215.55814    -80084.66714     -2982.05614        27.40014
G31  24795853.38813   -106133.04813     -4598.40013        19.20013
C26  22839622.45815   -647746.33415     -2530.50515        32.70015
C35  21627409.25615     -1700.25815      -856.64315        32.80015
C24  23856177.61215    128349.41915       409.74015        33.10015
R09  19883268.89914   -751825.89614     -3653.26914        28.60014
C29  23659112.33714    -91318.31714     -3519.47814        28.10014
C08  38746838.42213    -43490.06813     -1748.34913        19.80013
C20  25453246.98413      2351.65113       100.50313        22.30013
> 2025 05 10 09 54 06.0000000  0 12                      
G27  21605109.79415    329753.19215      1189.11415        33.70015
G16  20356799.48115   -107391.54315      -526.34915        35.30015
G26  20774518.30014   -859515.29314     -2703.26914        29.30014
G18  21234548.02814    -83064.25114     -2987.13814        26.90014
G31  24796491.94613   -110722.60413     -4593.62413        19.00013
C35  21627335.50715     -2549.71515      -854.57715        32.70015
C24  23855866.72715    128761.96815       405.06615        32.80015
C26  22839867.68915   -650270.44615     -2529.80615        32.60015
R09  19883723.98414   -755521.60214     -3657.06014        28.50014
C29  23659549.73514    -94834.16114     -3521.96614        27.20014
C08  38746936.45413    -45230.70113     -1745.48913        20.90013
C20  25452987.06413      2457.41013        99.94813        21.50013
> 2025 05 10 09 54 07.0000000  0 8                      
G26  20774816.59414   -862209.13114     -2699.07714        29.10014
G18  21234881.39814    -86044.48514     -2986.47614        26.20014
G31  24797144.89413   -115301.85813     -4580.01813        18.70013
C26  22840133.90415   -652797.11015     -2533.80415        32.10015
R09  19884184.46614   -759149.26914     -3660.08214        28.20014
C29  23660007.51814    -98351.41614     -3523.82414        26.40014
C08  38747054.27213    -46970.66913     -1745.49813        20.90013
C20  25452746.93013      2566.24013       104.50113        20.80013
> 2025 05 10 09 57 21.0000003  0 5                      
G27  21517934.94414      5755.93614      1144.35814        28.90014
G16  20334556.67914     -2535.30014      -636.32514        28.00014
G26  20832701.72114    -19554.10514     -2795.50114        26.20014
C26  22892434.19824                     -2616.52924        27.10024
R09  19975690.71714     -3776.65414     -3781.02114        25.10014
> 2025 05 10 09 57 22.0000000  0 7                      
G27  21517474.16314      6901.77214      1137.33214        29.00014
G16  20334438.26114     -3168.63214      -639.80214        28.10014
G26  20832997.61614    -22350.81614     -2805.73914        26.30014
G18  21302954.67113     -9145.54313     -3056.74213        23.10013
C26  22892719.90014     -2615.04814     -2620.85614        28.40014
C24  23797952.22124                       320.30824        26.30024
R09  19976157.19414     -7523.55314     -3789.81514        25.10014
> 2025 05 10 09 57 23.0000000  0 7                      
G27  21517034.36714      8049.02014      1142.03514        29.20014
G16  20334345.02614     -3802.19814      -639.60114        28.10014
G26  20833312.69814    -25146.29114     -2800.77314        26.40014
G18  21303340.50413    -12199.06013     -3059.41513        23.10013
C26  22893010.99814     -5234.31014     -2627.23314        29.20014
C24  23797670.41614       328.48614       322.64014        28.10014
R09  19976619.47414    -11160.38914     -3794.52214        25.20014
> 2025 05 10 09 57 24.0000000  0 7                      
G27  21516581.08114      9198.51214      1144.76814        29.20014
G16  20334231.40514     -4435.36914      -638.81914        28.10014
G26  20833601.99714    -27943.51414     -2803.94014        26.40014
G18  21303676.57213    -15254.45913     -3062.18113        23.10013
C26  22893273.61614     -7851.02314     -2621.22714        29.10014
C24  23797378.71814       656.02614       321.27414        28.40014
R09  19977100.94114    -14997.44214     -3795.41814        25.20014
> 2025 05 10 09 57 25.0000000  0 8                      
G27  21516144.88314     10347.55214      1142.89614        29.20014
G16  20334130.07514     -5073.43014      -646.42314        28.10014
G26  20833916.48014    -30739.99014     -2802.01914        26.60014
G18  21304032.12513    -18310.95813     -3062.96513        23.00013
C26  22893559.31914    -10469.89914     -2625.82014        29.00014
C24  23797095.11414       981.82914       319.07014        28.60014
C35  21616277.36314      -903.59714      -909.14314        26.50014
R09  19977614.18514    -18906.28014     -3789.07914        25.10014
> 2025 05 10 09 57 25.9999999  0 8                      
G27  21515679.90514     11497.70414      1144.80614        29.20014
G16  20333999.66514     -5710.57214      -642.58214        28.10014
G26  20834207.87814    -33534.85114     -2799.95114        26.70014
G18  21304364.89513    -21365.28013     -3059.13213        23.00013
C26  22893810.84514    -13090.01114     -2626.57414        29.00014
C24  23796784.52914      1307.39214       319.59714        28.70014
C35  21616200.31614     -1807.34914      -909.59714        28.10014
R09  19978046.48614    -22543.88014     -3797.16514        25.20014
> 2025 05 10 09 57 26.9999999  0 8                      
G27  21515244.30614     12647.11214      1143.13614        29.30014
G16  20333906.13014     -6346.02414      -640.50614        28.00014
G26  20834518.46314    -36332.27214     -2804.59914        26.80014
G18  21304733.34013    -24419.17213     -3059.57413        23.00013
C26  22894093.54914    -15707.10614     -2621.43114        29.10014
C24  23796497.92714      1634.22414       321.62114        28.90014
C35  21616162.84214     -2707.50914      -904.21014        28.30014
R09  19978523.45614    -26258.64814     -3796.54814        25.20014
> 2025 05 10 09 57 27.9999999  0 8                      
G27  21514781.12714     13792.01314      1136.80214        29.20014
G16  20333796.40614     -6981.64014      -641.54314        28.00014
G26  20834811.66014    -39137.18614     -2814.50314        26.70014
G18  21305069.10813    -27470.76813     -3056.29113        23.00013
C26  22894368.45914    -18326.32514     -2626.07114        29.00014
C24  23796198.73414      1968.85414       332.73714        28.80014
C35  21616121.47014     -3612.17214      -912.70514        28.20014
R09  19978995.92914    -30047.56914     -3802.98014        25.10014
