     4.01           OBSERVATION DATA    M                   RINEX VERSION / TYPE
GnssLogger          samsung 13          20250503 083538 UTC PGM / RUN BY / DATE
Google GnssLogger                                           MARKER NAME
Unknown                                                     MARKER NUMBER
Unknown             Unknown                                 OBSERVER / AGENCY
Unknown             GnssLogger          v3.1.0.4            REC # / TYPE / VERS
Unknown             Unknown                                 ANT # / TYPE
        0.0000        0.0000        0.0000                  ANTENNA: DELTA H/E/N
G    4 C1C L1C D1C S1C                                      SYS / # / OBS TYPES
R    4 C1C L1C D1C S1C                                      SYS / # / OBS TYPES
C    4 C2C L2C D2C S2C                                      SYS / # / OBS TYPES
  2025    05    03    08    35   38.0000000     GPS         TIME OF FIRST OBS
 5 R02 -4 R09 -2 R10 -7 R16 -1 R23  3                       GLONASS SLOT / FRQ #
samsung SM-A515F (Android 13) HW Year: 2016 HW Model:       COMMENT
S.LSI,K102                                                  COMMENT
                                                            END OF HEADER
> 2025 05 03 08 35 38.9999999  0 12                      
G31  21446102.57226    -33222.08526     -2570.79126        39.20026
G28  22239857.96725    -51608.21225     -3983.68625        32.70025
G26  21195143.60725      9921.10225       749.11425        32.10025
G18  21136949.39414      7268.26814       544.31314        28.60014
G29  21272585.99515    -40608.16715     -3140.67315        30.30015
G05  23519848.84714     -6397.32614      -507.99614        28.20014
G16  23016813.29214     25552.12414      1961.77214        26.70014
G20  24646492.88813    -31429.88913     -2893.28513        18.40013
C29  21561315.81215    -25961.96115     -2008.04415        30.50015
R10  19898378.73914     10245.20514       784.67714        27.20014
R09  19365554.30614     -8409.86814     -2809.70714        27.00014
C30  24976780.23514    -49710.81714     -4153.03814        25.70014
> 2025 05 03 08 35 39.9999999  0 12                      
G31  21446352.29926    -35787.37326     -2571.74826        39.20026
G28  22240372.41125    -55586.23825     -3984.32525        32.70025
G26  21194764.37015     10675.07115       747.26215        32.10015
G29  21272939.15115    -43740.76515     -3139.96115        30.00015
G18  21136607.03114      7817.09514       541.70114        28.60014
G05  23519704.64714     -6901.79614      -512.41514        28.10014
G16  23016207.11114     27515.12314      1955.25814        25.90014
G20  24646807.07113    -34316.94913     -2893.19913        18.20013
C29  21561466.30715    -27969.78615     -2016.18415        30.40015
R10  19897985.71114     11076.59414       784.34914        27.40014
R09  19365849.30214    -11251.36214     -2810.62814        26.80014
C30  24977338.74814    -53856.36214     -4150.83414        25.60014
> 2025 05 03 08 35 41.0000000  0 13                      
G31  21446636.80226    -38353.69626     -2572.70226        39.20026
G18  21136297.04615      8367.82215       545.81215        30.90015
G28  22240928.52625    -59565.57025     -3985.84625        32.60025
G26  21194416.61115     11426.28915       743.97915        32.00015
G29  21273333.97715    -46874.06815     -3139.51715        30.60015
G05  23519579.03414     -7402.76514      -505.08214        27.90014
G16  23015627.31314     29471.50514      1947.20914        25.60014
G20  24647144.03713    -37198.73213     -2885.00513        18.00013
R09  19366161.98515    -14026.38215     -2815.33815        31.10015
C29  21561643.78515    -29977.29115     -2013.64415        30.70015
R10  19897656.83914     11725.69414       785.84614        27.50014
C30  24977917.64714    -58003.98914     -4154.47514        25.60014
C36  24884128.77613     -8955.32213     -4485.58813        20.70013
> 2025 05 03 08 35 42.0000000  0 13                      
G31  21446887.12926    -40921.27926     -2574.07526        39.20026
G18  21135960.97916      8916.72516       542.12816        38.60016
G28  22241449.86525    -63545.43525     -3985.99125        32.70025
G26  21194025.68115     12179.90215       748.94715        31.90015
G29  21273695.82715    -50009.54815     -3142.42915        31.00015
G05  23519458.51814     -7903.78114      -506.90214        27.80014
G16  23015026.52914     31428.69514      1951.72914        25.50014
G20  24647453.12313    -40064.22113     -2863.20413        18.20013
R09  19366464.47616    -16907.60616     -2816.59316        36.20016
C29  21561790.98315    -31984.90615     -2013.93715        31.90015
R10  19897256.31614     12596.74214       779.70614        27.50014
C30  24978475.86114    -62151.69414     -4153.55114        25.70014
C36  24884752.04514    -13434.41714     -4484.90214        23.50014
> 2025 05 03 08 35 43.0000000  0 13                      
G31  21447142.55226    -43489.98326     -2575.12426        39.10026
G18  21135622.21326      9464.41726       541.22326        38.60026
G28  22241970.30425    -67526.37125     -3987.33125        32.80025
G29  21274051.98015    -53144.58715     -3140.68015        31.90015
G26  21193647.64315     12932.72315       746.56015        31.70015
G05  23519304.72414     -8409.70614      -514.24314        27.70014
G16  23014422.14714     33385.95014      1951.42314        25.60014
G20  24647753.21613    -42920.28413     -2857.21013        18.30013
R09  19366752.57626    -19712.42426     -2817.60126        36.30026
C29  21561939.68015    -33993.81915     -2015.93115        33.00015
R10  19896877.37814     13353.39114       790.21814        27.50014
C30  24979044.26714    -66300.76814     -4155.56414        25.70014
C36  24885373.21514    -17912.74514     -4483.75114        24.10014
> 2025 05 03 08 35 44.0000000  0 13                      
G31  21447394.07826    -46059.58126     -2575.90726        39.00026
G18  21135281.04926     10011.23526       540.51626        38.50026
G28  22242489.54525    -71507.98825     -3987.81825        32.90025
G29  21274414.13015    -56279.84215     -3141.22315        32.50015
G26  21193277.69915     13683.31415       743.61215        31.50015
G05  23519170.41714     -8917.38314      -514.41614        27.60014
G16  23013828.25814     35344.36814      1953.13414        25.70014
G20  24648059.30413    -45770.81713     -2853.62813        18.70013
R09  19367043.07526    -22529.46726     -2818.67526        36.30026
C36  24885991.98614    -22391.67314     -4485.03414        26.30014
C29  21562088.37715    -36003.26615     -2014.74115        33.50015
R10  19896478.35514     14216.04414       782.72114        27.40014
C30  24979594.08714    -70452.35014     -4158.64414        25.60014
> 2025 05 03 08 35 45.0000001  0 13                      
G18  21134969.86526     10557.13926       539.58526        39.00026
G31  21447678.58126    -48630.13426     -2576.89226        39.00026
G28  22243045.36025    -75490.48325     -3988.79425        33.00025
G29  21274802.66125    -59415.71725     -3142.04725        32.80025
G26  21192927.84115     14431.36115       740.91215        31.40015
G05  23519068.18814     -9424.85614      -513.23414        27.50014
G16  23013256.55414     37301.88414      1951.20114        25.70014
G20  24648382.78013    -48620.12913     -2854.56313        19.60013
R09  19367359.05626    -25322.05926     -2819.56126        36.20026
C29  21562266.75315    -38013.57115     -2017.14015        33.90015
C36  24886638.93815    -26871.93415     -4486.73415        32.60015
R10  19896131.49514     14960.48814       782.41114        27.30014
C30  24980183.47914    -74606.94314     -4161.90514        25.50014
> 2025 05 03 08 35 45.9999998  0 14                      
G18  21134540.86226     11102.40526       539.08326        39.10026
G31  21447840.16926    -51201.36026     -2577.42326        38.90026
G28  22243478.56025    -79473.36925     -3988.94125        33.10025
G29  21275070.67525    -62551.90725     -3142.20725        32.90025
G26  21192470.05815     15180.03815       743.12815        31.20015
G05  23518841.54514     -9932.34214      -513.35614        27.40014
G16  23012576.02514     39257.76514      1949.19814        25.60014
G20  24648607.62413    -51468.39913     -2853.61113        19.80013
C35  23284068.97416     17128.48416      1130.39316        37.50016
R09  19367554.52126    -28111.59726     -2820.43126        36.20026
C29  21562325.21315    -40024.20515     -2016.27915        34.20015
C36  24887174.96725    -31352.56125     -4486.61725        33.20025
R10  19895650.02814     15785.01014       783.29214        27.20014
C30  24980655.95214    -78762.39914     -4161.69514        25.30014
> 2025 05 03 08 35 46.9999999  0 13                      
G18  21134229.37726     11647.04126       538.45726        39.30026
G31  21448122.27426    -53773.40126     -2578.31026        38.90026
G28  22244026.88125    -83456.84425     -3989.63125        33.20025
G29  21275464.60225    -65688.61125     -3142.82325        33.00025
G26  21192109.70815     15931.28615       746.67015        31.00015
G05  23518737.51714    -10440.84814      -514.87814        27.20014
G16  23011981.23714     41216.22814      1953.88914        25.50014
G20  24648937.39613    -54314.20913     -2850.44013        19.80013
C35  23283645.96726     18264.38126      1130.08626        37.20026
R09  19367877.99726    -30945.44826     -2821.25726        36.10026
C29  21562505.38825    -42035.43825     -2017.04225        34.40025
C36  24887831.21325    -35833.56425     -4486.99725        33.20025
R10  19895294.77414     16574.44814       781.23714        27.00014
> 2025 05 03 08 35 47.9999999  0 14                      
G18  21133888.81326     12190.69926       537.30626        39.50026
G31  21448374.99926    -56346.35826     -2579.27626        38.80026
G28  22244544.92225    -87441.08325     -3990.48125        33.30025
G29  21275827.35125    -68825.85525     -3143.37525        33.10025
G26  21191740.36315     16677.66815       738.08515        30.80015
G05  23518590.31914    -10949.27314      -514.24814        27.10014
G16  23011357.36914     43174.00514      1951.57014        25.40014
G20  24649245.28313    -57156.20913     -2845.95713        19.80013
C35  23283191.18226     19399.67526      1129.18226        36.90026
R09  19368168.79626    -33763.25426     -2822.16826        36.00026
C29  21562653.78525    -44047.34625     -2018.05425        34.60025
C36  24888458.67925    -40315.25525     -4487.84225        33.10025
R10  19894912.23914     17349.39114       770.63914        26.90014
C30  24981814.94913    -87061.41013     -4150.27113        23.20013
> 2025 05 03 08 35 48.9999999  0 14                      
G18  21133549.74826     12733.61326       536.67826        39.70026
G31  21448626.52526    -58920.13426     -2580.04726        38.70026
G28  22245070.75825    -91425.87725     -3990.93125        33.50025
G29  21276191.59925    -71964.06125     -3143.79625        33.20025
G26  21191345.53715     17425.89815       743.29015        30.60015
G05  23518436.52514    -11460.98114      -519.21214        27.00014
G16  23010746.09214     45128.96114      1947.68014        25.20014
G20  24649540.27813    -60008.48813     -2863.27813        19.80013
R09  19368456.89626    -36568.07326     -2823.47726        35.90026
C35  23282735.79726     20534.50426      1128.78626        36.70026
C29  21562802.48225    -46059.83325     -2018.58525        34.90025
C36  24889081.64725    -44797.13325     -4487.77825        33.00025
R10  19894511.11714     18224.25814       773.79614        26.80014
C30  24982378.25913    -91210.59213     -4156.08813        22.50013
> 2025 05 03 08 35 49.9999999  0 14                      
G18  21133209.18426     13276.01926       536.28826        39.90026
G31  21448880.14926    -61494.54026     -2580.58326        38.70026
G28  22245596.29425    -95411.05525     -3991.23025        33.80025
G29  21276554.04815    -75101.22615     -3143.50615        33.20015
G26  21190976.49215     18173.73915       741.78315        30.50015
G05  23518307.61414    -11972.00014      -516.53814        26.90014
G16  23010146.80714     47083.51414      1948.48714        25.00014
G20  24649865.25313    -62869.45313     -2871.16913        20.00013
R09  19368749.79426    -39398.10526     -2823.72226        36.00026
C35  23282281.31226     21669.14226      1128.73126        36.50026
C29  21562955.37725    -48072.65025     -2018.79025        34.90025
C36  24889703.41715    -49278.74615     -4487.28615        32.90015
R10  19894121.38614     19038.10414       773.04214        26.60014
C30  24982933.17513    -95359.12013     -4154.00613        21.90013
> 2025 05 03 08 35 51.0000000  0 14                      
G18  21132898.29926     13817.81126       535.62226        39.90026
G31  21449165.85126    -64069.61926     -2581.27726        38.60026
G28  22246146.41325    -99396.83125     -3991.93725        34.00025
G29  21276941.38015    -78240.05515     -3145.27215        33.20015
G26  21190622.13815     18922.74115       743.71915        30.40015
G05  23518195.79214    -12482.45214      -516.03214        27.20014
G16  23009555.31614     49035.94114      1945.49914        25.00014
G20  24650209.41513    -65737.67413     -2877.71113        20.10013
C35  23281855.90726     22803.34626      1128.17726        36.40026
R09  19369064.57626    -42184.58526     -2824.85826        36.00026
C29  21563132.85415    -50086.26115     -2019.81615        34.90015
C36  24890353.36715    -53761.10015     -4488.53315        31.90015
R10  19893785.31914     19726.10614       777.80214        26.40014
C30  24983525.26513    -99504.56013     -4149.70513        21.60013
> 2025 05 03 08 35 52.0000000  0 14                      
G18  21132558.03426     14359.06226       535.11626        39.80026
G31  21449416.47826    -66645.30826     -2581.85426        38.50026
G28  22246665.05425   -103382.93925     -3992.13225        34.10025
G29  21277301.43115    -81384.27715     -3152.77915        33.10015
G26  21190243.79915     19669.31815       739.50015        30.40015
G05  23518061.18514    -12996.14614      -521.17814        27.30014
G16  23008935.94514     50986.93114      1944.40714        25.00014
G20  24650508.30813    -68613.74613     -2885.85813        20.10013
C35  23281401.72126     23937.21926      1127.89526        36.30026
R09  19369362.27026    -45040.59426     -2825.49126        35.90026
C29  21563278.55315    -52099.82715     -2019.35315        34.80015
C36  24890978.13415    -58248.07915     -4495.09715        30.70015
R10  19893417.77314     20420.97314       786.43114        26.20014
C30  24984078.98213   -103650.05213     -4151.32313        21.30013
> 2025 05 03 08 35 53.0000000  0 12                      
G18  21132220.46826     14899.57526       534.28026        39.70026
G31  21449667.10426    -69221.84526     -2582.82326        38.40026
G28  22247182.79625   -107369.79725     -3993.09425        34.20025
G26  21189862.76315     20417.12815       742.56415        30.40015
G05  23517931.37514    -13507.71714      -516.37214        27.30014
G16  23008341.45714     52939.07614      1946.85714        25.40014
G20  24650816.79513    -71496.48513     -2891.93313        20.00013
C35  23280946.93626     25070.72326      1127.50926        36.10026
R09  19369647.67215    -47832.42215     -2825.46215        35.10015
C36  24891598.40515    -62733.68915     -4490.73115        29.70015
R10  19893049.02914     21121.93414       779.84514        26.00014
C30  24984631.79913   -107795.07713     -4150.59913        21.00013
> 2025 05 03 08 35 54.0000000  0 14                      
G31  21449923.12726    -71799.23126     -2583.67026        38.40026
G28  22247705.93425   -111357.10125     -3993.38725        34.40025
G26  21189488.92215     21164.20515       740.84715        30.60015
G05  23517794.67014    -14017.86014      -515.29314        27.20014
G16  23007725.08314     54891.49014      1946.68414        25.50014
G18  21131879.60416     15438.84016       532.77816        37.80016
G29  21278014.03714    -87671.20714     -3146.23314        28.60014
G20  24651122.58313    -74385.82113     -2898.49613        19.90013
C35  23280493.94926     26203.60126      1126.75426        36.10026
R09  19369937.57115    -50646.41015     -2825.82715        33.30015
R10  19892648.80614     21991.45614       772.31414        25.80014
C36  24892213.27914    -67216.36614     -4487.01814        28.70014
C29  21563579.54515    -56134.56215     -2026.20715        31.10015
C30  24985184.01713   -111941.25313     -4152.55813        20.80013
> 2025 05 03 08 35 55.0000001  0 13                      
G31  21450204.93226    -74377.37926     -2584.39226        38.30026
G28  22248263.24825   -115345.18125     -3994.32925        34.60025
G26  21189142.96215     21910.08015       739.41015        30.70015
G18  21131567.22016     15975.97116       530.20016        35.60016
G05  23517679.24914    -14532.77614      -523.16514        27.20014
G16  23007144.68514     56846.09014      1949.82914        25.50014
G29  21278396.87214    -90809.50614     -3142.35114        27.00014
G20  24651463.74713    -77280.02013     -2902.49113        19.70013
C35  23280067.34526     27336.02626      1126.38826        36.30026
R10  19892294.75114     22774.03414       773.33414        25.70014
C36  24892855.13514    -71696.77614     -4485.08314        27.80014
C29  21563768.41414    -58156.78614     -2029.70414        29.10014
C30  24985780.30413   -116091.53913     -4158.14913        20.60013
> 2025 05 03 08 35 55.9999998  0 14                      
G31  21450368.01926    -76956.30426     -2585.17326        38.50026
G28  22248692.55125   -119333.75825     -3994.68525        34.90025
G26  21188672.88715     22653.42115       736.21015        31.00015
G18  21131133.72115     16514.84615       533.88315        33.90015
G05  23517442.41314    -15051.47514      -526.45414        27.30014
G16  23006440.47314     58800.39414      1948.29014        25.70014
G29  21278675.38014    -93943.51914     -3137.72914        25.80014
G20  24651692.78813    -80170.74913     -2894.85613        19.50013
C35  23279523.82126     28468.06726      1126.03826        36.70026
R09  19370449.61724                     -2830.60524        28.80024
R10  19891806.68914     23632.87514       772.92014        25.60014
C36  24893412.74914    -76179.23414     -4489.28814        27.00014
C29  21563823.87514    -60180.72214     -2030.60014        27.40014
C30  24986262.97013   -120245.68713     -4161.88413        20.50013
> 2025 05 03 08 35 56.9999999  0 14                      
G31  21450651.02326    -79536.12826     -2586.13626        38.60026
G28  22249245.96825   -123322.99425     -3995.42625        35.20025
G26  21188319.43215     23397.92815       739.22515        31.10015
G18  21130824.03515     17053.91115       533.29615        32.70015
G05  23517336.28714    -15567.27114      -520.20714        27.50014
G16  23005871.46714     60752.15014      1944.61814        26.30014
G29  21279065.11014    -97079.64614     -3143.04614        24.90014
G20  24652044.44513    -83053.31513     -2884.34513        19.50013
C35  23279097.81626     29599.57826      1125.43526        37.00026
R09  19370803.67214     -2995.83014     -2829.50814        28.70014
R10  19891460.72814     24373.50214       766.36314        25.60014
C36  24894059.70114    -80664.40514     -4492.33514        26.30014
C29  21564000.15314    -62201.32614     -2024.74614        26.20014
C30  24986860.15713   -124401.08913     -4161.83613        20.50013
> 2025 05 03 08 35 57.9999999  0 14                      
G31  21450903.14926    -82116.51326     -2586.52726        38.80026
G28  22249766.40726   -127312.85926     -3996.04026        35.50026
G26  21187945.29115     24143.05115       739.56815        31.20015
G18  21130494.86315     17594.99015       536.22215        31.70015
G05  23517199.58214    -16083.71514      -522.63114        27.60014
G16  23005254.79414     62706.19614      1949.32714        27.00014
G29  21279429.35814   -100219.44014     -3147.48714        24.50014
G20  24652344.23713    -85929.45213     -2878.78413        19.40013
C35  23278644.83026     30730.73226      1125.16426        37.30026
R09  19371094.47014     -5815.16614     -2828.55114        28.60014
R10  19891085.38814     25111.07814       771.38214        25.60014
C36  24894698.25914    -85149.52914     -4490.90714        25.60014
C29  21564158.44414    -64222.38614     -2027.09714        25.50014
C30  24987421.96813   -128557.24413     -4162.33813        20.50013
> 2025 05 03 08 35 59.0000000  0 14                      
G31  21451169.06526    -84698.19426     -2588.13426        38.90026
G28  22250299.13826   -131303.48726     -3996.81326        35.50026
G26  21187575.34715     24886.42215       736.68615        31.30015
G18  21130160.59415     18131.55715       528.50215        31.20015
G05  23517074.86814    -16604.13314      -528.21314        27.60014
G16  23004666.00114     64660.19714      1948.16814        27.20014
G29  21279797.50314   -103360.41914     -3147.37814        24.10014
G20  24652656.62113    -88801.99613     -2876.55313        19.60013
C35  23278204.73426     31861.16826      1124.32126        37.50026
R09  19371391.56514     -8604.74014     -2832.59814        28.50014
R10  19890698.95614     25969.88814       771.73114        25.70014
C29  21564315.83514    -66242.08314     -2024.76914        25.00014
C36  24895341.31414    -89628.82214     -4482.12914        25.10014
C30  24987982.58013   -132716.57813     -4166.67613        20.50013
> 2025 05 03 08 36 00.0000000  0 14                      
G31  21451426.58626    -87280.43726     -2588.40426        38.90026
G18  21129824.22715     18667.06115       529.09115        33.60015
G28  22250821.97626   -135294.66926     -3997.33726        35.50026
G26  21187198.80715     25628.07015       734.90415        31.30015
G05  23516931.56714    -17126.74514      -529.59014        27.60014
G16  23004066.71614     66608.11314      1938.99014        27.30014
G29  21280155.45514   -106501.40114     -3146.86114        24.00014
G20  24652953.11613    -91669.60013     -2871.01313        19.60013
C35  23277749.64926     32991.07526      1123.81426        37.50026
C29  21564462.43314    -68258.09814     -2019.99914        25.50014
R09  19371679.96515    -11411.08615     -2832.86915        29.50015
R10  19890341.30314     26612.12314       769.22914        25.70014
C36  24895959.78614    -94108.15914     -4485.18414        24.60014
C30  24988535.99713   -136878.39513     -4168.88213        20.50013
> 2025 05 03 08 36 01.0000000  0 13                      
G31  21451681.71026    -89863.68326     -2589.60926        38.90026
G18  21129488.46026     19201.38826       527.87426        36.70026
G28  22251344.51525   -139286.49725     -3998.01225        35.40025
G05  23516792.46314    -17648.83914      -527.69714        27.50014
G16  23003459.63614     68553.78614      1938.68714        27.20014
G29  21280514.30714   -109642.93614     -3147.67314        24.00014
G20  24653251.70913    -94535.00813     -2870.17013        19.50013
C35  23277292.46626     34120.55626      1123.45726        37.40026
C29  21564618.92515    -70276.66515     -2025.65215        30.90015
R09  19371970.76415    -14229.65715     -2835.00015        30.30015
R10  19889930.88714     27536.56214       768.00914        25.60014
C36  24896579.75614    -98590.75114     -4490.02614        24.20014
C30  24989112.19813   -141044.91413     -4174.67713        20.40013
> 2025 05 03 08 36 02.0000000  0 14                      
G31  21451937.43326    -92447.79426     -2590.40426        38.90026
G18  21129144.59826     19734.83026       527.13526        36.70026
G28  22251868.55225   -143279.00625     -3998.70925        35.40025
G05  23516659.05614    -18170.81914      -527.78714        27.40014
G26  21186437.93415     27107.45315       736.93515        29.50015
G16  23002861.85014     70500.25514      1941.00114        27.10014
G29  21280875.25714   -112787.10314     -3151.34314        24.00014
G20  24653562.59413    -97395.45213     -2863.82413        19.50013
C35  23276841.87826     35249.42526      1122.75326        37.30026
C29  21564771.22015    -72296.59715     -2026.42215        31.30015
R09  19372264.26115    -17063.50915     -2835.43815        30.60015
R10  19889502.48414     28556.34314       771.49814        25.40014
C36  24897205.12414   -103074.80114     -4490.58614        24.00014
C30  24989677.30613   -145213.52413     -4175.46313        20.20013
> 2025 05 03 08 36 03.0000001  0 14                      
G31  21452221.33626    -95032.68326     -2591.13926        38.90026
G18  21128844.50526     20267.52526       526.45926        36.50026
G28  22252419.87025   -147272.20125     -3999.39925        35.30025
G05  23516548.73214    -18692.40114      -527.24514        27.40014
G16  23002280.85214     72443.09514      1935.16114        26.90014
G26  21186100.66814     27851.51914       738.20214        28.40014
G29  21281262.28914   -115928.81414     -3146.34414        24.00014
G20  24653891.16613   -100257.39313     -2868.55013        19.50013
C35  23276419.17026     36377.82726      1122.35826        37.20026
R09  19372589.83515    -19908.05815     -2836.80715        30.70015
C29  21564952.29415    -74316.44415     -2025.61415        31.20015
R10  19889197.29514     29079.59414       767.14814        25.30014
C36  24897853.87414   -107557.71414     -4488.15114        23.70014
C30  24990258.30413   -149382.47113     -4174.92213        20.00013
> 2025 05 03 08 36 03.9999998  0 14                      
G31  21452388.62026    -97618.30726     -2591.85326        38.90026
G18  21128412.80426     20799.61026       525.91526        36.30026
G28  22252853.37025   -151265.85725     -3999.74625        35.30025
G05  23516312.19614    -19216.41114      -531.08714        27.40014
G16  23001586.23314     74378.78114      1926.24514        26.70014
G26  21185635.69014     28599.09014       743.46014        27.80014
G29  21281531.80214   -119071.76414     -3149.43014        24.20014
G20  24654112.11313   -103117.17613     -2864.56413        19.40013
C35  23275873.24826     37505.85026      1122.02326        37.30026
R09  19372786.19915    -22702.94415     -2839.00615        30.90015
C29  21565013.75215    -76338.20915     -2028.53115        31.00015
R10  19888708.03414     29944.54314       765.89514        25.20014
C36  24898389.00413   -112041.19513     -4489.57013        23.40013
C30  24990731.07713   -153548.96913     -4171.07913        19.90013
> 2025 05 03 08 36 04.9999999  0 13                      
G31  21452673.12326   -100204.69926     -2592.63726        38.90026
G18  21128102.51926     21330.97726       525.14526        36.20026
G28  22253408.58625   -155260.09225     -4000.38525        35.20025
G05  23516196.77614    -19743.90814      -535.10514        27.30014
G26  21185298.72314     29342.46414       735.41214        27.20014
G29  21281933.22414   -122215.23514     -3149.59314        24.50014
G20  24654459.27313   -105975.23813     -2863.06413        19.40013
C35  23275448.74226     38633.44626      1121.57126        37.40026
R09  19373118.96915    -25585.69415     -2837.42515        31.10015
C29  21565185.83315    -78357.48615     -2023.84315        30.90015
R10  19888382.75914     30573.81214       764.32414        25.20014
C36  24899032.05913   -116530.26313     -4497.67013        23.20013
C30  24991316.27213   -157702.89513     -4153.44813        19.90013
> 2025 05 03 08 36 05.9999999  0 13                      
G31  21452927.34726   -102791.71726     -2593.19226        38.90026
G18  21127765.55226     21861.84226       524.75126        36.00026
G28  22253927.52725   -159254.76925     -4000.75725        35.20025
G05  23516051.97614    -20269.36814      -530.30314        27.30014
G29  21282292.67514   -125359.31614     -3150.24714        24.70014
G26  21184925.18114     30082.41814       732.37914        26.70014
G20  24654777.95213   -108835.29713     -2866.91713        19.40013
C35  23274997.25526     39760.78326      1121.39726        37.60026
R09  19373401.37315    -28359.18615     -2840.18115        31.20015
C29  21565344.42315    -80379.02715     -2028.48115        30.70015
R10  19888010.71714     31293.84314       764.79814        25.10014
C36  24899657.72613   -121019.72613     -4495.46513        22.90013
C30  24991872.38713   -161852.62213     -4153.43313        20.30013
> 2025 05 03 08 36 06.9999999  0 14                      
G31  21453184.56926   -105379.27526     -2593.68926        38.90026
G18  21127425.58826     22391.69126       524.22626        35.80026
G28  22254446.46725   -163249.68625     -4000.89825        35.10025
G05  23515911.67314    -20790.76414      -525.22714        27.30014
G29  21282654.52514   -128504.68914     -3151.87914        25.20014
G26  21184539.64814     30819.07314       729.14214        26.20014
G20  24655073.54813   -111699.21813     -2871.71313        19.30013
G16  22999802.16813     80175.09413      1927.65913        20.50013
C35  23274542.17026     40887.88926      1121.18026        37.60026
R09  19373695.77015    -31198.38515     -2836.75815        31.40015
C29  21565496.11815    -82400.51415     -2027.26815        30.60015
R10  19887629.38114     32061.16714       766.11314        25.00014
C36  24900277.69613   -125510.02613     -4496.52413        22.70013
C30  24992435.99713   -165998.64913     -4149.98313        20.40013
> 2025 05 03 08 36 08.0000000  0 14                      
G31  21453470.87126   -107967.67826     -2594.68826        38.90026
G18  21127118.00126     22921.26326       523.32126        35.70026
G28  22254998.08525   -167245.44925     -4002.04725        35.00025
G29  21283046.35414   -131649.85114     -3150.91914        27.80014
G05  23515811.84214    -21315.46114      -532.21114        27.40014
G26  21184190.09014     31555.30414       730.15614        25.60014
G16  22999209.77813     82116.64613      1940.11413        20.20013
G20  24655417.11013   -114561.80313     -2867.77913        19.20013
C35  23274120.06226     42014.42726      1120.44226        37.60026
R09  19374018.04615    -34024.59715     -2840.45615        31.50015
C29  21565673.89515    -84423.99315     -2030.28415        30.60015
R10  19887277.72414     32830.77314       762.18614        24.90014
C36  24900945.93413   -129998.67813     -4493.63613        22.50013
C30  24993028.08713   -170140.66513     -4145.81813        20.40013
> 2025 05 03 08 36 09.0000000  0 14                      
G31  21453725.09526   -110556.69626     -2595.18626        38.90026
G18  21126782.23326     23450.29326       522.89426        35.70026
G28  22255522.72225   -171241.55925     -4002.14325        34.90025
G29  21283407.60414   -134796.24514     -3152.87014        29.20014
G05  23515680.23314    -21840.69514      -531.36514        27.40014
G26  21183812.35214     32291.85214       730.84214        25.20014
G16  22998602.39913     84062.04013      1941.45213        20.30013
G20  24655715.70313   -117428.32813     -2874.35613        19.30013
C35  23273668.27526     43140.70226      1120.33326        37.50026
R09  19374313.04215    -36866.85415     -2842.44615        31.50015
C29  21565823.79115    -86447.73515     -2029.68115        30.60015
R10  19886919.77214     33475.29514       758.85114        24.80014
C36  24901582.09313   -134484.72013     -4490.54313        22.40013
C30  24993589.29813   -174286.85313     -4154.08113        20.60013
> 2025 05 03 08 36 10.0000000  0 14                      
G31  21453976.02126   -113146.41026     -2595.92226        38.90026
G18  21126442.26826     23978.51726       521.95926        35.60026
G28  22256047.95925   -175238.09025     -4002.60125        34.80025
G29  21283766.45514   -137944.04914     -3154.37014        29.10014
G05  23515541.42914    -22367.38914      -533.28714        27.40014
G26  21183433.71414     33031.57614       735.44814        24.90014
G16  22997994.12013     86012.50813      1947.13813        20.30013
G20  24656028.68713   -120301.82613     -2882.84513        20.00013
C35  23273213.49026     44266.66026      1119.99026        37.40026
R09  19374615.23315    -39746.54915     -2840.56515        31.50015
C29  21565981.18215    -88473.51215     -2032.60315        30.60015
R10  19886520.44814     34341.00714       759.45514        24.70014
C36  24902199.36613   -138970.26813     -4491.10713        22.40013
C30  24994156.20613   -178439.72413     -4162.02013        20.70013
> 2025 05 03 08 36 11.0000000  0 14                      
G31  21454235.94226   -115736.79626     -2596.58426        38.80026
G18  21126105.90126     24506.43326       521.89726        35.60026
G28  22256577.09225   -179235.11425     -4003.13125        34.70025
G29  21284127.70514   -141093.85014     -3156.66014        28.90014
G05  23515397.82914    -22894.38114      -533.00314        27.30014
G26  21183057.17514     33769.98514       731.88714        24.70014
G20  24656347.96513   -123176.54813     -2881.19413        20.60013
G16  22997377.44713     87968.74213      1953.25413        20.70013
C35  23272761.10326     45392.29526      1119.66226        37.40026
R09  19374899.43615    -42529.20815     -2838.95715        31.50015
C29  21566130.77815    -90500.27015     -2033.05815        30.50015
R10  19886138.51314     35112.90714       760.03414        24.60014
C36  24902832.82813   -143455.15313     -4490.36013        22.50013
C30  24994712.32113   -182596.84413     -4165.04913        20.90013
> 2025 05 03 08 36 12.0000001  0 14                      
G31  21454518.34626   -118327.78126     -2597.14626        38.70026
G18  21125796.21626     25033.61226       520.94826        35.60026
G28  22257130.80925   -183232.62725     -4003.61725        34.50025
G29  21284538.72014   -144243.99014     -3156.16914        28.80014
G05  23515299.19714    -23423.20914      -535.60914        27.30014
G26  21182714.21214     34505.93514       728.85714        24.60014
G20  24656685.83213   -126055.56213     -2887.02213        21.10013
G16  22996796.74913     89927.48013      1954.12413        20.70013
C35  23272337.19626     46517.54326      1119.24326        37.40026
R09  19375223.81215    -45367.64615     -2842.99615        31.40015
C29  21566311.55315    -92528.06115     -2034.11615        30.50015
R10  19885799.14814     35817.68614       766.83814        24.60014
C36  24903485.47613   -147939.13613     -4489.33913        22.50013
C30  24995308.60813   -186759.67013     -4171.48813        20.90013
> 2025 05 03 08 36 12.9999998  0 14                      
G31  21454685.93026   -120919.44926     -2597.87126        38.70026
G18  21125375.90726     25560.22726       520.46826        35.50026
G28  22257565.80825   -187230.50525     -4003.92125        34.40025
G29  21284800.13914   -147392.78614     -3153.98614        28.60014
G05  23515081.84814    -23949.54114      -530.94714        27.10014
G26  21182238.14214     35242.33514       730.76214        24.70014
G20  24656918.17113   -128934.79613     -2885.20413        21.30013
G16  22996093.13613     91886.50713      1953.30613        20.80013
C35  23271794.87226     47642.53826      1119.05826        37.40026
R09  19375417.17815    -48146.48415     -2843.57615        31.30015
C29  21566368.51415    -94552.44215     -2028.48315        30.40015
R10  19885315.88214     36651.36014       758.11614        24.60014
C36  24904019.40613   -152421.64213     -4487.57313        22.50013
C30  24995772.08713   -190928.27613     -4177.30113        20.90013
> 2025 05 03 08 36 13.9999999  0 14                      
G31  21454976.42926   -123512.03226     -2598.90226        38.60026
G18  21125067.12026     26086.05826       519.57626        35.50026
G28  22258118.62525   -191229.03825     -4004.72125        34.30025
G29  21285197.06514   -150542.84914     -3156.55714        28.50014
G05  23514969.42514    -24474.26114      -529.77714        27.00014
G26  21181888.28414     35977.36414       728.47914        24.90014
G20  24657255.43713   -131814.31613     -2885.52513        21.40013
G16  22995509.74013     93847.27713      1955.77813        20.80013
C35  23271369.46626     48767.06026      1118.47626        37.40026
R09  19375748.44815    -51021.59615     -2846.44915        31.10015
C29  21566553.48615    -96578.20415     -2032.26215        30.20015
R10  19884926.75214     37622.32214       755.12914        24.60014
C36  24904674.75213   -156907.22013     -4492.92113        22.50013
C30  24996371.67213   -195094.09613     -4170.23413        20.90013
> 2025 05 03 08 36 14.9999999  0 14                      
G31  21455229.45426   -126105.21326     -2599.34126        38.60026
G18  21124726.55626     26611.29926       519.08226        35.50026
G28  22258634.86825   -195228.13625     -4005.24125        34.20025
G29  21285552.01914   -153691.21914     -3153.38414        28.40014
G05  23514827.62414    -25005.53614      -540.41514        26.90014
G26  21181509.64614     36712.58214       729.44914        24.90014
G20  24657563.62413   -134695.56913     -2887.98013        21.40013
G16  22994908.35613     95805.26213      1950.72613        20.80013
C35  23270920.97726     49891.14826      1118.05926        37.40026
R09  19376051.53915    -53905.87415     -2841.17515        31.00015
C29  21566706.08015    -98603.12115     -2030.30315        30.10015
R10  19884558.00714     38324.05014       749.80314        24.60014
C36  24905296.22213   -161397.53913     -4498.49513        22.40013
C30  24996946.37413   -199251.87013     -4159.55913        21.10013
> 2025 05 03 08 36 15.9999999  0 14                      
G31  21455482.17926   -128699.03926     -2600.00926        38.50026
G18  21124389.29026     27135.92226       518.45026        35.50026
G28  22259161.60325   -199227.58825     -4005.49025        34.10025
G29  21285916.86614   -156839.81014     -3154.56214        28.60014
G05  23514687.32114    -25540.77414      -543.08214        26.90014
G26  21181121.71514     37445.29914       725.60414        25.10014
G20  24657878.70613   -137574.14013     -2883.09013        21.40013
G16  22994301.87613     97757.09813      1942.89813        20.90013
C35  23270467.69026     51014.98626      1117.90226        37.40026
R09  19376350.13215    -56765.70415     -2845.80815        30.90015
C29  21566860.77315   -100627.81715     -2030.39215        30.00015
R10  19884170.97514     39122.64514       757.71414        24.50014
C36  24905915.89313   -165891.56213     -4501.68213        22.40013
C30  24997501.29013   -203403.83413     -4154.86513        21.20013
> 2025 05 03 08 36 17.0000000  0 14                      
G31  21455751.39216   -131293.55716     -2600.67116        38.40016
G18  21124067.91226     27659.97026       517.95126        36.00026
G29  21286294.30515   -159989.10515     -3155.45315        34.40015
G28  22259701.52925   -203227.50025     -4005.94725        34.10025
G05  23514570.40214    -26072.69014      -536.06414        27.00014
G26  21180763.76214     38176.86514       725.18114        26.00014
G16  22993716.98113     99701.87313      1935.43313        21.30013
G20  24658193.78813   -140456.36713     -2889.86213        21.40013
C35  23270024.29726     52138.45426      1117.52726        37.50026
R09  19376662.21615    -59635.50415     -2848.33415        31.70015
C29  21567024.16015   -102654.67915     -2033.70015        30.20015
R10  19883801.33114     39892.21814       761.15614        24.70014
C36  24906557.14913   -170389.64413     -4505.86313        22.40013
C30  24998071.49513   -207554.79513     -4156.21213        21.40013
> 2025 05 03 08 36 18.0000000  0 13                      
G31  21456006.81616   -133888.58916     -2601.16816        38.30016
G18  21123731.84526     28183.43926       517.29826        36.60026
G29  21286655.25526   -163138.29026     -3155.00826        35.80026
G28  22260231.86225   -207227.80925     -4006.38625        34.10025
G05  23514434.89514    -26602.12214      -534.07114        27.30014
G26  21180395.61714     38912.88914       732.37114        26.50014
G16  22993117.69613    101642.00113      1931.92213        21.50013
G20  24658508.87013   -143339.44413     -2889.38113        21.30013
R09  19376944.02116    -62405.94116     -2847.70016        38.10016
C35  23269574.00926     53261.65126      1117.23426        37.70026
C29  21567180.05215   -104680.73215     -2031.47515        30.40015
R10  19883438.58214     40562.67214       755.49914        25.00014
C30  24998627.61013   -211709.05613     -4161.73513        22.00013
> 2025 05 03 08 36 19.0000000  0 14                      
G31  21456267.63526   -136484.67726     -2602.47726        38.10026
G18  21123397.87626     28706.04726       516.31426        37.00026
G29  21287015.60626   -166288.17826     -3156.10126        35.80026
G28  22260750.80325   -211228.99625     -4007.48525        34.30025
G05  23514299.98914    -27135.47914      -541.18314        27.50014
G26  21180019.37814     39645.44114       724.95214        27.10014
G16  22992516.31213    103579.26213      1929.96413        21.70013
G20  24658828.14813   -146223.48513     -2890.38313        21.10013
C35  23269121.02326     54384.22826      1116.45526        38.00026
R09  19377239.01726    -65248.19626     -2849.01726        38.00026
C29  21567330.84815   -106707.92415     -2033.56915        30.90015
C36  24907801.58824                     -4490.92024        25.20024
R10  19883071.03614     41257.53714       758.48114        25.40014
C30  24999194.81813   -215867.45113     -4166.26913        22.10013
> 2025 05 03 08 36 20.0000001  0 14                      
G18  21123089.68926     29228.08326       515.88626        37.30026
G31  21456560.83226   -139081.34426     -2602.81826        38.00026
G29  21287408.33426   -169438.25926     -3156.03726        35.80026
G28  22261306.61825   -215230.46825     -4007.47625        34.50025
G26  21179669.52014     40376.49314       724.43814        27.60014
G05  23514198.95914    -27666.45214      -535.64314        27.60014
G16  22991951.20313    105516.19313      1930.90113        21.70013
G20  24659144.72913   -149106.16913     -2887.86813        21.00013
C35  23268698.01626     55506.53926      1116.36826        38.10026
R09  19377568.48826    -68113.37526     -2849.67726        37.90026
C29  21567507.72515   -108737.09215     -2035.96615        31.20015
C36  24908460.83114     -4487.27414     -4493.08114        26.90014
R10  19882719.68014     42027.14614       757.55614        25.80014
C30  24999776.41513   -220031.91413     -4173.30513        22.10013
> 2025 05 03 08 36 20.9999998  0 14                      
G18  21122662.18526     29749.51426       515.26526        37.70026
G31  21456726.31726   -141678.73926     -2603.62126        37.80026
G29  21287684.44326   -172588.73726     -3156.53826        35.70026
G28  22261742.81625   -219232.47425     -4008.13225        34.70025
G26  21179194.94814     41107.99514       725.86214        27.90014
G05  23513977.71214    -28206.00614      -549.70814        27.60014
G16  22991262.88013    107450.49013      1927.11513        21.50013
G20  24659369.27413   -151983.21713     -2880.09013        20.90013
C35  23268157.79026     56628.51026      1115.98926        38.20026
R09  19377773.54726    -70956.39526     -2850.44826        37.90026
C29  21567572.78015   -110765.36515     -2033.63315        31.30015
C36  24909002.25714     -8976.67614     -4496.27214        26.90014
R10  19882243.01014     42822.68314       752.38014        26.10014
C30  25000262.97813   -224198.76213     -4173.84713        22.00013
> 2025 05 03 08 36 21.9999999  0 14                      
G18  21122356.69726     30270.36226       514.69326        38.00026
G31  21457013.81826   -144276.67926     -2604.07426        37.60026
G29  21288075.07226   -175739.55426     -3156.84826        35.60026
G28  22262299.83125   -223234.86825     -4008.44925        35.00025
G26  21178845.69014     41841.09314       728.03314        28.20014
G05  23513876.38214    -28747.84714      -548.84714        27.50014
G16  22990675.58613    109385.26613      1929.15013        21.40013
G20  24659709.83813   -154855.21413     -2875.33313        20.90013
C35  23267733.58326     57750.12526      1115.62726        38.30026
R09  19378100.92026    -73809.34826     -2851.12926        37.80026
C29  21567758.05215   -112793.84915     -2034.39815        31.30015
R10  19881905.44314     43519.07414       751.75514        26.40014
C36  24909647.71014    -13470.83914     -4502.35014        26.80014
C30  25000845.77513   -228363.67213     -4169.74713        21.90013
> 2025 05 03 08 36 22.9999999  0 14                      
G18  21122020.33026     30790.56326       514.01426        38.30026
G31  21457267.14326   -146875.40626     -2604.98026        37.40026
G28  22262821.17025   -227237.85825     -4009.14825        35.10025
G29  21288439.62026   -178890.68826     -3157.15226        35.50026
G26  21178477.54514     42572.78914       725.12914        28.30014
G05  23513756.76514    -29285.74014      -541.78214        27.50014
G16  22990059.21313    111323.59813      1934.24513        21.40013
G20  24660004.23413   -157724.97413     -2874.50213        20.80013
C35  23267280.59726     58871.48026      1115.41426        38.40026
R09  19378402.21126    -76685.22226     -2852.07926        37.70026
C29  21567911.54615   -114821.78015     -2033.46215        31.30015
R10  19881542.99414     44187.24314       755.16614        26.60014
C36  24910283.86914    -17961.89114     -4495.30214        26.70014
C30  25001408.78513   -232525.82113     -4166.57613        21.80013
> 2025 05 03 08 36 23.9999999  0 14                      
G18  21121681.86426     31310.12726       513.38226        38.50026
G31  21457521.06726   -149474.89426     -2605.73126        37.20026
G28  22263347.90525   -231241.33225     -4009.57625        35.10025
G29  21288803.56825   -182042.28925     -3157.69525        35.30025
G26  21178102.50514     43303.19114       723.89314        28.60014
G05  23513620.06014    -29818.09714      -535.45314        27.40014
G16  22989452.43313    113267.52413      1940.85813        21.40013
G20  24660318.11713   -160592.78713     -2872.70013        20.60013
C35  23266827.61026     59992.28326      1114.71626        38.50026
R09  19378691.21126    -79493.09826     -2853.12926        37.70026
C29  21568065.93915   -116851.99915     -2037.17215        31.30015
R10  19881151.16514     45011.76414       749.84114        26.70014
C36  24910902.04114    -22454.48614     -4499.17414        26.50014
C30  25001968.49713   -236681.50013     -4158.25013        21.60013
> 2025 05 03 08 36 24.9999999  0 14                      
G18  21121349.69426     31828.95526       512.59626        38.80026
G31  21457779.48826   -152075.08126     -2606.39726        37.10026
G28  22263874.64025   -235245.34425     -4010.14225        35.30025
G29  21289165.71725   -185194.30925     -3158.09025        35.20025
G26  21177729.86314     44031.48614       721.37714        28.80014
G05  23513470.46314    -30354.74914      -544.66214        27.30014
G16  22988845.65313    115218.78513      1949.06413        21.40013
G20  24660630.50113   -163457.76813     -2869.42613        20.40013
C35  23266375.82326     61112.70526      1114.42126        38.50026
R09  19378987.70626    -82342.23026     -2853.67526        37.60026
C29  21568216.73415   -118883.15815     -2037.43715        31.30015
R10  19880750.94314     45882.05414       753.70214        26.80014
C36  24911526.20914    -26947.99914     -4499.77814        26.30014
C30  25002519.21613   -240834.44913     -4157.39013        21.50013
> 2025 05 03 08 36 26.0000000  0 14                      
G18  21121041.20726     32347.18326       512.06626        39.00026
G31  21458064.29126   -154675.88526     -2606.97526        36.90026
G28  22264425.95925   -239249.84125     -4010.60025        35.40025
G29  21289556.64725   -188346.55325     -3158.21725        35.10025
G26  21177370.71114     44758.95314       721.19014        28.90014
G05  23513377.52714    -30894.91114      -547.77914        27.40014
G16  22988266.75413    117171.88813      1948.15913        21.40013
G20  24660949.18013   -166322.68113     -2870.74113        20.20013
C35  23265954.01526     62232.92126      1114.30226        38.50026
R09  19379323.77326    -85243.31826     -2854.50426        37.50026
C29  21568392.71215   -120915.58315     -2038.86815        31.30015
R10  19880407.68014     46606.65914       747.53414        26.80014
C36  24912183.95414    -31442.88814     -4501.38414        26.10014
C30  25003104.11113   -244981.41513     -4149.78213        21.30013
> 2025 05 03 08 36 27.0000000  0 14                      
G18  21120707.23926     32865.04726       511.81726        39.10026
G31  21458323.31226   -157277.32826     -2607.62326        36.70026
G28  22264951.79526   -243254.60626     -4010.75926        35.60026
G29  21289921.49425   -191499.07025     -3158.51425        35.00025
G26  21176990.27514     45488.57114       724.82914        29.00014
G05  23513236.62514    -31433.35514      -543.44914        28.00014
G16  22987657.57613    119122.78013      1943.92313        21.30013
G20  24661261.56413   -169187.62413     -2870.81913        20.10013
C35  23265501.32926     63352.74726      1113.82026        38.50026
R09  19379610.37526    -88039.73226     -2855.10826        37.50026
C29  21568550.70315   -122947.72815     -2037.81215        31.20015
R10  19880042.53314     47290.84914       750.71514        26.80014
C36  24912812.31914    -35940.19614     -4504.32414        25.90014
C30  25003670.41913   -249126.17113     -4149.45713        21.20013
> 2025 05 03 08 36 28.0000000  0 14                      
G18  21120367.87426     33382.05726       510.71926        39.10026
G31  21458582.03326   -159879.52026     -2608.42826        36.50026
G28  22265476.13226   -247260.05626     -4011.65226        35.60026
G29  21290286.04225   -194651.94425     -3158.91425        35.00025
G26  21176616.13414     46218.42714       724.11014        29.00014
G05  23513108.61414    -31971.07614      -543.22214        28.20014
G16  22987044.20013    121071.77313      1942.17713        21.50013
G20  24661576.04613   -172054.46813     -2873.65413        19.80013
C35  23265050.14126     64472.31426      1113.62726        38.40026
R09  19379908.36926    -90897.26926     -2855.92626        37.40026
C29  21568707.49515   -124981.61415     -2040.56415        31.10015
R10  19879652.80314     48103.16814       753.48514        26.80014
C36  24913428.69214    -40440.04714     -4506.92914        25.70014
C30  25004235.82813   -253269.57013     -4148.52613        21.10013
> 2025 05 03 08 36 29.0000000  0 14                      
G18  21120034.50426     33898.43526       510.19926        39.00026
G28  22266002.26726   -251265.77926     -4011.72026        35.70026
G31  21458842.85226   -162482.35126     -2609.01226        36.40026
G29  21290646.39225   -197805.26025     -3159.39725        34.90025
G26  21176244.69114     46947.51314       722.83814        29.00014
G05  23512976.70514    -32509.89014      -545.22214        28.40014
G16  22986440.71813    123019.61513      1941.40213        21.50013
G20  24661888.43013   -174923.72213     -2876.32113        19.60013
C35  23264597.15526     65591.47126      1113.14126        38.40026
C29  21568857.99015   -127013.79415     -2037.13615        31.10015
R09  19380208.46116    -93765.50416     -2858.02516        36.70016
R10  19879268.76914     48887.26614       747.16114        26.80014
C36  24914063.95214    -44940.06314     -4505.90614        25.50014
C30  25004795.84013   -257411.46513     -4146.95013        21.00013
> 2025 05 03 08 36 30.0000001  0 14                      
G31  21459135.74926   -165086.10626     -2610.07926        36.20026
G28  22266558.08326   -255272.31326     -4012.80026        35.70026
G29  21291034.02425   -200958.91125     -3159.67925        34.80025
G26  21175895.73214     47675.67514       721.83614        29.00014
G05  23512865.18214    -33051.95914      -549.56014        28.50014
G18  21119728.11616     34414.21316       508.86516        37.00016
G16  22985858.52113    124964.56513      1937.64013        22.20013
G20  24662230.79313   -177798.03213     -2882.69813        19.50013
C35  23264178.64426     66710.08126      1112.52526        38.40026
C29  21569039.66515   -129045.87115     -2037.83415        31.50015
R09  19380536.43415    -96621.51315     -2861.66115        35.10015
R10  19878917.41214     49656.88114       749.30614        26.80014
C36  24914712.10414    -49436.06914     -4499.80714        25.30014
C30  25005395.72513   -261565.47413     -4165.87413        21.20013
> 2025 05 03 08 36 30.9999998  0 13                      
G31  21459301.53526   -167690.33526     -2610.32626        36.10026
G28  22266995.48026   -259279.17126     -4012.87926        35.60026
G29  21291306.23525   -204113.00325     -3160.17325        34.70025
G26  21175436.15114     48403.22514       721.37914        29.10014
G05  23512632.54314    -33595.66614      -550.38914        28.90014
G16  22985162.40313    126905.33513      1932.81413        22.90013
G20  24662467.92913   -180678.95213     -2890.08613        19.90013
C35  23263637.21926     67828.48926      1112.49726        38.50026
C29  21569108.31715   -131078.19315     -2038.25315        31.50015
R09  19380745.98915    -99486.69215     -2859.87515        33.50015
R10  19878457.53014     50363.94514       750.71614        27.00014
C36  24915254.72814    -53929.29014     -4497.63514        25.20014
C30  25005872.69513   -265730.71713     -4176.66613        22.10013
> 2025 05 03 08 36 31.9999999  0 14                      
G28  22267549.49626   -263286.70126     -4013.72726        35.50026
G31  21459590.83426   -170295.43626     -2611.39926        35.90026
G29  21291701.36225   -207267.31625     -3160.28525        34.50025
G18  21118998.72115     35433.85315       506.59015        32.60015
G26  21175094.38714     49128.06414       717.62114        29.20014
G05  23512535.11114    -34140.92614      -551.90114        28.90014
G16  22984576.30913    128846.62213      1935.68213        23.40013
G20  24662807.59413   -183563.50613     -2892.23313        19.90013
C35  23263211.81426     68946.33926      1111.75926        38.50026
C29  21569290.59115   -133111.74015     -2039.96815        31.90015
R09  19381083.25515   -102394.65715     -2861.77215        32.10015
R10  19878128.95814     51011.52214       749.80714        27.00014
C36  24915907.97614    -58418.27714     -4492.67614        25.10014
C30  25006456.69013   -269904.29113     -4183.54713        22.10013
> 2025 05 03 08 36 33.0000000  0 14                      
G28  22268084.62626   -267294.62026     -4013.91826        35.50026
G31  21459864.54526   -172901.09326     -2611.74126        35.70026
G18  21118677.94315     35947.71515       508.03515        33.00015
G29  21292079.40025   -210422.20725     -3160.98525        34.40025
G26  21174728.04114     49855.99814       723.67114        29.40014
G05  23512419.39114    -34687.12814      -552.48014        28.90014
G16  22983978.52313    130792.42513      1942.25013        23.40013
G20  24663132.56913   -186449.92413     -2893.15613        19.90013
C35  23262772.61826     70063.94126      1111.72226        38.50026
C29  21569456.37615   -135145.53215     -2039.66915        32.00015
R09  19381377.65115   -105170.47715     -2859.84415        31.20015
R10  19877756.01614     51798.63214       749.52714        27.00014
C36  24916550.43114    -62909.09314     -4497.48214        25.40014
C30  25007031.99213   -274084.43413     -4189.17813        22.00013
> 2025 05 03 08 36 34.0000000  0 14                      
G28  22268607.46426   -271303.13126     -4014.68626        35.50026
G18  21118341.27715     36460.81515       506.83715        34.80015
G31  21460114.87216   -175507.59916     -2612.81016        35.50016
G29  21292442.74925   -213577.38325     -3161.19725        34.30025
G26  21174356.89815     50581.27715       718.07015        29.60015
G05  23512291.08014    -35230.04514      -547.15614        28.90014
G16  22983369.94413    132740.87313      1943.88713        23.40013
G20  24663459.34213   -189339.24513     -2896.65113        20.10013
C35  23262321.13026     71181.14826      1111.18026        38.50026
C29  21569614.06715   -137179.74615     -2040.25115        32.10015
R09  19381675.64515   -108027.25215     -2860.31815        30.70015
R10  19877374.38014     52569.00414       741.67814        27.00014
C36  24917171.30114    -67403.15314     -4501.50714        26.10014
C30  25007601.29813   -278266.22013     -4188.43413        21.90013
> 2025 05 03 08 36 35.0000000  0 13                      
G28  22269140.79526   -275312.20526     -4015.21526        35.50026
G31  21460377.79025   -178114.92825     -2613.60225        35.40025
G18  21118004.31015     36973.41615       506.48715        34.80015
G29  21292802.50025   -216733.06825     -3161.80025        34.20025
G26  21173984.55615     51309.05315       723.16015        29.80015
G05  23512157.97214    -35773.12414      -549.02314        29.10014
G16  22982772.15813    134686.77213      1938.76013        23.40013
G20  24663770.82713   -192229.02113     -2895.86413        20.10013
C35  23261869.64326     72297.69526      1110.40826        38.50026
C29  21569764.26315   -139214.41015     -2040.69715        32.10015
R09  19381961.94715   -110822.90515     -2878.46515        30.30015
C36  24917800.26614    -71895.57314     -4497.40614        26.10014
C30  25008166.40713   -282444.30013     -4182.03213        21.80013
> 2025 05 03 08 36 36.0000000  0 13                      
G28  22269659.13625   -279321.33825     -4015.02325        35.40025
G31  21460637.71025   -180723.26625     -2614.70325        35.20025
G18  21117674.23815     37487.37015       508.76915        34.60015
G29  21293167.04715   -219890.20915     -3163.73115        34.00015
G26  21173610.11515     52035.77815       720.33615        29.80015
G05  23512026.36314    -36318.68614      -552.66614        29.10014
G16  22982160.58114    136629.79114      1935.71414        23.80014
G20  24664079.31313   -195121.98113     -2900.41413        20.10013
C35  23261417.55626     73414.32226      1110.85526        38.40026
C29  21569915.35815   -141248.95715     -2040.29715        32.10015
R09  19382265.93715   -113713.29615     -2881.78715        29.90015
C36  24918433.72714    -76392.24314     -4504.60114        26.30014
C30  25008727.01913   -286617.91313     -4177.18713        21.60013
> 2025 05 03 08 36 37.0000001  0 15                      
G28  22270218.54925   -283331.10325     -4016.69225        35.40025
G31  21460922.51325   -183332.99725     -2615.53925        35.10025
G29  21293559.47615   -223047.64715     -3163.44615        33.80015
G26  21173270.15015     52758.92115       715.48815        30.00015
G05  23511922.63514    -36866.72014      -555.13314        29.30014
G18  21117372.94715     37998.54415       503.91915        33.50015
G16  22981589.17714    138571.39014      1935.02414        24.30014
G20  24664422.87513   -198019.42013     -2905.53913        20.00013
C35  23260998.44626     74530.32726      1109.88326        38.30026
C29  21570102.12915   -143284.88415     -2042.42615        32.30015
R09  19382613.69615   -116674.73815     -2854.15915        29.50015
C36  24919093.87014    -80891.12914     -4505.80114        26.30014
R10  19876257.05424                       741.47824        25.10024
C13  38735997.62713        68.63813         6.51513        22.80013
C30  25009323.90513   -290784.08513     -4168.25813        21.50013
> 2025 05 03 08 36 37.9999998  0 15                      
G28  22270655.04625   -287341.57725     -4016.43725        35.40025
G18  21116944.84315     38509.48015       504.95515        32.90015
G31  21461093.09415   -185941.61015     -2614.91615        35.00015
G29  21293839.48215   -226204.34215     -3162.18515        33.60015
G26  21172803.97315     53481.52815       716.47415        30.20015
G05  23511698.09014    -37414.86214      -554.05814        29.40014
G16  22980894.25814    140513.66614      1936.74914        24.60014
G20  24664659.71113   -200922.28613     -2911.44013        20.00013
C35  23260456.72126     75646.11926      1109.87426        38.20026
C29  21570163.58625   -145321.11925     -2042.19725        32.50025
R09  19382802.86514   -119432.18614     -2858.93414        29.20014
C36  24919616.70814    -85386.43314     -4499.31814        26.40014
R10  19875795.07314       719.27114       741.36314        25.40014
C13  38735674.45113        79.23413         4.78613        22.90013
C30  25009785.28613   -294941.04013     -4158.15313        21.40013
> 2025 05 03 08 36 38.9999999  0 15                      
G28  22271209.36325   -291352.49425     -4017.00125        35.40025
G18  21116645.05125     39019.15025       503.17325        35.40025
G31  21461387.79025   -188551.52225     -2616.17225        34.90025
G29  21294227.41315   -229360.30815     -3161.46315        33.40015
G26  21172455.91415     54205.93915       719.45015        30.20015
G05  23511594.36215    -37963.37015      -554.55515        29.80015
G16  22980308.16414    142457.34614      1938.51714        24.70014
G20  24665008.97013   -203824.07213     -2907.10813        20.70013
C35  23260035.51226     76761.41926      1109.24526        38.30026
C29  21570353.35525   -147358.02525     -2043.05025        32.70025
R09  19383132.33714   -122296.60114     -2868.61414        29.10014
C36  24920273.85314    -89880.03014     -4498.55214        26.60014
R10  19875462.60414      1388.20414       745.65614        25.50014
C13  38735462.19813        91.65713         7.52813        23.00013
C30  25010374.67813   -299091.11213     -4152.43813        21.30013
> 2025 05 03 08 36 39.9999999  0 15                      
G28  22271734.59925   -295363.83525     -4017.41125        35.40025
G31  21461646.51125   -191162.21125     -2616.93925        34.80025
G18  21116307.18525     39528.56625       503.42525        35.30025
G29  21294594.35915   -232513.24215     -3157.27815        32.60015
G26  21172082.07315     54928.95415       716.45415        30.20015
G05  23511465.15115    -38514.63515      -558.50615        29.80015
G16  22979707.08014    144397.19014      1932.06214        24.80014
G20  24665324.35113   -206724.71013     -2905.92513        21.00013
C35  23259584.62526     77876.48826      1109.14126        38.30026
C29  21570504.45125   -149395.09125     -2042.95425        32.70025
R09  19383435.12714   -125179.35414     -2874.30514        28.90014
C36  24920904.61714    -94378.59514     -4506.85414        26.60014
R10  19875065.37914      2240.94614       743.11814        25.50014
C13  38735222.06413       108.61413        13.41413        23.00013
C30  25010932.89113   -303241.05113     -4155.67913        21.30013
> 2025 05 03 08 36 40.9999999  0 15                      
G31  21461907.33127   -193773.34627     -2617.21827        44.00027
G20  24665634.63615   -209618.92215     -2896.85915        32.20015
G26  21171705.83316     55651.47316       716.40616        35.80016
G16  22979099.70015    146336.89015      1933.76315        33.40015
G28  22272265.53126   -299375.44826     -4017.61026        35.70026
G29  21294949.91315   -235670.22515     -3164.86915        34.30015
G18  21115976.81325     40038.41125       504.19725        35.20025
G05  23511332.34315    -39066.21115      -557.59415        29.80015
C35  23259132.23826     78991.88726      1109.75426        39.00026
C13  38734980.73114       126.25014        12.16614        26.90014
C30  25011494.40315   -307398.26415     -4166.65715        30.80015
R10  19874704.12915      2903.00915       739.63815        34.30015
C29  21570655.24625   -151431.70425     -2042.19525        32.70025
R09  19383731.92214   -128030.01314     -2862.99314        29.00014
C36  24921521.88914    -98876.06614     -4502.73114        27.20014
> 2025 05 03 08 36 41.9999999  0 15                      
G31  21462168.15027   -196384.86327     -2617.56927        45.00027
G20  24665950.61817   -212511.95417     -2898.30417        42.40017
G26  21171334.39016     56372.87816       714.98516        40.10016
G29  21295312.06226   -238828.06526     -3164.12926        36.40026
G28  22272784.77226   -303387.58826     -4018.26426        36.30026
G18  21115646.14225     40546.80325       501.80025        35.10025
G16  22978497.41715    148277.75515      1935.58315        34.80015
G05  23511195.03815    -39617.32415      -556.74515        29.80015
C35  23258683.14926     80106.20826      1107.97126        39.60026
R09  19384033.51315   -130907.41615     -2868.83815        32.70015
C13  38734737.00015       139.83115         5.74315        34.80015
C30  25012049.01915   -311559.12215     -4168.48715        33.10015
C29  21570812.03825   -153469.85225     -2044.72425        33.30025
R10  19874315.59815      3709.99315       730.46915        34.00015
C36  24922157.44915   -103370.36615     -4498.52015        33.10015
> 2025 05 03 08 36 43.0000000  0 16                      
G31  21462457.15027   -198998.27527     -2619.47227        44.80027
G26  21170987.23127     57094.23927       715.47527        41.70027
G20  24666296.27827   -215405.44727     -2899.58427        42.40027
G05  23511098.80515    -40167.45315      -555.50115        32.00015
G29  21295715.58326   -241986.42526     -3164.48226        37.40026
G28  22273356.47626   -307400.50426     -4019.16526        36.60026
G04  25123301.70016     -2219.90916     -2167.99716        35.50016
G18  21115341.55325     41053.82325       501.22225        35.20025
G16  22977900.53025    150218.00325      1934.82525        34.50025
C35  23258255.34526     81220.33026      1108.21226        39.60026
R09  19384353.99116   -133723.69416     -2867.71716        35.90016
C30  25012641.70825   -315720.02125     -4166.72625        35.00025
C29  21570996.11015   -155507.36215     -2042.99915        33.30015
C13  38734516.95215       152.39815         6.24915        34.60015
R10  19873960.34415      4500.19715       742.65215        33.60015
C36  24922802.30315   -107866.49915     -4502.85715        33.00015
> 2025 05 03 08 36 44.0000000  0 17                      
G31  21462718.26927   -201611.69727     -2619.53927        44.50027
G26  21170613.09027     57815.10927       714.76027        42.90027
G20  24666609.56227   -218299.58727     -2900.32527        42.20027
G05  23510965.09816    -40718.67016      -557.62316        39.20016
G27  25219842.66616 -31504092.30416      2148.78916        38.20016
G29  21296079.83126   -245145.19526     -3164.83526        37.90026
G28  22273882.91226   -311413.88026     -4019.46526        37.20026
G04  25123482.17516     -4383.44016     -2169.39316        36.20016
G18  21115007.88426     41560.57926       500.50926        35.70026
G16  22977303.34425    152158.26625      1934.15525        34.30025
C35  23257807.15526     82333.85726      1107.41826        39.50026
R09  19384650.48626   -136572.82826     -2869.24826        36.40026
C30  25013200.82125   -319881.08225     -4166.95025        35.00025
C29  21571145.10715   -157547.89615     -2047.85415        33.20015
C13  38734277.41815       165.57415         7.67215        34.20015
R10  19873597.59515      5169.88915       738.43515        33.30015
C36  24923431.56715   -112360.95915     -4499.42915        32.60015
> 2025 05 03 08 36 45.0000000  0 17                      
G26  21170238.34927     58535.55727       714.37427        43.50027
G31  21462979.98827   -204225.89027     -2620.43827        44.30027
G20  24666923.44427   -221194.26127     -2900.80227        41.90027
G27  25219197.21326 -31501938.72326      2147.71626        38.70026
G05  23510841.28326    -41270.62926      -558.19226        39.10026
G28  22274409.94726   -315427.82526     -4020.08926        37.70026
G29  21296444.37816   -248303.77216     -3164.34216        37.80016
G04  25123654.55626     -6547.43226     -2170.08526        36.30026
G18  21114674.51526     42066.63526       499.84326        36.10026
G16  22976698.96225    154098.43825      1934.26225        34.20025
C35  23257363.16326     83447.20626      1107.44926        39.30026
R09  19384953.57626   -139457.10726     -2870.10126        36.60026
C30  25013765.03125   -324042.31025     -4167.11825        34.90025
C29  21571295.60315   -159592.59315     -2052.58715        33.00015
C13  38734041.18115       180.38915         9.82415        33.70015
R10  19873248.93615      5764.83515       736.89415        32.90015
C36  24924064.72915   -116859.08815     -4505.77015        32.10015
> 2025 05 03 08 36 46.0000000  0 17                      
G26  21169865.40727     59255.39227       713.66527        43.60027
G31  21463243.50627   -206840.92827     -2621.32227        44.10027
G20  24667237.62727   -224089.81027     -2901.84727        41.60027
G27  25218552.65926 -31499785.44826      2147.25726        38.70026
G28  22274932.18526   -319442.37126     -4020.70626        37.80026
G05  23510711.47326    -41823.31426      -558.91226        38.90026
G29  21296808.32616   -251463.52816     -3166.20516        37.70016
G18  21114341.74526     42571.99726       499.15126        36.40026
G04  25123842.82626     -8712.17926     -2170.98526        36.30026
G16  22976090.38415    156039.27515      1934.55515        34.20015
R09  19385256.96626   -142343.67926     -2870.91726        36.60026
C30  25014328.04125   -328203.72725     -4167.31725        34.70025
C35  23256913.17416     84559.75816      1106.34316        38.00016
C29  21571452.99415   -161632.69915     -2043.61715        32.90015
C13  38733801.94715       193.93515         7.10015        33.30015
R10  19872832.82415      6719.78515       735.51515        32.60015
C36  24924695.19315   -121353.95115     -4499.03615        31.70015
> 2025 05 03 08 36 47.0000001  0 17                      
G26  21169523.34427     59974.95527       713.56327        43.60027
G31  21463532.80527   -209456.45627     -2621.63427        43.90027
G20  24667582.68826   -226985.57226     -2901.72926        41.30026
G28  22275488.30026   -323457.19826     -4020.82926        37.90026
G27  25217932.68826 -31497631.80226      2147.96626        38.50026
G29  21297206.15126   -254623.24326     -3165.55726        37.60026
G05  23510597.25226    -42376.59726      -559.44526        38.60026
G18  21114039.25526     43076.99926       498.95826        36.50026
G04  25124030.79526    -10877.40926     -2171.33526        36.20026
G16  22975510.88515    157979.58215      1934.42715        34.00015
R09  19385586.73826   -145210.38426     -2871.37126        36.60026
C35  23256495.86316     85672.17416      1106.53716        37.00016
C30  25014915.33425   -332365.05725     -4167.09325        34.70025
C29  21571638.26625   -163673.21025     -2046.52325        32.80025
C13  38733587.89515       205.48815         4.74815        33.00015
R10  19872504.55115      7365.83515       736.21915        32.30015
C36  24925348.74015   -125846.20015     -4496.75015        31.30015
> 2025 05 03 08 36 47.9999998  0 17                      
G26  21169058.06627     60693.93227       712.81927        43.70027
G31  21463704.88627   -212072.73327     -2622.51327        43.70027
G20  24667803.93526   -229882.15226     -2902.85126        41.00026
G28  22275928.69526   -327472.64326     -4021.61226        38.20026
G27  25217194.30026 -31495478.60126      2147.11326        38.40026
G05  23510375.10626    -42930.69126      -560.36126        38.30026
G29  21297484.05926   -257783.47426     -3166.34826        37.60026
G18  21113616.84726     43581.10226       497.79026        36.80026
G04  25124117.43526    -13043.22026     -2171.96326        36.20026
G16  22974822.86125    159919.03525      1933.16125        33.80025
R09  19385796.29226   -148074.79826     -2872.70026        36.60026
C35  23255953.53826     86784.16526      1105.96826        36.60026
C30  25015389.90625   -336526.73425     -4167.65725        34.70025
C29  21571696.72515   -165714.23215     -2047.08615        32.70015
R10  19872053.96315      8024.85215       739.91815        32.20015
C13  38733260.82215       215.66815         3.68315        32.70015
C36  24925883.27015   -130342.55115     -4504.20815        31.00015
> 2025 05 03 08 36 48.9999999  0 17                      
G26  21168695.31727     61412.66827       712.80727        43.80027
G31  21463976.49827   -214689.57427     -2622.92927        43.60027
G20  24668130.70826   -232779.15526     -2903.02026        40.80026
G28  22276462.02626   -331488.47126     -4021.82526        38.40026
G27  25216558.44026 -31493325.38226      2147.41826        38.30026
G05  23510258.48726    -43485.77326      -560.63426        38.20026
G29  21297862.99626   -260944.44626     -3166.39926        37.60026
G18  21113294.87026     44084.81026       497.70226        37.10026
G04  25124304.50626    -15210.07426     -2172.43126        36.60026
G16  22974231.07125    161857.80825      1933.37225        33.70025
C35  23255516.44126     87895.97026      1105.95626        37.00026
R09  19386110.47526   -150959.11626     -2873.11826        36.70026
C30  25015964.90825   -340688.50225     -4167.56725        34.90025
C29  21571856.81415   -167752.96515     -2043.34215        32.70015
C36  24926523.62715   -134840.21015     -4504.06415        31.20015
R10  19871695.11215      8734.16815       738.78615        32.00015
C13  38733039.87415       228.81215         8.87015        32.30015
> 2025 05 03 08 36 50.0000000  0 18                      
G26  21168353.55427     62130.56927       711.60227        43.90027
G31  21464267.59727   -217307.41627     -2624.22327        43.50027
G20  24668475.77026   -235677.11626     -2904.32026        40.60026
G28  22277019.34026   -335505.05826     -4022.84626        38.60026
G27  25215944.76526 -31491172.58826      2146.69826        38.20026
G05  23510152.96026    -44041.33126      -561.92826        38.10026
G29  21298250.62826   -264105.46126     -3167.16626        37.50026
G18  21112995.67726     44587.64926       496.52226        37.20026
G04  25124513.16126    -17377.27526     -2173.50626        37.10026
G16  22973662.66425    163796.72925      1932.86325        33.70025
C35  23255096.73226     89007.14826      1105.03526        37.60026
C36  24927180.17216   -139337.50816     -4502.94316        36.20016
R09  19386436.94926   -153808.24826     -2874.36326        36.80026
C30  25016556.09925   -344850.64625     -4168.15625        35.20025
C29  21572052.87915   -169794.11115     -2048.18015        32.50015
C08  38854924.69525                      -422.05925        31.40025
R10  19871322.77015      9615.13015       731.29515        31.80015
C13  38732837.21515       241.77015         7.03715        32.00015
> 2025 05 03 08 36 51.0000000  0 18                      
G26  21167977.31427     62847.63127       710.77927        44.00027
G31  21464528.11627   -219926.49727     -2625.56227        43.50027
G20  24668791.15126   -238576.16226     -2905.44926        40.40026
G28  22277549.67326   -339522.56226     -4023.82226        38.60026
G27  25215296.91326 -31489020.50726      2145.86026        38.10026
G05  23510021.35126    -44598.21926      -563.41526        38.00026
G29  21298614.57626   -267267.51726     -3168.43726        37.50026
G04  25124690.33926    -19545.33626     -2174.35226        37.40026
G18  21112662.60826     45089.18626       495.02226        37.20026
G16  22973058.28325    165735.01225      1932.09925        33.60025
C35  23254645.54426     90117.32826      1103.87126        38.00026
R09  19386739.14026   -156686.41526     -2875.79126        36.90026
C36  24927802.54126   -143835.13926     -4503.60526        36.30026
C30  25017116.11125   -349013.36525     -4168.81325        35.40025
C08  38854768.20415      -417.50015      -423.30915        33.10015
C29  21572203.37415   -171838.32515     -2051.55515        32.40015
R10  19870943.23215     10374.82515       732.69815        31.70015
C13  38732607.87415       253.19215         4.84515        31.80015
> 2025 05 03 08 36 52.0000000  0 18                      
G26  21167605.27227     63563.76427       709.80527        44.00027
G20  24669104.13526   -241476.01526     -2906.11726        40.20026
G28  22278081.20526   -343540.83526     -4024.51726        38.60026
G31  21464790.13517   -222545.80917     -2626.03817        42.80017
G05  23509887.04426    -45156.03526      -564.14326        38.00026
G27  25214652.95926 -31486868.60626      2145.94526        38.10026
G29  21298978.82426   -270430.11126     -3168.72426        37.50026
G04  25124865.41826    -21714.67526     -2175.84026        37.40026
G18  21112327.14026     45590.08126       494.71126        37.20026
G16  22972456.59915    167672.38815      1930.30815        33.60015
C35  23254191.35816     91227.24316      1103.97116        38.00016
R09  19387041.33126   -159566.11026     -2876.93826        36.90026
C30  25017682.71926   -353176.52126     -4169.18026        35.60026
C36  24928431.80626   -148333.72326     -4504.86626        36.20026
C08  38854606.31625      -835.34325      -423.82525        33.40025
C29  21572364.36315   -173882.96215     -2050.65815        32.30015
R10  19870573.88815     11079.60215       731.40715        31.50015
C13  38732358.14615       264.50115         5.44315        31.50015
> 2025 05 03 08 36 53.0000000  0 18                      
G26  21167234.42927     64279.22127       709.25427        43.90027
G31  21465050.95417   -225166.93717     -2627.64717        42.20017
G20  24669421.91526   -244376.76926     -2907.06526        40.00026
G28  22278603.14426   -347560.02426     -4025.50726        38.60026
G05  23509760.23226    -45714.93626      -565.30626        37.90026
G04  25125039.59726    -23884.68526     -2176.20726        37.60026
G27  25214001.51026 -31484717.36326      2145.04926        37.90026
G29  21299343.37126   -273593.43926     -3169.55626        37.50026
G18  21112005.46326     46089.83626       493.32026        37.20026
G16  22971855.21615    169609.51815      1931.39315        33.50015
C35  23253746.76616     92336.43316      1103.01816        38.00016
R09  19387335.72726   -162404.54726     -2877.88226        36.90026
C30  25018245.12926   -357340.09326     -4169.58826        35.80026
C36  24929060.77026   -152832.86126     -4505.22126        36.10026
C08  38854451.02325     -1253.77625      -424.53825        33.90025
C29  21572528.94915   -175928.75115     -2052.17215        32.20015
R10  19870209.04115     11760.73615       729.80215        31.40015
C13  38732117.41315       275.36115         4.82515        31.30015
> 2025 05 03 08 36 54.0000001  0 18                      
G26  21166890.26727     64993.62127       708.00927        43.80027
G31  21465344.75127   -227789.11127     -2628.55927        42.00027
G20  24669765.77726   -247278.76926     -2908.48426        39.80026
G28  22279159.25926   -351580.20326     -4026.53526        38.80026
G05  23509657.10326    -46275.01426      -566.53026        38.10026
G04  25125248.55226    -26055.91826     -2177.70526        37.80026
G29  21299737.59826   -276757.37426     -3170.09926        37.50026
G18  21111699.97426     46588.40726       492.11726        37.40026
G27  25213391.13326 -31482566.77526      2144.39426        37.80026
G16  22971281.71325    171545.72025      1929.87325        33.50025
C35  23253322.86026     93444.58426      1101.82026        38.30026
R09  19387672.39426   -165307.92826     -2879.41826        37.00026
C30  25018836.92026   -361504.43926     -4170.54026        35.90026
C36  24929717.01626   -157332.73726     -4506.05126        36.00026
C08  38854318.51525     -1673.27425      -425.84025        34.10025
C29  21572712.12215   -177973.68015     -2050.30815        32.20015
R10  19869856.78415     12534.16115       733.01915        31.30015
C13  38731908.15815       285.42715         3.85815        31.00015
> 2025 05 03 08 36 54.9999998  0 18                      
G26  21166430.08527     65706.57227       706.36227        43.80027
G31  21465515.93327   -230413.47427     -2630.56927        41.80027
G20  24669989.12226   -250182.32226     -2910.19026        39.70026
G28  22279599.65426   -355601.73426     -4028.06626        38.80026
G05  23509431.06026    -46836.70226      -568.35526        38.30026
G04  25125332.49426    -28228.77526     -2179.53126        37.80026
G29  21300013.70726   -279922.93326     -3172.23226        37.50026
G18  21111281.46426     47085.56726       490.59026        37.40026
G27  25212661.73726 -31480417.19626      2143.20926        37.70026
G16  22970585.59425    173480.85725      1928.73925        33.50025
C35  23252783.83326     94551.30926      1100.20126        38.30026
R09  19387885.84626   -168194.50026     -2881.42626        37.00026
C30  25019309.99226   -365669.93926     -4171.88326        36.20026
C36  24930252.44526   -161833.73726     -4507.36926        36.00026
C08  38854072.68525     -2093.82625      -426.88925        34.70025
C29  21572777.17715   -180020.45115     -2053.50115        32.50015
C13  38731587.08015       292.64115        -0.02115        31.00015
R10  19869413.09215     13156.56615       731.52715        31.20015
> 2025 05 03 08 36 55.9999999  0 18                      
G26  21166085.02427     66418.16927       705.05727        43.70027
G31  21465807.33127   -233039.00427     -2632.22427        41.60027
G20  24670333.28426   -253087.30426     -2911.55826        39.60026
G28  22280156.66826   -359624.70526     -4029.55226        38.70026
G05  23509333.32726    -47400.21926      -570.29526        38.50026
G04  25125537.85226    -30402.99426     -2180.76226        37.90026
G29  21300407.03526   -283089.76626     -3173.33126        37.60026
G18  21110983.47026     47580.93426       488.60726        37.40026
G27  25212045.36426 -31478268.79426      2141.94926        37.50026
G16  22970009.09425    175414.69825      1927.32825        33.40025
C35  23252367.72126     95656.81326      1099.08326        38.20026
R09  19388209.92226   -171031.40826     -2883.11626        36.90026
C30  25019905.08026   -369836.27426     -4172.55926        36.60026
C36  24930910.79026   -166335.95226     -4508.62926        36.00026
C08  38853948.27125     -2515.57025      -428.15125        35.00025
C29  21572963.04825   -182068.69525     -2054.78825        32.80025
C13  38731383.22115       298.41515        -0.75615        31.40015
R10  19869039.55015     14043.63015       731.15015        30.00015
> 2025 05 03 08 36 56.9999999  0 18                      
G26  21165712.98227     67128.65627       704.06827        43.60027
G31  21466070.84826   -235665.88826     -2633.42326        41.40026
G05  23509205.01626    -47964.84526      -571.04226        38.80026
G20  24670644.46826   -255993.52726     -2912.70426        39.40026
G28  22280688.20126   -363648.93426     -4030.71826        38.80026
G04  25125718.02726    -32578.50026     -2182.01126        38.40026
G18  21110647.40326     48075.13826       487.75826        37.40026
G29  21300770.98326   -286257.33826     -3173.80126        37.60026
G27  25211395.71426 -31476121.15426      2141.39526        37.40026
G16  22969397.81715    177348.19215      1927.45615        33.30015
C35  23251916.53326     96761.16526      1097.96526        38.10026
C30  25020465.09226   -374003.50626     -4173.48826        36.80026
R09  19388516.30926   -173932.49726     -2884.44226        36.90026
C36  24931540.95326   -170839.09726     -4509.41626        36.30026
C08  38853794.77825     -2938.34125      -429.09325        35.10025
C29  21573116.54225   -184117.67925     -2055.16325        32.80025
R10  19868667.50815     14764.42415       724.03515        30.40015
C13  38731145.78615       301.62515        -3.88215        31.40015
> 2025 05 03 08 36 58.0000000  0 18                      
G26  21165355.32927     67838.31927       703.44127        43.60027
G31  21466352.05426   -238293.79526     -2634.22526        41.30026
G05  23509079.70326    -48530.86626      -572.52726        39.00026
G20  24670979.63626   -258900.91626     -2913.77826        39.30026
G28  22281227.82726   -367673.96126     -4031.23126        38.80026
G04  25125907.79626    -34755.01226     -2182.82126        38.40026
G18  21110330.52226     48568.36426       486.92926        37.40026
G29  21301146.32326   -289426.08426     -3175.14026        37.50026
G27  25210762.85226 -31473973.95926      2141.16226        37.30026
G16  22968797.03315    179280.93015      1926.55015        33.20015
C35  23251479.73626     97864.93926      1097.72826        38.10026
C30  25021043.09226   -378171.46826     -4174.07826        37.20026
R09  19388843.08326   -176881.75926     -2885.66826        36.80026
C36  24932182.20926   -175342.81126     -4509.75126        36.50026
C08  38853643.08325     -3361.98025      -429.82925        35.40025
C29  21573290.12225   -186168.00625     -2056.75125        32.80025
C13  38730911.94815       306.27315        -0.38915        31.40015
R10  19868311.95415     15457.72715       729.34215        30.40015
> 2025 05 03 08 36 59.0000000  0 18                      
G26  21164982.68727     68546.56627       701.65727        43.60027
G31  21466613.47326   -240923.27926     -2636.15226        41.20026
G05  23508951.09226    -49098.30326      -574.02626        39.20026
G20  24671295.61726   -261809.66726     -2915.31126        39.20026
G28  22281757.56026   -371700.27426     -4032.83426        38.80026
G04  25126089.77026    -36933.08826     -2184.73726        38.40026
G29  21301507.27326   -292595.68726     -3175.91026        37.50026
G18  21110002.25026     49060.03626       485.01426        37.40026
G27  25210120.09726 -31471827.85126      2139.68126        37.20026
G16  22968183.65715    181212.06015      1924.44315        33.10015
C35  23251031.84626     98967.51926      1096.15426        38.00026
C30  25021607.90126   -382340.27026     -4175.04826        37.50026
C36  24932807.87626   -179847.45726     -4510.93626        36.50026
R09  19389141.97626   -179743.11626     -2887.37526        36.70026
C08  38853490.18826     -3786.52926      -430.83126        35.60026
C29  21573457.10625   -188219.26925     -2057.55925        33.00025
C13  38730676.61115       310.57215        -1.70415        31.60015
R10  19867931.51715     16221.99515       725.35015        30.30015
> 2025 05 03 08 37 00.0000000  0 18                      
G26  21164609.44627     69253.58527       700.54127        43.50027
G31  21466871.89426   -243554.25926     -2637.58926        41.10026
G05  23508831.47526    -49667.29726      -575.63626        39.40026
G04  25126263.94926    -39112.47026     -2185.89626        38.70026
G28  22282285.49526   -375727.98126     -4034.26426        38.80026
G20  24671606.20226   -264719.88226     -2916.80926        39.10026
G18  21109663.48426     49550.27426       483.65726        37.40026
G29  21301883.81326   -295766.59826     -3177.42626        37.40026
G27  25209469.54726 -31469682.58426      2138.98126        37.10026
G16  22967584.37215    183142.28815      1923.91215        32.90015
C35  23250583.35626    100068.88326      1094.94526        38.00026
C30  25022168.21326   -386510.02026     -4176.02926        37.50026
C36  24933437.74026   -184353.25426     -4512.18026        36.60026
R09  19389440.86926   -182605.23826     -2889.17926        36.60026
C08  38853334.89626     -4212.33826      -432.24926        35.70026
C29  21573613.89825   -190272.07325     -2059.38125        33.00025
C13  38730447.56915       311.04815        -7.24615        31.60015
R10  19867555.87715     16960.32915       717.55915        30.20015
> 2025 05 03 08 37 01.0000000  0 18                      
G26  21164237.70327     69959.28227       699.17327        43.50027
G31  21467135.41126   -246186.77226     -2639.14126        41.10026
G05  23508703.76326    -50237.65826      -576.90826        39.50026
G04  25126439.02826    -41293.36026     -2187.50626        38.90026
G28  22282817.02726   -379756.81926     -4035.26426        38.70026
G20  24671926.08126   -267631.45226     -2918.10826        38.90026
G18  21109333.11326     50039.06126       482.19826        37.50026
G29  21302249.85926   -298938.44726     -3178.17926        37.40026
G27  25208821.39626 -31467538.32626      2137.88926        37.10026
G16  22966989.58425    185070.91625      1922.71225        32.90025
C35  23250134.26726    101169.02226      1093.71626        37.90026
C30  25022736.62026   -390680.70226     -4176.95526        37.50026
C36  24934065.80526   -188859.91826     -4512.90426        36.70026
R09  19389744.25926   -185491.04626     -2890.49826        36.60026
C08  38853181.10226     -4639.12726      -433.08926        35.70026
C29  21573770.39025   -192325.92525     -2060.18525        33.00025
C13  38730205.33715       310.37015        -7.06515        31.50015
R10  19867184.73415     17675.78115       718.88215        30.70015
> 2025 05 03 08 37 02.0000001  0 18                      
G26  21163898.93827     70663.64927       697.83927        43.50027
G31  21467429.20826   -248820.78926     -2640.63126        41.00026
G05  23508601.53426    -50809.76326      -578.83926        39.80026
G04  25126644.98626    -43475.58226     -2188.75126        38.90026
G28  22283371.34326   -383787.26026     -4037.10326        38.70026
G20  24672275.03926   -270544.51126     -2919.66526        38.80026
G18  21109039.91626     50526.29126       480.58926        37.50026
G29  21302643.18726   -302111.67426     -3179.77726        37.30026
G27  25208213.71726 -31465395.21826      2136.66826        37.00026
G16  22966421.47725    186999.09025      1921.83325        32.90025
C30  25023331.10826   -394852.42026     -4178.04426        37.40026
C35  23249716.05626    102267.98226      1092.56026        37.80026
C36  24934727.44726   -193367.89826     -4514.44426        36.70026
R09  19390085.12326   -188417.34926     -2892.53726        36.50026
C08  38853051.59226     -5067.20626      -434.53226        35.70026
C29  21573955.66125   -194381.14925     -2061.72025        33.30025
C13  38729995.18215       309.56915        -6.67115        31.50015
R10  19866821.68615     18506.41315       716.97715        30.70015
> 2025 05 03 08 37 02.9999998  0 17                      
G26  21163438.75627     71366.88727       696.81027        43.50027
G31  21467601.88826   -251456.23826     -2642.02526        40.90026
G05  23508381.78626    -51383.39326      -580.25526        39.80026
G04  25126734.92326    -45659.14326     -2190.09026        38.90026
G20  24672503.48126   -273458.73226     -2920.66326        38.70026
G28  22283813.53726   -387818.96326     -4038.19526        38.60026
G18  21108611.21326     51012.22926       479.42826        37.50026
G29  21302926.49126   -305286.19326     -3181.02526        37.30026
G27  25207480.72426 -31463252.77326      2136.24826        36.90026
G16  22965716.06625    188926.28625      1920.84325        33.20025
C30  25023802.08226   -399024.90626     -4178.67626        37.40026
C36  24935261.67826   -197876.92926     -4515.36426        36.60026
R09  19390279.08926   -191200.00926     -2894.47326        36.40026
C08  38852814.75626     -5496.22026      -435.29326        35.70026
C29  21574026.41225   -196437.72225     -2063.05525        33.60025
C13  38729665.41115       311.12715        -3.07315        31.60015
R10  19866377.39315     19130.33915       717.50815        30.60015
> 2025 05 03 08 37 03.9999998  0 18                      
G26  21163096.09327     72069.06327       695.78027        43.50027
G31  21467896.88426   -254093.08326     -2643.40526        40.90026
G05  23508285.25326    -51958.18126      -581.23126        39.80026
G04  25126949.27526    -47843.82826     -2191.10926        38.90026
G28  22284373.84926   -391851.77826     -4039.23026        38.50026
G20  24672856.93726   -276374.20026     -2921.95226        38.60026
G18  21108312.02026     51496.92326       478.20826        37.60026
G29  21303327.61326   -308461.43426     -3181.46326        37.50026
G27  25206866.74926 -31461111.14426      2135.35726        37.10026
G16  22965147.06025    190852.61825      1920.03425        33.60025
R10  19866032.03215     19867.91415       714.90415        34.70015
C30  25024407.96326   -403198.11326     -4179.37426        37.40026
C36  24935925.11826   -202386.60626     -4515.80626        36.60026
R09  19390613.35826   -194091.93026     -2895.24926        36.30026
C08  38852695.43926     -5926.18326      -436.24626        35.70026
C35  23248756.42116    104462.52316      1091.40016        36.60016
C29  21574226.07415   -198491.16815     -2057.69215        33.60015
C13  38729452.55815       309.92715        -8.38815        31.60015
> 2025 05 03 08 37 05.0000000  0 18                      
G26  21162731.24627     72769.90927       694.37327        43.50027
G31  21468176.29126   -256731.30626     -2644.71826        40.90026
G05  23508168.63426    -52534.44926      -582.81626        39.80026
G04  25127140.84226    -50029.96726     -2192.67326        38.80026
G28  22284917.97226   -395885.67826     -4040.24826        38.50026
G20  24673183.71026   -279291.09626     -2923.41626        38.50026
G29  21303702.65426   -311637.81226     -3182.75226        37.80026
G27  25206231.78926 -31458970.45926      2134.40126        37.50026
G18  21107991.84126     51980.29826       476.90726        37.60026
G16  22964554.96925    192777.96525      1919.04525        34.00025
R10  19865672.28126     20584.09426       713.14326        39.20026
C36  24936565.77526   -206897.26226     -4516.89726        36.80026
C30  25024987.76126   -407372.28326     -4180.40426        37.20026
R09  19390932.93626   -197001.46026     -2896.65926        36.40026
C35  23248324.42026    105558.28226      1089.98426        36.10026
C08  38852553.33726     -6357.13826      -437.20626        35.70026
C13  38729228.31315       308.68315        -7.02315        31.50015
C29  21574404.75015   -200540.61515     -2053.20015        32.40015
> 2025 05 03 08 37 06.0000000  0 18                      
G26  21162363.70027     73469.69827       693.37727        43.50027
G31  21468441.00826   -259370.83226     -2646.05826        41.10026
G05  23508044.81926    -53111.82426      -583.80926        39.70026
G04  25127317.72026    -52217.39526     -2193.95226        38.80026
G28  22285445.60726   -399920.75326     -4041.54126        38.50026
G29  21304069.00026   -314815.11726     -3183.64926        38.00026
G27  25205588.73426 -31456830.59726      2133.56926        37.90026
G20  24673494.59526   -282209.39526     -2924.88126        38.30026
G18  21107664.46826     52462.33826       475.49126        37.60026
G16  22963951.48725    194702.73625      1918.60125        34.20025
R10  19865296.04226     21325.48226       712.13726        39.20026
C36  24937194.44026   -211408.69326     -4517.64426        36.90026
R09  19391240.82326   -199910.95326     -2898.13326        36.60026
C30  25025554.66926   -411547.34326     -4181.32926        37.10026
C35  23247876.23026    106653.04026      1088.42926        36.20026
C08  38852399.24426     -6788.89126      -437.98026        35.60026
C13  38728995.67415       303.24415       -13.36315        31.30015
C29  21574554.94615   -202591.23815     -2057.03815        30.70015
> 2025 05 03 08 37 07.0000000  0 18                      
G26  21161991.65827     74168.41627       692.31927        43.50027
G31  21468701.52726   -262011.57926     -2647.21826        41.10026
G05  23507906.91526    -53690.75326      -585.56826        39.60026
G04  25127497.59526    -54406.02126     -2195.08726        38.80026
G29  21304438.64426   -317993.42826     -3184.67426        38.40026
G27  25204945.37926 -31454691.43426      2132.94826        38.20026
G28  22285981.93626   -403956.59126     -4042.07926        38.50026
G20  24673808.47826   -285128.71126     -2925.68526        38.20026
G18  21107340.99226     52943.19026       474.39426        37.60026
G16  22963341.11015    196625.87115      1915.70115        34.20015
R10  19864925.79826     22035.59926       709.79426        39.00026
C30  25026116.78026   -415723.11526     -4181.93526        37.00026
C36  24937825.20326   -215920.90526     -4518.40926        36.90026
C35  23247430.13926    107746.97126      1087.70726        36.30026
R09  19391548.41016   -202819.68316     -2900.32616        36.60016
C08  38852236.75626     -7221.77326      -439.25726        35.50026
C13  38728758.53815       298.94515        -9.54015        31.20015
C29  21574699.74615   -204651.84515     -2071.40815        29.90015
> 2025 05 03 08 37 08.0000000  0 17                      
G26  21161622.31427     74865.83227       690.90127        43.40027
G31  21468968.34226   -264653.92326     -2649.00426        41.00026
G29  21304806.19026   -321172.94626     -3185.98226        38.80026
G05  23507777.10526    -54271.21126      -587.08626        39.40026
G27  25204300.52626 -31452553.12826      2132.01226        38.60026
G04  25127678.37026    -56595.99426     -2196.50826        38.80026
G28  22286517.66526   -407993.96026     -4043.99526        38.40026
G20  24674127.75726   -288049.48926     -2927.37026        38.00026
G18  21107006.42426     53422.65426       472.90626        37.50026
C30  25026680.09026   -419899.76426     -4182.89426        37.00026
C35  23246984.34826    108839.67926      1086.28626        36.50026
C36  24938455.96626   -220434.22226     -4519.67626        36.80026
C08  38852078.46626     -7655.65626      -440.19326        35.50026
C13  38728523.20115       294.63915       -10.12015        31.60015
C29  21574857.73715   -206715.44415     -2070.90315        30.30015
R10  19864557.95316     22732.75016       708.34716        37.70016
R09  19391849.10215   -205691.73815     -2900.29915        33.90015
> 2025 05 03 08 37 09.0000001  0 18                      
G26  21161278.75227     75562.43827       690.33827        43.30027
G31  21469262.13926   -267297.15226     -2649.53226        40.80026
G29  21305203.71426   -324353.15926     -3186.42126        39.20026
G27  25203686.25126 -31450415.49226      2131.43726        38.80026
G05  23507683.56926    -54852.71926      -587.89626        39.30026
G04  25127887.02626    -58786.98726     -2197.36626        38.80026
G28  22287079.77626   -412032.13326     -4044.43526        38.30026
G18  21106708.73026     53900.98126       471.89526        37.50026
G20  24674477.01526   -290971.32226     -2928.22126        37.80026
G16  22962162.32615    200465.82115      1908.26815        32.40015
C30  25027274.87826   -424077.01026     -4183.35126        37.00026
C36  24939110.71326   -224948.14126     -4520.02626        36.70026
C35  23246569.73526    109931.63526      1085.76926        36.50026
C08  38851953.45225     -8090.21725      -440.70925        35.40025
C13  38728317.84315       289.24615       -11.74615        32.00015
R10  19864205.09716     23509.22216       710.90016        36.30016
C29  21575046.90615   -208778.48615     -2068.57115        31.00015
R09  19392186.36915   -208598.17415     -2901.98115        32.20015
> 2025 05 03 08 37 09.9999999  0 18                      
G26  21160829.06327     76257.84827       689.00227        43.20027
G31  21469456.10526   -269942.01026     -2651.48026        40.70026
G29  21305493.31426   -327534.44326     -3187.62626        39.40026
G27  25202962.55226 -31448278.53426      2130.80926        38.80026
G05  23507480.01026    -55435.72926      -589.56926        39.20026
G04  25127991.05426    -60979.27926     -2198.74726        38.70026
G28  22287527.36626   -416071.67126     -4046.02526        38.20026
G18  21106300.11226     54377.99826       470.55326        37.40026
G20  24674721.04626   -293894.34226     -2929.41926        37.60026
G16  22961487.79315    202382.95415      1911.30415        30.60015
C30  25027761.14226   -428255.02726     -4184.15526        37.20026
C36  24939665.02926   -229463.08826     -4521.21326        36.60026
C35  23246041.50026    111023.13026      1085.50826        36.40026
C08  38851721.71325     -8525.91325      -442.02025        35.30025
C13  38728008.15815       282.61815       -13.00115        32.50015
C29  21575126.35115   -210840.97115     -2067.96015        31.80015
R09  19392408.81515   -211470.26615     -2902.03515        31.80015
R10  19863772.79615     24133.11515       704.95515        35.10015
> 2025 05 03 08 37 10.9999999  0 18                      
G26  21160467.21327     76952.19627       687.93527        43.10027
G31  21469718.72326   -272588.03226     -2652.48326        40.50026
G29  21305860.85926   -330716.60526     -3188.47926        39.60026
G27  25202319.19726 -31446142.30426      2129.98226        38.80026
G05  23507356.19626    -56019.82626      -590.52126        39.00026
G04  25128173.62726    -63172.67126     -2199.82226        38.60026
G28  22288059.79726   -420112.08526     -4046.73226        38.00026
G18  21105970.34126     54853.84226       469.37626        37.40026
G20  24675044.22226   -296818.55826     -2930.69426        37.40026
G16  22960889.10714    204299.75814      1910.75714        28.80014
C30  25028323.85226   -432433.78326     -4184.94926        37.20026
C36  24940294.29426   -233978.55726     -4521.55426        36.50026
C35  23245603.20426    112113.20326      1083.53326        36.30026
C08  38851573.31525     -8962.20425      -442.41625        35.20025
C13  38727770.12325       275.17125       -13.68425        32.70025
C29  21575285.54115   -212905.72115     -2071.70915        32.10015
R09  19392707.10815   -214328.56815     -2904.39615        31.60015
R10  19863404.95115     24831.03015       709.03315        34.10015
> 2025 05 03 08 37 11.9999999  0 18                      
G26  21160102.96627     77645.65927       687.15627        43.00027
G29  21306227.80526   -333899.75426     -3189.50526        39.80026
G31  21469990.33526   -275235.23026     -2653.64726        40.30026
G27  25201673.44526 -31444006.76526      2129.32926        38.80026
G05  23507231.48226    -56605.28026      -591.99526        38.90026
G04  25128355.90126    -65367.12826     -2200.85126        38.50026
G28  22288590.73026   -424153.72526     -4048.11326        37.90026
G18  21105640.56926     55328.43726       468.10626        37.30026
G20  24675358.10526   -299743.82026     -2931.64626        37.20026
G16  22960286.22514    206219.16214      1914.83814        27.50014
C30  25028892.25826   -436613.10126     -4185.40526        37.20026
C36  24940925.65626   -238494.98426     -4522.71226        36.40026
C35  23245152.31626    113202.21026      1082.66226        36.10026
C08  38851423.11925     -9399.54825      -443.68025        35.00025
C13  38727539.28225       266.65225       -14.86525        32.90025
C29  21575442.33225   -214971.91625     -2072.72625        32.40025
R09  19393020.09215   -217265.56815     -2906.01015        31.50015
R10  19863029.91115     25566.31415       708.36915        33.30015
> 2025 05 03 08 37 13.0000000  0 15                      
G26  21159765.09927     78338.61527       686.84027        42.80027
G31  21470288.02926   -277883.67326     -2655.67826        40.20026
G29  21306631.02626   -337084.27826     -3191.07226        39.90026
G27  25201060.06926 -31441871.59426      2129.12326        38.80026
G28  22289152.84126   -428197.04126     -4050.01526        37.90026
G05  23507141.54526    -57191.99426      -593.20626        38.70026
G18  21105345.57326     55800.78126       465.35626        37.30026
G16  22959704.92715    208138.09315      1912.83115        30.20015
C29  21575632.70025   -217039.83025     -2074.58325        34.20025
R09  19393367.25115   -220224.72415     -2909.74715        34.60015
C35  23244729.00926    114289.82226      1081.10426        36.40026
C36  24941583.10126   -243012.74026     -4524.22726        36.30026
C08  38851299.60515     -9837.95415      -444.74615        34.90015
C13  38727330.62725       257.43525       -15.37625        33.00025
R10  19862682.45115     26313.80515       700.48615        32.80015
> 2025 05 03 08 37 14.0000001  0 10                      
G31  21470564.43826   -280532.92126     -2655.20526        40.10026
G29  21307015.66026   -340268.93226     -3190.52426        39.90026
G28  22289697.86326   -432240.10526     -4048.74226        38.30026
G18  21105031.09126     56273.61026       467.26226        37.30026
G16  22959117.63415    210056.08515      1911.71215        32.60015
C29  21575804.78126   -219107.52426     -2073.33626        38.70026
R09  19393681.13416   -223105.98516     -2908.44716        38.90016
C35  23244289.51326    115377.60926      1082.11826        36.60026
C13  38727109.68015       246.88715       -16.97015        33.00015
R10  19862322.40015     27030.74515       701.00815        32.40015
> 2025 05 03 08 37 14.9999998  0 12                      
G28  22290137.95926   -436284.05626     -4050.27126        38.30026
G18  21104616.47826     56745.35226       465.31726        37.20026
G31  21470746.71116   -283183.29716     -2656.82016        40.00016
G16  22958411.32315    211972.46315      1909.68715        32.30015
G29  21307294.46716   -343453.56416     -3191.25016        38.80016
G05  23506818.36816    -58362.68516      -595.25216        35.60016
G26  21158946.66616     79720.14216       680.84116        39.30016
C29  21575874.63326   -221175.90326     -2074.54826        38.50026
R09  19393892.48826   -225981.86026     -2910.12026        38.60026
C35  23243756.78226    116464.63826      1080.82126        36.50026
R10  19861864.31715     27729.42015       692.66015        32.10015
C36  24942771.17915   -252050.20215     -4526.20915        33.40015
> 2025 05 03 08 37 15.9999999  0 12                      
G28  22290700.36926   -440328.62726     -4050.74226        38.20026
G18  21104319.98326     57216.35126       464.76426        37.50026
G31  21471046.50426   -285834.23626     -2657.08126        39.10026
G16  22957832.12415    213888.82115      1910.48415        31.90015
G29  21307694.69016   -346639.44416     -3192.11416        37.00016
G05  23506726.63215    -58952.84715      -596.02615        34.00015
R09  19394234.25126   -228912.74726     -2910.91426        38.40026
C29  21576064.10226   -223244.82226     -2074.99826        38.20026
C35  23243339.77126    117551.09326      1080.35726        36.40026
C36  24943429.52315   -256568.94315     -4524.54815        32.70015
R10  19861530.04915     28406.75115       708.02115        31.80015
C08  38850795.05414    -11147.72114      -441.46214        28.10014
> 2025 05 03 08 37 16.9999999  0 13                      
G28  22291213.61426   -444373.83426     -4051.33026        38.20026
G18  21103976.12126     57686.54626       463.98326        37.80026
G31  21471292.93316   -288488.08916     -2661.11616        37.80016
G16  22957209.15515    215804.64415      1909.74515        31.40015
G29  21308043.64815   -349825.44715     -3191.87115        35.30015
G05  23506589.02715    -59540.89615      -592.80015        32.50015
R09  19394523.55126   -231819.98526     -2911.90026        38.20026
C29  21576204.10526   -225314.41226     -2075.67826        38.00026
C35  23242878.69026    118637.02026      1079.90526        36.20026
C36  24944039.60115   -261087.24615     -4523.83515        32.40015
R10  19861135.52215     29148.85615       704.99815        31.50015
C08  38850617.27714    -11582.66514      -440.71714        26.40014
C30  25031699.21514     -8361.85114     -4187.66014        26.50014
> 2025 05 03 08 37 18.0000000  0 15                      
G18  21103679.02726     58156.24126       463.56426        38.10026
G28  22291779.92226   -448419.35226     -4051.55226        38.20026
G31  21471593.02516   -291142.07216     -2659.92916        36.60016
G16  22956650.34215    217720.27015      1909.64415        30.90015
G29  21308448.06815   -353009.48115     -3188.92815        34.00015
G05  23506487.69715    -60127.31015      -591.47815        31.10015
G26  21157876.70715     81765.35015       676.72615        29.70015
R09  19394861.71726   -234732.53426     -2912.36126        38.00026
C29  21576396.27226   -227384.38526     -2075.99226        37.80026
C35  23242461.37926    119722.84826      1079.95126        36.00026
C36  24944697.64515   -265606.57515     -4525.66715        32.30015
R10  19860817.44215     29741.51515       696.02315        31.20015
C30  25032276.61614    -12545.10014     -4189.05614        25.10014
C08  38850490.76514    -12015.75514      -437.99214        25.00014
C13  38726113.47014       222.15314       -12.71414        24.80014
> 2025 05 03 08 37 19.0000000  0 15                      
G18  21103351.65426     58625.63426       463.37726        38.30026
G28  22292310.85426   -452465.12726     -4051.76326        38.20026
G31  21471861.04016   -293794.38616     -2657.34016        35.60016
G29  21308814.11515   -356194.09315     -3190.76315        32.80015
G16  22956045.06115    219636.75715      1911.05215        30.50015
G05  23506359.68615    -60714.14715      -592.91115        29.80015
G26  21157506.16314     82452.14614       680.93214        28.30014
R09  19395167.50526   -237631.33126     -2912.81426        37.80026
C29  21576553.96326   -229454.39026     -2075.83026        37.60026
C35  23242015.58726    120808.63526      1079.95526        35.80026
C36  24945331.70615   -270125.33715     -4524.28515        32.30015
R10  19860428.01215     30552.31615       698.29615        30.90015
C13  38725879.63114       212.53214       -15.43114        23.70014
C30  25032818.04114    -16728.83814     -4189.78914        24.00014
C08  38850337.27114    -12449.49914      -439.88114        23.80014
> 2025 05 03 08 37 20.0000000  0 16                      
G18  21103026.07926     59094.73226       463.08826        38.60026
G28  22292846.28426   -456511.04326     -4051.84726        38.20026
G31  21472124.55715   -296447.46515     -2659.32215        34.70015
G29  21309183.45915   -359380.90215     -3193.76715        31.90015
G16  22955445.47615    221554.75715      1912.89215        30.10015
G26  21157137.71814     83144.31814       688.99614        27.50014
G05  23506236.77114    -61301.63114      -593.67014        28.60014
G20  24677893.75012   -323173.48112     -2938.17012        16.80012
R09  19395481.98726   -240575.97026     -2913.25926        37.70026
C29  21576716.15026   -231524.50126     -2075.97126        37.50026
C35  23241567.69726    121894.36326      1079.88726        35.50026
C36  24945965.46725   -274644.05625     -4524.50325        32.80025
R10  19860052.37215     31292.17115       698.75815        30.70015
C13  38725642.79513       199.87213       -19.98913        22.90013
C30  25033374.15613    -20912.03013     -4188.72513        23.00013
C08  38850184.37713    -12886.76813      -444.84113        22.80013
> 2025 05 03 08 37 20.9999999  0 16                      
G18  21102651.93826     59563.42326       462.67926        38.90026
G28  22293329.54926   -460557.22026     -4052.11326        38.10026
G31  21472342.20715   -299101.87215     -2660.87815        33.90015
G29  21309499.44115   -362569.37115     -3195.10615        31.30015
G26  21156723.10514     83837.03014       687.17314        27.00014
G05  23506067.38814    -61890.21814      -594.94814        27.60014
G16  22954788.93014    223469.30114      1907.00614        28.80014
G20  24678167.76012   -326107.19512     -2939.53912        16.70012
R09  19395735.31226   -243453.41026     -2913.94326        37.60026
C29  21576827.67326   -233594.86726     -2076.24826        37.30026
C35  23241079.03615    122979.31515      1078.80815        35.20015
C36  24946544.66625   -279162.77925     -4524.47725        33.00025
R10  19859639.85715     31969.46015       698.47015        30.40015
C13  38725356.79313       185.98713       -20.25413        22.30013
C30  25033890.09913    -25090.31013     -4181.57813        22.20013
C08  38849968.52613    -13322.36413      -440.51413        21.90013
> 2025 05 03 08 37 21.9999999  0 16                      
G18  21102326.06426     60031.52226       461.92126        39.00026
G28  22293862.88026   -464603.73326     -4052.55926        38.10026
G31  21472623.41215   -301756.65515     -2660.85115        33.30015
G29  21309866.38615   -365756.08315     -3191.71115        30.70015
G16  22954192.64314    225385.43014      1911.03714        27.80014
G26  21156346.56614     84527.54314       683.53214        26.60014
G05  23505942.07514    -62481.56914      -598.61414        26.80014
G20  24678476.54612   -329044.26012     -2944.61912        16.60012
R09  19396038.70226   -246339.21826     -2914.66826        37.50026
C29  21576990.46026   -235665.49026     -2076.57726        37.20026
C36  24947178.72825   -283681.47825     -4524.51325        33.00025
C35  23240629.04715    124065.58715      1081.10315        34.50015
R10  19859270.81315     32672.71215       698.28515        30.20015
C13  38725129.55113       170.93813       -21.46013        21.70013
C30  25034467.79913    -29265.75613     -4179.85313        21.60013
C08  38849827.32413    -13757.15313      -440.21413        21.20013
> 2025 05 03 08 37 22.9999999  0 15                      
G18  21101998.69026     60499.48526       462.03126        39.00026
G28  22294396.81026   -468650.51426     -4052.77526        38.00026
G31  21472888.72815   -304411.59315     -2660.87715        32.90015
G29  21310230.33515   -368941.16915     -3190.13415        30.30015
G16  22953609.84714    227301.25914      1909.81514        27.50014
G26  21155989.21314     85217.32414       683.55114        26.30014
G05  23505823.05714    -63074.16614      -599.08314        26.20014
G20  24678804.51912   -331989.68212     -2955.46312        16.40012
R09  19396339.69326   -249212.03626     -2915.06326        37.40026
C29  21577149.95026   -237736.54526     -2077.08026        37.00026
C35  23240188.05315    125150.65115      1078.64915        33.70015
R10  19858909.86315     33334.01815       696.73315        30.00015
C13  38724895.71313       153.26413       -24.79613        21.30013
C30  25035052.09413    -33441.93013     -4182.34513        21.20013
C08  38849683.72413    -14192.68813      -441.71713        20.60013
> 2025 05 03 08 37 23.9999999  0 15                      
G18  21101676.11426     60967.01626       461.45126        38.90026
G28  22294925.64426   -472697.31026     -4052.66326        37.90026
G26  21155620.16915     85905.44015       681.42015        30.10015
G31  21473145.05115   -307066.31115     -2660.46915        32.50015
G29  21310602.67715   -372129.32715     -3195.55415        30.00015
G16  22952997.37114    229213.90014      1905.18114        27.40014
G05  23505697.14414    -63668.07214      -600.42314        25.80014
G20  24679124.39812   -334941.71112     -2961.19212        16.30012
R09  19396659.57226   -252186.47526     -2915.52326        37.30026
C29  21577309.14026   -239807.40926     -2076.57626        36.80026
C35  23239741.96115    126236.19215      1079.96815        33.20015
R10  19858539.61915     34043.37215       698.91815        29.90015
C13  38724662.77413       135.59713       -23.47313        21.00013
C30  25035627.09613    -37620.21813     -4185.15213        20.80013
C08  38849523.93413    -14627.73313      -440.60913        20.10013
> 2025 05 03 08 37 25.0000000  0 16                      
G18  21101358.93326     61434.26626       461.30126        38.80026
G28  22295476.36326   -476744.25826     -4052.82926        37.80026
G26  21155269.71215     86592.23215       680.32215        33.10015
G31  21473422.95915   -309721.77215     -2661.63815        32.20015
G29  21310990.30815   -375318.02415     -3194.77315        29.80015
G16  22952397.48614    231129.12214      1910.70314        27.30014
G05  23505582.92414    -64264.02414      -602.78314        25.60014
G20  24679469.15912   -337897.45212     -2963.40412        16.20012
R09  19396978.55126   -255094.47626     -2915.74026        37.20026
C29  21577480.92126   -241878.55326     -2077.03926        36.50026
C35  23239308.46215    127321.37015      1079.24115        32.90015
R10  19858174.47215     34786.24815       701.33415        29.70015
C36  24949080.91114   -297219.50114     -4519.16414        27.90014
C13  38724432.83313       122.67413       -16.30613        21.00013
C30  25036214.68913    -41799.74013     -4185.89013        20.70013
C08  38849385.43013    -15057.07213      -432.24213        19.70013
> 2025 05 03 08 37 26.0000000  0 16                      
G18  21101033.05926     61901.10126       460.74426        38.80026
G28  22296009.39426   -480791.42826     -4053.15926        37.70026
G31  21473692.17215   -312377.30015     -2661.44115        32.00015
G26  21154905.46415     87279.40615       681.48215        32.80015
G05  23505460.00915    -64857.02915      -597.41215        31.10015
G29  21311368.34715   -378505.69115     -3193.03115        29.70015
G16  22951794.00414    233049.83614      1917.57714        27.20014
G20  24679808.52412   -340853.29412     -2961.77212        16.10012
R09  19397285.53926   -258000.14926     -2916.63126        37.10026
C29  21577643.70826   -243949.93026     -2077.32026        36.30026
C35  23238860.57225    128406.54625      1079.34625        32.80025
R10  19857818.91815     35419.33015       691.93715        29.60015
C36  24949707.77714   -301735.78814     -4522.09314        27.30014
C30  25036787.89213    -45981.62313     -4188.88913        21.30013
C13  38724199.29513       111.07013       -16.77313        21.30013
C08  38849229.83813    -15487.10113      -436.20113        19.40013
> 2025 05 03 08 37 27.0000001  0 16                      
G18  21100740.16226     62367.68726       460.59926        38.80026
G28  22296571.80526   -484838.80026     -4053.33426        37.60026
G31  21473994.96315   -315032.81915     -2661.37715        31.80015
G26  21154568.79715     87964.34015       677.95115        32.40015
G29  21311759.27615   -381692.08815     -3191.62315        29.70015
G05  23505385.96015    -65449.23915      -597.67615        30.90015
G16  22951222.29914    234973.10414      1918.68014        27.00014
G20  24680157.78212   -343808.25212     -2960.37612        16.00012
R09  19397622.20626   -260903.52926     -2916.86926        37.20026
C29  21577830.77926   -246021.27326     -2077.13426        36.10026
C35  23238447.75725    129491.51825      1079.06025        32.60025
C36  24950369.11914   -306253.94014     -4524.89114        29.10014
R10  19857465.76315     36196.56715       698.50715        29.50015
C30  25037385.07913    -50163.77613     -4188.09613        21.70013
C13  38723984.04413       103.64813       -11.14213        21.30013
C08  38849099.42813    -15915.65813      -433.63013        19.20013
> 2025 05 03 08 37 27.9999998  0 16                      
G18  21100323.15026     62833.97726       460.27826        39.00026
G28  22297015.49726   -488886.44126     -4053.63526        37.60026
G31  21474175.43815   -317689.17115     -2662.62815        31.70015
G26  21154102.91915     88652.02315       683.19315        32.00015
G29  21312035.98415   -384877.72215     -3191.11315        29.80015
G05  23505171.60815    -66043.40415      -601.00615        30.50015
G16  22950528.28014    236895.92014      1916.72514        26.90014
G20  24680386.52412   -346762.83812     -2960.26112        15.90012
C36  24950911.14416   -310772.18516     -4524.09716        36.40016
R09  19397844.65226   -263836.70826     -2917.57826        37.50026
C29  21577904.22826   -248092.91426     -2077.59926        35.90026
C35  23237911.42925    130576.45625      1079.10925        32.50025
R10  19857019.07214     36835.75014       691.03414        29.40014
C30  25037874.34013    -54345.30013     -4187.01513        21.90013
C13  38723655.47113        97.06913       -11.96713        21.30013
C08  38848867.38913    -16344.27313      -434.45413        18.90013
> 2025 05 03 08 37 28.9999999  0 16                      
G18  21100027.55526     63300.04126       460.08926        39.10026
G28  22297578.20826   -492933.99126     -4053.36626        37.50026
G31  21474477.62815   -320347.49215     -2665.16815        31.70015
G26  21153766.85215     89339.61115       681.67715        31.70015
G29  21312434.10915   -388063.70715     -3192.02315        29.80015
G05  23505069.67915    -66638.71415      -601.74415        30.00015
G16  22949951.17914    238816.30914      1913.31014        26.80014
G20  24680734.88312   -349712.88612     -2953.64112        15.90012
C36  24951571.28726   -315290.17526     -4523.67026        38.20026
R09  19398179.82026   -266732.44826     -2917.73026        37.70026
C29  21578096.69526   -250164.33126     -2077.11426        35.70026
C35  23237497.11525    131661.80725      1079.74825        32.40025
R10  19856676.10914     37559.59714       698.46214        29.30014
C30  25038465.83113    -58524.61613     -4184.01913        21.90013
C13  38723446.21613        89.10713       -14.46313        21.30013
C08  38848753.16813    -16772.86313      -434.38713        18.70013
> 2025 05 03 08 37 30.0000000  0 16                      
G18  21099711.27426     63765.80426       459.80226        39.20026
G28  22298121.43226   -496981.78826     -4053.72526        37.50026
G31  21474758.53415   -323004.39915     -2662.00615        31.70015
G26  21153410.09915     90027.54315       682.29415        31.50015
G29  21312819.64215   -391251.60415     -3194.65715        29.80015
G05  23504956.65715    -67231.90515      -597.94015        29.70015
G16  22949359.38914    240730.90514      1905.89014        26.60014
G20  24681061.95612   -352654.36012     -2942.99112        15.80012
C36  24952216.44026   -319808.21626     -4523.81726        38.20026
R09  19398497.89926   -269635.10226     -2918.26826        37.80026
C29  21578269.37526   -252236.10626     -2077.70626        35.50026
C35  23237056.12115    132745.55615      1077.19015        32.30015
R10  19856311.56214     38300.95214       698.39514        29.20014
C30  25039035.43613    -62701.77913     -4181.83913        21.80013
C13  38723227.96713        81.46113       -13.24513        21.30013
C08  38848620.66013    -17200.93013      -433.56213        18.60013
> 2025 05 03 08 37 31.0000000  0 16                      
G18  21099388.99726     64231.33926       459.54126        39.30026
G28  22298657.16126   -501029.62726     -4053.73826        37.40026
G31  21475022.65115   -325661.23115     -2662.67415        31.70015
G26  21153044.65215     90714.86515       681.13615        31.40015
G29  21313188.68715   -394437.77115     -3191.18115        29.90015
G05  23504829.54515    -67828.83415      -604.67915        29.50015
G16  22948764.90114    242646.12714      1909.65214        26.40014
G20  24681391.42812   -355586.72012     -2933.68312        16.00012
C36  24952847.50326   -324325.90726     -4523.34026        38.20026
R09  19398806.08626   -272546.88726     -2918.67326        37.90026
C29  21578426.76625   -254307.86125     -2077.57225        35.30025
C35  23236617.82415    133830.34415      1079.48015        32.30015
R10  19855947.01414     38980.55914       695.03514        29.10014
C30  25039610.43813    -66878.99213     -4183.06213        21.80013
C13  38723005.52113        72.21213       -15.87813        21.30013
C08  38848466.26613    -17626.64913      -430.37313        18.50013
> 2025 05 03 08 37 32.0000000  0 16                      
G18  21099065.22126     64696.41326       458.97926        39.40026
G28  22299188.09326   -505077.80626     -4054.21026        37.40026
G31  21475289.76615   -328318.11715     -2662.77515        31.70015
G26  21152682.50315     91401.11815       679.85315        31.30015
G29  21313554.73315   -397625.14715     -3193.84115        30.10015
G05  23504705.73114    -68429.16314      -607.89214        29.40014
G16  22948162.31814    244561.63414      1909.78314        26.30014
G20  24681720.00112   -358513.11812     -2929.27912        16.20012
C36  24953475.86826   -328843.62626     -4523.53926        38.20026
R09  19399114.57226   -275459.43626     -2919.34926        38.00026
C29  21578588.35425   -256379.79125     -2077.82725        35.10025
C35  23236173.83225    134915.24125      1079.13925        32.80025
R10  19855569.87514     39727.28514       695.65114        29.10014
C30  25040180.34413    -71052.74113     -4177.82513        21.70013
C13  38722778.27813        61.58513       -17.12713        21.30013
C08  38848311.27413    -18056.83813      -438.23313        18.40013
> 2025 05 03 08 37 33.0000000  0 16                      
G18  21098735.44926     65161.04926       458.55326        39.50026
G28  22299722.32326   -509126.12226     -4054.24326        37.30026
G31  21475556.58215   -330975.25915     -2663.13115        31.70015
G26  21152313.75815     92088.22315       681.66915        31.20015
G29  21313923.47815   -400812.84015     -3193.71215        30.10015
G05  23504592.70914    -69033.03114      -611.50014        29.20014
G16  22947561.53414    246476.98814      1909.41414        26.20014
G20  24682036.88112   -361436.18112     -2927.25612        16.40012
R09  19399426.65626   -278391.85226     -2920.06626        38.10026
C36  24954107.83126   -333361.48526     -4523.73526        38.10026
C29  21578750.84225   -258452.15425     -2078.38725        34.90025
C35  23235731.63825    136000.03525      1078.93225        33.00025
R10  19855208.62514     40389.35114       692.67614        29.00014
C30  25040745.75213    -75225.75213     -4178.44813        21.60013
C13  38722537.84513        50.87513       -16.56213        21.40013
C08  38848150.28513    -18491.07813      -442.07613        18.30013
> 2025 05 03 08 37 33.9999999  0 16                      
G18  21098363.70726     65625.37226       458.35826        39.60026
G28  22300207.08826   -513174.75126     -4054.59226        37.30026
G31  21475783.22515   -333633.77015     -2665.00215        31.80015
G26  21151897.94615     92775.67015       681.80815        31.20015
G29  21314246.95415   -403999.62815     -3192.14215        30.10015
G05  23504429.92214    -69636.75614      -609.46114        29.00014
G16  22946912.18314    248396.43114      1915.67614        26.10014
G20  24682305.49512   -364356.52212     -2924.78612        16.40012
C36  24954690.92726   -337879.23926     -4523.45526        38.30026
R09  19399686.27726   -281302.14626     -2920.39126        38.20026
C29  21578862.66425   -260524.51125     -2078.10825        34.70025
C35  23235238.17925    137084.69525      1078.83725        33.20025
R10  19854792.81314     41084.93814       691.62714        29.00014
C30  25041253.30113    -79400.72913     -4181.71313        21.60013
C13  38722251.84313        41.98113       -13.74213        21.40013
C08  38847952.42213    -18930.48913      -447.75113        18.30013
> 2025 05 03 08 37 34.9999999  0 16                      
G18  21098037.23326     66089.36426       457.94426        39.70026
G28  22300741.61826   -517223.48926     -4054.66926        37.20026
G31  21476052.43815   -336294.23415     -2667.31915        31.90015
G26  21151531.30015     93462.27715       680.30615        31.20015
G29  21314621.39515   -407185.68315     -3191.56815        30.10015
G05  23504312.10314    -70233.84014      -599.64614        28.90014
G16  22946317.39514    250314.34114      1911.26114        26.00014
G20  24682617.57912   -367269.98912     -2915.91012        16.40012
C36  24955319.89226   -342396.85926     -4523.37726        38.60026
R09  19399994.46326   -284213.93126     -2920.91926        38.40026
C29  21579023.35325   -262597.16125     -2078.62325        34.50025
C35  23234788.79025    138169.37125      1078.85425        33.30025
R10  19854414.47514     41837.76614       689.10414        29.00014
C30  25041810.01613    -83579.23113     -4186.08913        21.70013
C13  38722020.10313        32.50413       -15.59613        21.30013
C08  38847810.32113    -19374.12213      -451.57213        18.50013
> 2025 05 03 08 37 35.9999999  0 16                      
G18  21097713.45726     66553.13126       457.79126        39.80026
G28  22301276.44826   -521272.43826     -4054.91526        37.20026
G31  21476321.95215   -338953.11515     -2663.95115        31.90015
G26  21151164.95315     94147.88315       679.24015        31.20015
G29  21314988.94015   -410370.30615     -3189.76715        30.10015
G05  23504185.89114    -70833.99314      -607.54914        28.70014
G16  22945718.70914    252231.81214      1911.38714        25.90014
G20  24682929.36412   -370178.43212     -2911.79212        16.40012
C36  24955950.65526   -346914.34526     -4523.22426        38.80026
R09  19400303.84926   -287132.59326     -2921.33626        38.50026
C29  21579184.34225   -264669.78225     -2078.41525        34.30025
C35  23234345.99725    139254.06625      1078.89425        33.50025
R10  19854062.81814     42447.20714       692.85114        28.90014
C30  25042378.72213    -87758.92213     -4186.09213        22.10013
C13  38721780.26913        22.46913       -16.12513        21.30013
C08  38847667.61913    -19820.65013      -453.78513        18.50013
> 2025 05 03 08 37 36.9999999  0 16                      
G18  21097386.38326     67016.19026       456.84226        39.80026
G28  22301807.08026   -525321.80126     -4055.43026        37.10026
G31  21476600.45915   -341613.94215     -2667.66115        31.90015
G26  21150796.50815     94833.44315       679.67415        31.30015
G29  21315360.68315   -413557.37715     -3194.15615        30.00015
G05  23504063.87514    -71429.73914      -599.40614        28.60014
G16  22945130.81614    254149.34714      1911.70214        25.80014
G20  24683247.74312   -373087.36112     -2915.03312        16.40012
C36  24956580.21926   -351432.06226     -4523.64026        39.00026
R09  19400615.93326   -290065.00826     -2922.25226        38.50026
C35  23233897.20825    140338.27025      1078.14725        33.60025
C29  21579348.62825   -266742.92425     -2079.21225        34.20025
R10  19853701.86814     43108.51014       691.36714        28.90014
C30  25042934.53713    -91938.55713     -4185.41413        22.40013
C13  38721549.72913        15.00413       -11.98913        21.20013
C08  38847513.52613    -20271.96213      -459.51513        18.40013
> 2025 05 03 08 37 38.0000000  0 16                      
G18  21097075.79826     67478.84326       456.64126        39.90026
G28  22302352.10326   -529371.46226     -4055.61526        37.10026
G31  21476871.77115   -344275.66615     -2667.98015        31.90015
G26  21150438.55615     95519.59415       680.63815        31.30015
G29  21315742.91815   -416745.57015     -3194.55915        29.90015
G05  23503948.75514    -72026.04614      -602.39514        28.40014
G16  22944541.12514    256064.07914      1907.52014        25.70014
G20  24683586.20912   -375998.98712     -2918.78112        16.50012
C36  24957222.07526   -355949.83226     -4523.54826        39.30026
R09  19400935.21226   -292974.53826     -2922.79326        38.50026
C35  23233464.00825    141422.44325      1078.40225        33.80025
C29  21579521.00825   -268816.14925     -2079.02025        34.00025
R10  19853332.82414     43873.50714       689.28114        28.80014
C30  25043515.53513    -96117.53513     -4184.40113        22.40013
C13  38721328.78213         8.41513       -11.90713        21.10013
C08  38847383.11613    -20721.56113      -454.49713        18.20013
> 2025 05 03 08 37 39.0000001  0 16                      
G18  21096778.10426     67941.01826       456.05326        39.90026
G28  22302923.50726   -533421.42726     -4055.99426        37.00026
G31  21477169.16515   -346937.09915     -2667.16615        31.90015
G26  21150096.79315     96205.84215       680.41515        31.30015
G29  21316130.55015   -419934.66815     -3195.43115        29.80015
G05  23503848.32414    -72625.19714      -606.45314        28.20014
G16  22943965.52314    257978.45614      1908.31614        25.70014
G20  24683944.46112   -378921.39912     -2933.68412        17.00012
C36  24957883.11726   -360467.71626     -4523.76626        39.40026
R09  19401268.28126   -295858.81726     -2923.43626        38.50026
C35  23233049.39525    142506.22425      1077.75625        33.80025
C29  21579715.57425   -270889.88225     -2079.81325        33.80025
R10  19853001.85314     44534.04614       693.60314        28.80014
C30  25044116.31913   -100295.75813     -4183.67113        22.60013
C13  38721126.72213        -0.28213       -15.58013        21.10013
C08  38847264.69813    -21165.88913      -447.52013        18.10013
> 2025 05 03 08 37 39.9999998  0 16                      
G18  21096366.48926     68402.70126       455.57426        39.90026
G28  22303364.20226   -537471.79526     -4056.43126        37.00026
G31  21477352.03915   -349597.58515     -2665.87515        31.80015
G26  21149638.11015     96890.68015       678.26815        31.50015
G29  21316414.15415   -423123.31815     -3194.28615        29.70015
G05  23503632.17414    -73228.33314      -610.99114        28.10014
G16  22943272.40314    259894.40814      1910.87414        26.10014
G20  24684175.60113   -381857.42613     -2948.69513        17.60013
C36  24958422.14426   -364985.55626     -4523.62426        39.40026
R09  19401487.73026   -298776.71526     -2924.23526        38.50026
C35  23232511.86725    143589.87025      1077.76725        33.90025
C29  21579782.12825   -272963.89925     -2079.96725        33.70025
R10  19852566.85414     45109.16414       687.78314        28.90014
C30  25044594.18813   -104471.01213     -4179.57713        22.60013
C13  38720804.14513       -11.76013       -18.67913        21.40013
C08  38847018.86813    -21606.69613      -444.85713        17.90013
> 2025 05 03 08 37 40.9999999  0 16                      
G18  21096068.79526     68864.18126       455.51526        39.90026
G28  22303929.31126   -541522.26026     -4056.37326        36.90026
G26  21149296.94615     97574.33915       677.20615        31.60015
G31  21477650.03215   -352258.80615     -2667.45015        31.80015
G29  21316817.67415   -426312.37915     -3195.12815        29.70015
G05  23503537.73914    -73830.32114      -607.27714        28.00014
G16  22942700.69914    261814.56814      1916.40114        26.30014
G20  24684518.26413   -384801.72613     -2954.29913        17.90013
C36  24959084.38526   -369503.38126     -4523.62426        39.30026
R09  19401833.99026   -301731.28726     -2924.57126        38.40026
C35  23232098.45325    144673.41525      1077.68525        33.90025
C29  21579971.89625   -275038.02125     -2079.98325        33.60025
R10  19852211.60014     45900.12714       690.44414        28.90014
C30  25045185.37913   -108646.31013     -4181.12713        22.60013
C13  38720593.39113       -23.76513       -18.07813        21.60013
C08  38846895.35413    -22044.06813      -441.46413        17.80013
> 2025 05 03 08 37 41.9999999  0 16                      
G18  21095748.61726     69324.92026       454.50526        39.80026
G28  22304459.64426   -545573.06626     -4056.83726        36.90026
G31  21477915.34915   -354922.92815     -2671.43315        31.70015
G26  21148931.79915     98258.08215       677.92215        31.60015
G29  21317184.02115   -429505.05615     -3200.34515        29.50015
G05  23503415.72414    -74430.71514      -605.46014        27.90014
G16  22942101.11414    263735.29714      1915.14814        26.30014
G20  24684841.14013   -387751.34413     -2958.13713        17.90013
C36  24959715.44926   -374021.32926     -4523.81726        39.10026
R09  19402138.57926   -304623.97126     -2925.39926        38.30026
C35  23231652.66225    145756.85125      1077.57025        33.90025
C29  21580138.58125   -277112.41125     -2080.33225        33.50025
R10  19851833.56214     46650.66814       688.13014        28.90014
C30  25045741.19413   -112823.10813     -4183.35413        22.50013
C13  38720357.15513       -37.44713       -20.33013        21.70013
C08  38846736.76413    -22479.11913      -439.70013        17.70013
> 2025 05 03 08 37 43.0000000  0 16                      
G18  21095430.83726     69785.33926       454.45026        39.80026
G28  22305003.46726   -549624.38726     -4057.38226        36.80026
G31  21478204.64815   -357586.35915     -2668.89115        31.70015
G26  21148580.44215     98943.91015       681.06115        31.50015
G29  21317565.65614   -432692.12914     -3190.07714        29.40014
G05  23503298.20514    -75033.43714      -609.69414        28.20014
G16  22941516.21914    265654.67714      1912.89614        26.40014
G20  24685175.10913   -390709.25613     -2967.86513        17.90013
C36  24960356.10526   -378539.38226     -4523.85726        39.10026
R09  19402461.15626   -307550.31126     -2925.97526        38.30026
C35  23231221.26025    146840.03625      1077.30225        33.90025
C29  21580311.86125   -279187.31225     -2080.91025        33.40025
R10  19851479.20714     47338.63014       687.61114        28.90014
C30  25046321.89213   -117001.28513     -4184.61913        22.40013
C13  38720127.21413       -50.21913       -18.07313        21.70013
C08  38846587.76713    -22914.25313      -440.93113        17.60013
> 2025 05 03 08 37 44.0000000  0 16                      
G18  21095110.05926     70245.03826       453.45826        39.70026
G28  22305536.49826   -553676.02326     -4057.67226        36.80026
G31  21478471.46415   -360248.77715     -2667.79115        31.70015
G26  21148207.20115     99630.12915       680.53415        31.50015
G29  21317936.20014   -435879.48014     -3193.36814        29.30014
G05  23503181.58614    -75634.90814      -606.72714        28.30014
G16  22940903.14314    267576.23414      1916.76114        26.70014
G20  24685501.88313   -393671.49513     -2970.28113        17.80013
C36  24960988.36726   -383057.58026     -4524.09526        39.00026
R09  19402773.83926   -310485.78226     -2926.80026        38.20026
C35  23230770.67225    147922.95025      1076.95125        34.10025
C29  21580469.55225   -281262.41025     -2081.02325        33.40025
R10  19851113.16014     48026.63314       690.25914        28.80014
C30  25046887.00113   -121180.42413     -4185.44513        22.40013
C13  38719887.08013       -64.33813       -20.62113        21.70013
C08  38846438.77013    -23348.99613      -440.37613        17.50013
> 2025 05 03 08 37 45.0000000  0 16                      
G18  21094783.58526     70704.56826       453.58226        39.70026
G28  22306074.02626   -557727.88126     -4057.82926        36.80026
G31  21478740.67715   -362913.07115     -2671.09415        31.70015
G26  21147839.95515    100315.57315       679.19115        31.30015
G05  23503055.97314    -76238.31814      -610.24214        28.60014
G29  21318312.14014   -439068.28714     -3195.39614        29.20014
G16  22940310.75314    269494.02414      1910.04214        26.70014
G20  24685829.25613   -396627.25613     -2958.38413        17.80013
C36  24961618.23126   -387575.54026     -4523.64726        39.30026
R09  19403076.63026   -313367.76926     -2927.13726        38.10026
C35  23230327.87925    149005.80025      1077.00625        34.10025
C29  21580632.63915   -283337.29615     -2080.58815        33.40015
R10  19850761.80414     48635.30314       689.35014        28.80014
C30  25047469.19813   -125363.72813     -4191.19313        22.30013
C13  38719646.94613       -78.79413       -20.43413        21.70013
C08  38846277.78113    -23785.47613      -443.15813        17.90013
> 2025 05 03 08 37 46.0000000  0 16                      
G18  21094459.51026     71163.55126       452.84626        39.60026
G28  22306605.55826   -561779.84926     -4057.88326        36.70026
G31  21479009.59115   -365577.24015     -2669.96715        31.70015
G26  21147475.40715    100997.39715       674.15115        31.20015
G05  23502932.15914    -76841.05814      -608.26914        28.90014
G29  21318676.68714   -442258.66014     -3197.01614        29.00014
G16  22939702.77414    271413.04514      1913.77214        27.10014
G20  24686150.93313   -399577.93913     -2954.00413        17.70013
C36  24962249.89426   -392093.75126     -4524.14426        39.20026
R09  19403389.31326   -316303.24026     -2927.83426        38.00026
C35  23229885.08525    150088.35925      1076.60225        34.20025
C29  21580794.52715   -285411.79915     -2080.12015        33.30015
R10  19850369.97514     49459.82914       682.31614        28.80014
C13  38719414.30713       -88.40113       -12.99213        21.70013
C30  25048043.30013   -129544.51813     -4185.33913        22.20013
C08  38846116.49313    -24226.53513      -449.15813        18.00013
> 2025 05 03 08 37 47.0000001  0 16                      
G18  21094166.61226     71622.03426       452.36926        39.50026
G28  22307170.06826   -565832.30426     -4058.55926        36.70026
G16  22939127.77215    273330.40615      1910.66715        32.70015
G31  21479311.48215   -368244.23415     -2674.26915        32.00015
G26  21147138.44115    101680.18415       677.40415        31.10015
G05  23502836.82514    -77445.35914      -610.94414        29.30014
G29  21319081.40714   -445445.41214     -3190.80314        28.90014
G20  24686512.48313   -402519.89613     -2943.45713        17.80013
C36  24962911.83626   -396611.98726     -4524.05526        39.10026
R09  19403729.27826   -319225.72226     -2928.56326        37.90026
C35  23229473.17025    151170.64825      1076.34425        34.50025
C29  21580987.59325   -287487.66925     -2082.36225        33.30025
R10  19850050.39614     50060.11814       687.50714        29.00014
C13  38719206.55113       -96.27013       -12.81013        21.90013
C30  25048641.08713   -133724.92013     -4186.01513        22.10013
C08  38846002.27213    -24669.57713      -449.84313        18.00013
> 2025 05 03 08 37 47.9999999  0 16                      
G18  21093758.29526     72079.84426       451.66526        39.40026
G28  22307624.25326   -569885.29526     -4059.06326        36.60026
G31  21479500.95125   -370909.83925     -2670.71525        32.20025
G16  22938449.34215    275248.12115      1912.08115        32.60015
G26  21146694.44815    102361.77415       675.18315        31.00015
G05  23502643.15915    -78051.77415      -613.28015        29.50015
G29  21319365.61014   -448634.52514     -3196.09914        28.80014
G20  24686752.31713   -405456.25613     -2939.36513        17.90013
C36  24963464.05326   -401130.39326     -4524.24226        38.90026
R09  19403960.71826   -322146.71226     -2929.19826        37.80026
C35  23228947.03525    152252.74525      1076.24325        34.90025
C29  21581068.23725   -289563.91725     -2082.19125        33.80025
R10  19849601.30714     50771.72314       690.28314        29.00014
C13  38718897.16513      -113.07713       -27.03213        21.90013
C30  25049120.15513   -137903.50013     -4183.42013        21.90013
C08  38845770.23313    -25115.20013      -452.66813        18.10013
> 2025 05 03 08 37 48.9999999  0 16                      
G18  21093436.91726     72537.45926       451.63526        39.20026
G28  22308162.98026   -573938.37226     -4058.99926        36.60026
G31  21479777.65915   -373572.76715     -2667.46915        32.20015
G26  21146323.60515    103044.87515       677.97415        31.00015
G05  23502516.04715    -78657.17615      -610.77615        29.80015
G16  22937846.16015    277171.38815      1920.16015        32.10015
G29  21319733.15614   -451824.95714     -3196.97114        28.70014
G20  24687071.29613   -408387.90513     -2935.17313        18.20013
C36  24964094.51726   -405648.75826     -4524.17026        38.60026
R09  19404274.90026   -325089.82526     -2929.84026        37.60026
C35  23228507.23925    153334.62025      1075.93525        34.90025
C29  21581232.82325   -291640.34325     -2082.34025        33.80025
R10  19849220.57114     51537.51414       687.25714        29.00014
C13  38718664.82613      -132.96413       -27.25513        21.80013
C30  25049670.87413   -142081.91613     -4184.15913        21.70013
C08  38845620.93613    -25564.43713      -456.87313        18.30013
> 2025 05 03 08 37 50.0000000  0 16                      
G18  21093141.32226     72994.70826       451.20326        39.10026
G28  22308725.39126   -577991.61226     -4059.18226        36.60026
G31  21480069.35715   -376237.22215     -2671.08115        32.10015
G26  21145992.33415    103725.80015       673.97415        31.10015
G05  23502419.51415    -79262.20015      -610.69815        29.80015
G16  22937274.75515    279096.94015      1920.82915        31.40015
G29  21320135.17814   -455009.37314     -3187.26814        28.60014
G20  24687413.06013   -411317.24013     -2934.03913        18.30013
C36  24964754.96026   -410166.96726     -4523.93826        38.30026
C35  23228091.12725    154416.54925      1076.14525        34.80025
C29  21581424.39125   -293716.98725     -2082.56225        33.80025
R09  19404619.96126   -328037.52026     -2930.21126        36.90026
R10  19848883.30414     52231.61414       681.07714        28.80014
C13  38718455.57113      -153.76013       -27.06213        21.70013
C30  25050261.16513   -146259.42613     -4182.86413        21.60013
C08  38845498.02113    -26015.98213      -458.50813        18.30013
> 2025 05 03 08 37 51.0000000  0 16                      
G18  21092822.04326     73451.47226       450.65826        38.90026
G28  22309257.82226   -582045.32826     -4059.81426        36.60026
G26  21145626.28815    104406.69415       675.01515        31.40015
G31  21480333.47515   -378904.38315     -2674.37515        31.90015
G05  23502300.19615    -79868.75815      -613.18715        29.90015
G16  22936678.16815    281017.75015      1912.57615        30.70015
G29  21320506.02114   -458192.89114     -3188.93014        28.40014
G20  24687731.13913   -414243.59013     -2930.71813        18.30013
C36  24965384.82426   -414685.40926     -4524.36426        38.00026
C35  23227645.93525    155498.10425      1075.55825        34.80025
C29  21581591.97525   -295793.88025     -2082.82625        33.70025
R09  19404927.24826   -330944.72126     -2931.08026        36.00026
R10  19848531.64714     52841.81614       684.15614        27.50014
C13  38718234.92413      -176.08213       -28.89413        21.70013
C30  25050830.77113   -150435.98513     -4181.89013        21.40013
C08  38845352.62213    -26467.55013      -457.39013        18.40013
> 2025 05 03 08 37 52.0000000  0 16                      
G18  21092494.67026     73907.63726       450.00226        38.70026
G28  22309794.15126   -586099.39526     -4060.10226        36.60026
G26  21145255.44415    105087.66015       675.13815        31.40015
G31  21480609.58315   -381573.86215     -2676.49815        31.80015
G05  23502184.77615    -80474.80615      -611.65615        30.00015
G29  21320880.46214   -461384.27314     -3201.17414        28.20014
G16  22936085.77815    282935.81615      1910.82915        30.10015
G20  24688043.82313   -417169.26713     -2931.20213        18.20013
C36  24966015.58726   -419203.95826     -4524.40826        37.70026
C35  23227197.14625    156579.57825      1075.62325        34.60025
C29  21581744.86915   -297871.04715     -2083.11215        33.60015
R09  19405237.83325   -333868.73125     -2931.75025        35.20025
R10  19848165.30114     53532.10114       680.06614        26.30014
C13  38718001.38513      -193.60113       -20.92913        21.60013
C30  25051392.88213   -154608.42113     -4176.18213        21.20013
C08  38845196.73013    -26918.24013      -456.06013        18.40013
> 2025 05 03 08 37 52.9999998  0 17                      
G18  21092096.84526     74363.18926       449.43626        38.50026
G28  22310247.13726   -590153.83626     -4060.43326        36.70026
G26  21144813.25015    105766.12515       671.40515        31.40015
G31  21480809.24515   -384243.44115     -2675.43615        31.50015
G05  23501986.31315    -81083.35415      -615.60615        30.00015
G04  25135621.97114     -2213.17914     -2218.56914        28.40014
G29  21321168.26214   -464576.58714     -3198.58614        28.10014
G16  22935392.95815    284852.17915      1909.70115        29.50015
G20  24688290.85213   -420094.18413     -2930.34313        18.20013
C36  24966565.70626   -423722.63126     -4524.48726        37.40026
C35  23226679.70425    157660.66625      1075.13725        34.50025
C29  21581830.90915   -299946.14115     -2079.81215        33.50015
R09  19405463.57725   -336759.16025     -2932.44525        34.60025
R10  19847712.01514     54266.58714       675.21514        25.60014
C13  38717688.40213      -208.10313       -18.74713        21.60013
C30  25051889.93713   -158779.26713     -4175.80213        21.00013
C08  38844962.59213    -27365.63213      -451.49913        18.40013
> 2025 05 03 08 37 53.9999999  0 17                      
G18  21091800.05126     74818.43226       449.20826        38.30026
G28  22310808.94826   -594208.50026     -4060.65426        36.70026
G26  21144477.48315    106446.63415       675.64915        31.40015
G05  23501898.47415    -81690.86015      -612.86615        30.00015
G04  25135828.22814     -4426.24814     -2218.93014        29.10014
G29  21321568.48514   -467768.01014     -3196.85814        28.10014
G16  22934817.05714    286769.28114      1911.58914        29.00014
G31  21481098.54515   -386909.76315     -2670.57315        30.80015
G20  24688625.12013   -423018.15713     -2929.38113        18.10013
C36  24967226.74926   -428241.11426     -4524.21426        37.10026
C35  23226267.19025    158741.66425      1075.12525        34.30025
R09  19405814.03425   -339736.65425     -2932.87825        34.20025
C29  21582025.47515   -302025.14915     -2086.79215        33.30015
R10  19847342.97014     55130.01014       674.71714        25.00014
C13  38717486.94213      -218.67013       -14.42913        21.50013
C30  25052499.41613   -162948.49213     -4174.23913        20.70013
C08  38844834.58113    -27811.15213      -450.41113        18.30013
> 2025 05 03 08 37 54.9999999  0 16                      
G18  21091471.47826     75272.99026       448.35126        38.20026
G28  22311348.87526   -598263.70226     -4061.33126        36.70026
G26  21144109.93715    107128.82915       677.17415        31.30015
G05  23501779.15715    -82297.67815      -612.33715        30.00015
G04  25136040.78114     -6641.29814     -2221.90214        29.10014
G29  21321936.63014   -470957.38714     -3194.21414        28.10014
G16  22934223.16814    288688.59414      1914.55214        28.70014
G31  21481371.95615   -389576.57615     -2672.91815        29.60015
G20  24688958.49013   -425944.13313     -2932.83813        18.10013
C36  24967858.41126   -432759.95626     -4524.82826        36.80026
C35  23225813.00415    159821.77615      1073.85815        34.10015
R09  19406132.11425   -342699.63225     -2933.92125        33.90025
C29  21582186.16315   -304103.67815     -2084.09715        33.10015
R10  19846986.81714     55765.38314       678.13914        24.50014
C13  38717251.00513      -221.66313        -5.01413        21.30013
C08  38844680.78713    -28255.72113      -449.90313        18.20013
> 2025 05 03 08 37 55.9999999  0 14                      
G18  21091150.70026     75727.32126       448.35426        38.00026
G28  22311886.70226   -602318.98226     -4061.17926        36.70026
G26  21143744.79015    107807.43415       670.94715        31.30015
G05  23501666.13515    -82909.53615      -620.24115        29.90015
G29  21322311.97114   -474148.35214     -3197.61914        28.40014
G04  25136209.56414     -8854.52314     -2218.17414        29.00014
G31  21481639.37114   -392247.88414     -2679.41814        28.80014
G16  22933614.28914    290609.89014      1916.42414        28.30014
G20  24689275.97013   -428871.89413     -2934.51513        18.10013
C36  24968486.77626   -437278.75826     -4524.58826        36.60026
R09  19406441.80025   -345619.82125     -2934.23625        33.70025
C29  21582349.25115   -306184.00415     -2087.03215        32.30015
R10  19846645.05414     56322.96214       684.04014        24.00014
C13  38717010.27213      -224.18513        -8.09813        21.20013
> 2025 05 03 08 37 56.9999999  0 14                      
G18  21090832.32126     76180.85026       447.26426        37.90026
G28  22312420.93226   -606374.79926     -4061.94526        36.70026
G05  23501538.42415    -83521.73115      -618.22615        29.80015
G29  21322679.21614   -477339.56114     -3197.19214        28.60014
G31  21481912.48114   -394919.08614     -2677.00914        28.50014
G04  25136388.84014    -11062.89814     -2211.81214        28.80014
G16  22933015.00414    292535.02014      1921.18214        28.00014
G20  24689591.95113   -431802.37813     -2937.70613        18.10013
C36  24969120.23826   -441797.62026     -4524.69726        36.40026
R09  19406746.08925   -348510.21225     -2934.99525        33.60025
C35  23224931.31515    161975.81615      1072.51415        32.10015
C29  21582507.24115   -308264.09715     -2085.78615        30.80015
R10  19846277.20814     57020.87314       682.50014        23.80014
C13  38716777.63313      -227.48313        -9.49613        21.10013
> 2025 05 03 08 37 58.0000000  0 15                      
G18  21090520.53626     76633.86526       446.94926        37.80026
G28  22312966.55526   -610431.10526     -4062.35626        36.90026
G31  21482200.58214   -397590.47114     -2677.28314        28.80014
G05  23501414.60915    -84130.46415      -612.81115        29.70015
G29  21323070.14614   -480530.26814     -3196.26114        28.70014
G04  25136580.70714    -13273.78614     -2217.95014        28.50014
G16  22932419.31614    294454.57014      1910.95014        27.70014
G26  21143026.48715    109169.18815       675.56915        29.80015
G20  24689936.11313   -434735.45613     -2940.18013        18.10013
C36  24969764.49226   -446316.88926     -4525.22526        36.20026
R09  19407063.56925   -351409.81025     -2936.08025        33.50025
C35  23224495.71615    163057.51615      1075.92515        31.30015
C29  21582682.02015   -310345.79115     -2088.24815        29.60015
R10  19845928.84914     57675.27514       677.81014        23.80014
C13  38716551.28913      -236.18313       -17.15613        21.00013
> 2025 05 03 08 37 59.0000001  0 15                      
G18  21090222.24326     77086.46626       446.51226        37.70026
G28  22313530.16526   -614487.65026     -4062.54326        37.10026
G31  21482505.17114   -400262.39214     -2678.06914        29.40014
G05  23501321.67415    -84738.89315      -614.15715        29.60015
G29  21323458.37714   -483721.45814     -3197.31214        28.70014
G04  25136796.55814    -15485.08814     -2217.39014        28.30014
G16  22931844.61414    296372.31614      1910.96114        27.40014
G26  21142690.12014    109850.91514       675.86414        28.60014
G20  24690298.26213   -437669.13213     -2939.85513        18.10013
C36  24970424.33526   -450836.14326     -4525.07226        36.20026
R09  19407404.43325   -354337.64025     -2936.39925        33.40025
C35  23224087.39915    164137.37415      1073.10815        30.80015
C29  21582876.88514   -312423.41714     -2081.41914        28.80014
R10  19845570.59714     58479.96914       679.99314        24.30014
C13  38716344.13313      -248.32713       -19.69513        20.90013
> 2025 05 03 08 37 59.9999998  0 15                      
G18  21089808.82926     77538.47226       445.84526        37.60026
G28  22313974.15726   -618544.65826     -4063.09826        37.20026
G31  21482683.54815   -402935.21815     -2679.13915        29.70015
G05  23501119.31414    -85346.00114      -612.31114        29.40014
G29  21323741.38114   -486913.48714     -3198.30814        28.70014
G04  25136887.09514    -17699.81314     -2222.29814        28.10014
G16  22931154.49214    298289.51014      1911.05314        27.20014
G26  21142229.03914    110533.71614       677.47314        27.50014
G20  24690533.89913   -440605.54813     -2943.64613        18.00013
C36  24970964.86126   -455355.54826     -4525.28626        36.10026
R09  19407631.67625   -357296.79725     -2937.32125        33.40025
C35  23223552.86915    165216.88715      1073.53015        30.50015
C29  21582947.33614   -314502.85114     -2086.14614        28.30014
R10  19845136.79814     59048.98414       677.27014        24.70014
C13  38716011.36313      -265.86913       -26.05013        20.80013
> 2025 05 03 08 38 00.9999998  0 15                      
G28  22314536.86826   -622601.78326     -4063.04626        37.30026
G18  21089514.43326     77990.16626       445.67526        37.60026
G31  21482981.24215   -405608.12215     -2678.80515        29.90015
G29  21324147.00014   -490102.84014     -3193.87614        28.70014
G05  23501040.76814    -85954.36514      -614.85514        29.20014
G04  25137102.04614    -19916.21214     -2223.09814        27.90014
G16  22930585.78614    300203.62114      1906.70514        27.00014
G26  21141899.26814    111216.01514       676.18514        26.60014
G20  24690900.24513   -443546.39913     -2948.93013        18.00013
C36  24971625.30426   -459874.68126     -4524.80426        36.00026
R09  19407966.84425   -360191.77325     -2937.52325        33.40025
C35  23223133.75915    166295.63415      1072.55315        30.20015
C29  21583141.30214   -316584.83114     -2089.06214        27.90014
R10  19844808.82514     59694.27114       680.10114        25.10014
C13  38715807.80413      -284.75513       -25.36913        20.70013
> 2025 05 03 08 38 01.9999999  0 15                      
G28  22315074.39526   -626659.37926     -4063.69026        37.40026
G18  21089193.65526     78441.24126       444.90226        37.50026
G31  21483255.85115   -408281.16415     -2678.97215        30.10015
G29  21324516.64414   -493295.40414     -3200.03014        28.80014
G05  23500922.05014    -86566.39914      -619.73114        29.00014
G04  25137293.01414    -22134.75514     -2225.47614        27.70014
G16  22929976.60814    302114.73114      1903.74414        26.90014
G26  21141535.32014    111894.31014       670.42914        26.00014
G20  24691221.32313   -446490.10613     -2950.99613        18.00013
C36  24972255.16726   -464393.98026     -4525.18826        36.00026
R09  19408286.72325   -363166.21125     -2938.69225        33.40025
C35  23222690.66615    167374.51615      1073.13815        30.10015
C29  21583300.79214   -318663.59514     -2082.96414        27.60014
R10  19844435.28314     60421.16814       678.90014        25.60014
C13  38715565.87113      -306.93913       -29.64213        20.60013
> 2025 05 03 08 38 03.0000000  0 15                      
G28  22315620.61726   -630717.41526     -4064.06126        37.50026
G18  21088889.06626     78891.59026       444.17726        37.40026
G31  21483537.65615   -410955.33715     -2680.54515        30.20015
G29  21324898.58014   -496487.84714     -3198.18814        28.90014
G05  23500809.02814    -87181.13914      -621.90214        28.90014
G04  25137481.88314    -24353.47414     -2224.61414        27.60014
G16  22929383.91814    304027.97114      1908.49514        26.90014
G26  21141183.36314    112568.93614       666.98214        25.50014
G20  24691568.18313   -449438.17013     -2956.04913        18.10013
C36  24972903.31916   -468912.45716     -4523.81816        35.90016
R09  19408616.49425   -366130.75325     -2939.18225        33.60025
C35  23222259.26415    168452.38715      1071.60915        30.00015
C29  21583482.76614   -320746.94214     -2091.39414        27.30014
R10  19844081.22814     61106.84314       681.03414        26.10014
C13  38715348.82213      -332.19213       -32.54313        20.40013
> 2025 05 03 08 38 04.0000000  0 16                      
G28  22316157.54626   -634776.01126     -4064.75426        37.60026
G18  21088565.59026     79341.48226       443.78126        37.40026
G31  21483817.06315   -413630.89515     -2682.12915        30.40015
G29  21325274.52014   -499682.16014     -3201.12714        29.10014
G05  23500686.71314    -87795.96014      -620.74314        28.90014
G04  25137661.45914    -26570.49114     -2222.04514        27.50014
G16  22928780.43614    305941.30814      1907.50214        26.80014
G26  21140815.21814    113242.89114       667.73814        25.10014
G20  24691893.75813   -452391.33413     -2961.59413        18.10013
C36  24973533.78216   -473432.33316     -4526.40116        35.70016
R09  19408926.48025   -369052.47125     -2940.42925        33.60025
C35  23221814.07315    169530.30415      1072.11115        29.90015
C30  25058105.23514     -4178.39514     -4186.69314        26.60014
R10  19843728.07314     61725.43214       673.74014        26.40014
C29  21583642.85514   -322830.93314     -2090.13914        27.10014
C13  38715115.88313      -358.76013       -33.05413        20.30013
> 2025 05 03 08 38 05.0000000  0 16                      
G28  22316696.87226   -638834.76226     -4064.68926        37.80026
G18  21088240.61526     79790.87226       443.27726        37.30026
G31  21484089.87415   -416305.35115     -2679.76715        30.40015
G29  21325643.86414   -502876.10014     -3199.61414        29.20014
G05  23500569.49414    -88411.00714      -621.02214        29.10014
G04  25137839.23614    -28787.96014     -2223.55714        27.40014
G16  22928176.65414    307857.15014      1911.23114        26.80014
G26  21140460.56414    113916.70114       667.87414        24.70014
G20  24692220.23213   -455344.43913     -2958.93613        18.00013
C36  24974162.44726   -477952.23026     -4525.71326        35.50026
R09  19409242.76125   -372007.04425     -2940.50425        33.70025
C35  23221373.37815    170607.70615      1071.33315        29.90015
R10  19843349.13514     62482.83814       675.80514        26.60014
C29  21583798.44714   -324915.41214     -2090.53114        27.00014
C30  25058696.12614     -8359.01814     -4186.43014        26.00014
C13  38714880.24613      -380.05613       -24.47013        20.10013
> 2025 05 03 08 38 06.0000000  0 16                      
G28  22317231.40226   -642893.90426     -4065.19826        37.80026
G18  21087915.34026     80239.80826       442.84526        37.30026
G31  21484357.88915   -418979.86615     -2680.40615        30.40015
G29  21326011.70914   -506070.01514     -3199.76414        29.40014
G05  23500446.57914    -89025.66614      -620.32914        29.10014
G04  25138035.90014    -31003.54214     -2220.50014        27.30014
G16  22927576.16914    309776.70414      1915.54514        26.70014
G26  21140100.21314    114592.64214       671.14214        24.50014
G20  24692548.50413   -458296.91113     -2958.01713        17.90013
C36  24974793.21025   -482472.22325     -4525.84725        35.40025
R09  19409549.74825   -374911.95225     -2941.24525        33.90025
C35  23220926.68715    171684.75015      1071.05515        29.80015
R10  19842995.98014     63101.42714       676.33614        26.80014
C29  21583958.23714   -327000.27514     -2090.86414        26.90014
C30  25059264.23214    -12540.82414     -4188.20314        25.50014
C13  38714649.70613      -395.79913       -18.77713        19.90013
> 2025 05 03 08 38 07.0000001  0 16                      
G28  22317795.61226   -646953.50326     -4065.68726        38.00026
G18  21087623.94226     80688.21126       442.27226        37.10026
G31  21484661.27815   -421655.08915     -2681.43715        30.50015
G29  21326409.23415   -509263.59415     -3199.27115        29.60015
G05  23500355.14314    -89643.51014      -625.29914        29.10014
G04  25138256.54714    -33221.80614     -2225.46814        27.20014
G16  22927003.86514    311690.92914      1905.69514        26.60014
G26  21139765.64514    115266.70414       667.25914        24.30014
G20  24692906.75613   -461250.26513     -2959.65513        18.00013
C36  24975455.45225   -486992.34625     -4525.99525        35.20025
R09  19409888.51425   -377826.79325     -2942.11425        34.00025
C35  23220518.96915    172762.07915      1071.66115        29.80015
R10  19842672.80314     63719.25914       677.19714        26.80014
C29  21584147.70514   -329083.84714     -2088.73514        26.80014
C30  25059854.52414    -16723.01614     -4188.19214        25.20014
C13  38714440.15113      -411.27813       -21.15613        19.70013
> 2025 05 03 08 38 07.9999999  0 16                      
G28  22318252.79526   -651013.45426     -4065.93126        38.10026
G18  21087226.71726     81135.97026       441.62926        37.00026
G31  21484854.34515   -424332.42115     -2684.19315        30.60015
G29  21326708.12715   -512458.30015     -3201.07515        29.60015
G05  23500170.47114    -90261.31014      -623.58614        29.10014
G04  25138362.37414    -35447.50214     -2235.21814        27.10014
G16  22926334.12914    313605.82714      1909.42414        26.50014
G26  21139314.75714    115941.09914       668.75314        24.10014
G20  24693146.29113   -464207.16813     -2964.48413        18.00013
R09  19410130.44625   -380802.03325     -2942.95025        34.00025
C36  24976008.86925   -491512.72625     -4526.25925        34.90025
C35  23219992.83315    173838.82715      1070.70015        29.70015
R10  19842201.53014     64551.36814       678.61214        26.90014
C29  21584245.13814   -331165.36614     -2086.24614        26.80014
C30  25060337.78914    -20903.08014     -4184.75214        25.00014
C13  38714128.36713      -424.61013       -18.01413        19.60013
> 2025 05 03 08 38 08.9999999  0 16                      
G28  22318790.02326   -655073.88126     -4066.54526        38.20026
G18  21086904.14026     81583.04826       440.85526        36.90026
G31  21485122.35915   -427010.86115     -2684.87415        30.60015
G29  21327075.97315   -515650.27915     -3196.49515        29.80015
G05  23500056.84914    -90882.43714      -628.67114        29.00014
G04  25138554.54114    -37669.37114     -2225.83514        27.10014
G16  22925726.15014    315519.65714      1907.41214        26.50014
G26  21138946.91214    116620.38514       675.85014        23.90014
G20  24693467.06813   -467162.35113     -2960.20213        18.00013
R09  19410445.52825   -383751.25625     -2943.54225        34.00025
C36  24976639.33225   -496033.13125     -4526.24225        34.70025
C35  23219545.54315    174915.19415      1070.34715        29.70015
R10  19841876.85414     65018.94314       666.85014        27.10014
C29  21584399.83114   -333248.24714     -2089.38914        26.70014
C30  25060913.39114    -25083.64714     -4186.64314        24.80014
C13  38713899.32513      -433.18013       -12.01713        19.40013
> 2025 05 03 08 38 10.0000000  0 16                      
G28  22319356.63126   -659134.59526     -4066.71726        38.30026
G18  21086610.34326     82029.83026       440.77126        36.80026
G31  21485424.85015   -429690.81315     -2686.56915        30.60015
G29  21327474.99615   -518844.94615     -3201.87215        30.00015
G05  23499962.11514    -91502.17914      -624.91314        28.90014
G04  25138768.59314    -39887.83114     -2222.61614        27.20014
G16  22925148.75014    317429.70614      1902.29414        26.40014
G26  21138600.05214    117302.03914       676.97314        23.70014
G20  24693824.12113   -470117.10213     -2960.39613        17.90013
R09  19410782.19525   -386653.87425     -2944.34325        34.10025
C36  24977297.67725   -500553.32525     -4525.89725        34.50025
C35  23219124.33515    175995.69115      1076.75215        29.60015
R10  19841525.49814     65787.79114       672.67514        27.20014
C29  21584590.19914   -335332.31314     -2090.46714        26.70014
C30  25061519.87114    -29263.86014     -4185.84314        24.70014
C13  38713681.37613      -433.95113        -2.68213        19.20013
> 2025 05 03 08 38 11.0000000  0 16                      
G28  22319889.36226   -663195.73626     -4067.21526        38.30026
G18  21086287.46726     82475.98126       439.97226        36.70026
G31  21485701.25915   -432368.45415     -2682.34715        30.60015
G29  21327844.94015   -522039.09815     -3199.75515        30.10015
G05  23499837.10114    -92121.48214      -624.94514        28.80014
G04  25138948.76814    -42109.64014     -2229.34514        27.30014
G16  22924552.76214    319341.47214      1906.75914        26.40014
G26  21138239.70114    117987.71014       681.81614        23.50014
G20  24694148.79713   -473068.83813     -2956.09113        17.90013
R09  19411095.17825   -389593.16525     -2944.87725        34.20025
C35  23218685.73815    177072.62415      1069.34015        29.60015
R10  19841137.26614     66591.72114       675.13314        27.20014
C29  21584749.68914   -337416.35514     -2089.83814        26.60014
C36  24977933.53615   -505072.84815     -4524.99215        33.40015
C30  25062077.18514    -33441.67814     -4182.42714        24.60014
C13  38713439.14413      -428.03813         3.44613        18.90013
> 2025 05 03 08 38 12.0000000  0 16                      
G28  22320427.49026   -667257.20426     -4067.49226        38.30026
G18  21085965.49026     82921.62526       439.52826        36.60026
G31  21485985.46215   -435047.56315     -2685.70415        30.60015
G29  21328212.78615   -525234.59715     -3202.03415        30.20015
G05  23499720.78214    -92739.80314      -623.69414        29.00014
G04  25139118.75014    -44331.88914     -2228.33114        27.40014
G16  22923956.77514    321255.02214      1908.57914        26.30014
G26  21137868.55813    118670.83113       675.98213        23.30013
G20  24694472.57213   -476022.33313     -2960.23513        17.80013
R09  19411414.45725   -392564.54625     -2945.70125        34.20025
C36  24978558.30415   -509594.19215     -4528.06015        32.20015
C35  23218246.24315    178147.23015      1067.63315        29.50015
R10  19840785.91014     67201.15814       669.81914        27.30014
C29  21584909.47814   -339496.72714     -2084.34614        26.50014
C30  25062638.69614    -37618.23014     -4181.72514        24.50014
C13  38713209.50313      -415.75813         9.65213        18.60013
> 2025 05 03 08 38 13.0000000  0 15                      
G28  22320962.61926   -671319.29826     -4068.26726        38.30026
G18  21085643.51326     83366.49426       438.61826        36.50026
G31  21486257.37415   -437728.62715     -2687.90315        30.70015
G29  21328583.62915   -528430.55315     -3202.04415        30.20015
G05  23499586.77514    -93362.47914      -630.71614        29.00014
G04  25139317.21314    -46552.95814     -2226.34114        27.40014
G16  22923357.49014    323166.50914      1904.59014        26.40014
G26  21137490.22013    119349.08413       669.95513        23.20013
G20  24694804.74213   -478972.33613     -2954.11813        17.80013
R09  19411720.24625   -395463.34225     -2946.67925        34.20025
C36  24979191.46615   -514114.60915     -4525.76115        31.90015
C35  23217805.84715    179220.88615      1067.36915        29.50015
R10  19840417.76514     67899.83514       670.70314        27.40014
C29  21585092.65114   -341581.27214     -2092.44014        26.40014
C30  25063205.90414    -41792.13414     -4178.38714        24.40014
> 2025 05 03 08 38 13.9999999  0 15                      
G28  22321452.18026   -675382.06326     -4068.90526        38.30026
G18  21085280.16426     83810.62126       437.94726        36.40026
G31  21486481.91815   -440410.26215     -2687.72715        30.90015
G29  21328909.20315   -531626.04315     -3201.06415        30.50015
G05  23499416.49214    -93983.48414      -625.97814        29.10014
G04  25139454.81814    -48774.39014     -2227.41914        27.40014
G16  22922706.34114    325078.45114      1906.36014        26.40014
G26  21137068.11213    120026.84313       671.70313        23.00013
G20  24695085.04813   -481923.58013     -2957.67113        17.70013
R09  19411989.45925   -398424.06425     -2947.63825        34.30025
C36  24979775.46115   -518635.50015     -4526.87815        32.20015
C35  23217314.48815    180296.93915      1071.49515        29.60015
R10  19839990.56014     68655.68014       673.23614        27.40014
C29  21585203.57514   -343668.41614     -2094.19614        26.40014
C30  25063722.44614    -45966.22514     -4179.93714        24.20014
> 2025 05 03 08 38 14.9999999  0 15                      
G28  22321985.51126   -679445.30926     -4069.36526        38.20026
G18  21084956.68826     84254.05326       437.20326        36.40026
G31  21486752.93015   -443093.05315     -2689.24715        31.00015
G29  21329271.05315   -534820.68115     -3200.09015        30.60015
G05  23499293.87714    -94605.23414      -628.00314        29.10014
G04  25139643.68714    -50995.11814     -2226.25614        27.40014
G16  22922106.45614    326991.82714      1908.20914        26.30014
G26  21136715.85613    120703.06513       669.57213        22.90013
G20  24695407.32513   -484875.37213     -2957.94413        17.60013
R09  19412305.74025   -401378.63725     -2948.40525        34.50025
C36  24980407.72425   -523157.22125     -4527.96125        33.00025
C35  23216870.49515    181370.71715      1066.81215        29.90015
R10  19839639.80314     69262.06614       668.34014        27.50014
C29  21585368.76014   -345757.40514     -2095.74014        26.40014
C30  25064276.16314    -50141.87914     -4182.25914        24.00014
> 2025 05 03 08 38 15.9999999  0 16                      
G28  22322522.73926   -683508.88526     -4069.60026        38.10026
G18  21084630.51426     84696.92226       436.72426        36.40026
G31  21487017.04815   -445777.49815     -2691.13415        31.00015
G29  21329649.39115   -538016.90715     -3202.88015        30.60015
G05  23499171.86214    -95230.19214      -632.42514        29.00014
G04  25139829.55814    -53214.49014     -2224.55614        27.40014
G16  22921499.97614    328902.19714      1903.00414        26.20014
G26  21136352.20813    121380.54313       672.24113        22.80013
G20  24695740.99413   -487828.68313     -2959.93213        17.50013
R09  19412615.72625   -404299.59025     -2949.07025        34.70025
C36  24981039.68625   -527679.11525     -4527.78725        33.80025
C26  23223929.70815 -31166755.17515       619.68715        32.80015
C35  23216425.90315    182445.36915      1069.27715        29.90015
R10  19839264.16314     70001.16814       669.87914        27.50014
C29  21585538.44314   -347843.45414     -2090.38714        26.30014
C30  25064844.26914    -54318.94714     -4183.58214        23.90014
> 2025 05 03 08 38 16.9999999  0 16                      
G28  22323065.06426   -687573.13026     -4070.43926        38.00026
G18  21084304.34026     85139.02326       435.85326        36.30026
G31  21487298.25315   -448460.73015     -2688.48615        31.10015
G29  21330021.73315   -541214.71815     -3204.46515        30.90015
G05  23499054.04314    -95852.26114      -626.48714        28.90014
G04  25140008.83414    -55436.72314     -2229.52614        27.30014
G16  22920902.78914    330814.70714      1907.71414        26.10014
G26  21135980.76513    122054.47913       666.30113        22.70013
G20  24696062.07213   -490783.72413     -2961.76713        17.60013
C36  24981673.14825   -532201.24925     -4528.06125        34.60025
R09  19412923.01325   -407207.55525     -2950.13125        34.80025
C26  23223574.15425 -31166130.37625       618.98925        32.90025
C35  23215987.60615    183519.31215      1067.77815        29.90015
R10  19838915.20514     70596.87514       664.44314        27.50014
C29  21585707.22614   -349929.42114     -2091.73414        26.20014
C30  25065404.28214    -58493.86314     -4179.64714        23.70014
> 2025 05 03 08 38 18.0000000  0 16                      
G28  22323628.07426   -691637.74126     -4070.65626        37.80026
G18  21084019.53726     85580.61326       435.47226        36.30026
G31  21487605.24015   -451144.77015     -2690.30615        31.20015
G29  21330427.35215   -544412.04315     -3202.94315        31.00015
G05  23498956.01114    -96475.91814      -630.31414        29.00014
G04  25140225.28414    -57666.06914     -2238.76414        27.30014
G16  22920332.58414    332727.78014      1907.49114        26.10014
G26  21135640.80013    122720.09113       655.58613        22.60013
G20  24696425.72013   -493735.18213     -2955.52813        17.90013
C36  24982332.39125   -536723.62325     -4528.30125        35.30025
R09  19413267.47525   -410152.95925     -2950.80525        34.80025
C26  23223243.18325 -31165506.05125       618.27825        33.00025
C35  23215567.59715    184592.96815      1067.70215        29.90015
R10  19838576.43914     71299.36514       663.48514        27.50014
C29  21585893.69714   -352017.28714     -2094.62314        26.10014
C30  25066005.06614    -62669.30514     -4181.51114        23.50014
> 2025 05 03 08 38 19.0000001  0 16                      
G28  22324172.79726   -695702.99426     -4071.37826        37.70026
G18  21083705.35526     86021.38626       434.55626        36.30026
G31  21487892.44215   -453828.21315     -2688.95115        31.30015
G29  21330809.58815   -547609.52315     -3203.36215        31.20015
G05  23498847.48614    -97100.47514      -630.81514        29.00014
G04  25140427.94414    -59893.61014     -2232.44514        27.30014
G16  22919755.18414    334638.63714      1903.93914        26.20014
G26  21135287.04513    123380.78613       652.42813        22.50013
G20  24696753.69313   -496683.13413     -2952.00513        18.00013
C36  24982976.04626   -541246.36426     -4528.67526        35.80026
R09  19413597.84625   -413119.79325     -2951.60025        34.90025
C26  23222895.72425 -31164882.24925       617.78325        33.00025
C35  23215141.59215    185665.73915      1066.57215        30.10015
R10  19838237.97414     71901.13914       670.00814        27.50014
C29  21586063.07914   -354104.85614     -2093.17514        26.10014
C30  25066562.68013    -66846.85913     -4184.36113        23.30013
> 2025 05 03 08 38 19.9999998  0 16                      
G18  21083298.53626     86461.54026       433.96226        36.30026
G28  22324616.19016   -699768.63916     -4071.72016        36.90016
G31  21488078.91315   -456514.65515     -2693.82015        31.50015
G29  21331092.29215   -550808.32215     -3205.33815        31.30015
G05  23498640.03014    -97725.74114      -631.50114        29.00014
G04  25140530.77314    -62120.10014     -2231.84414        27.30014
G16  22919069.85814    336549.95414      1905.66414        26.30014
G26  21134835.85813    124041.03213       654.14013        22.40013
G20  24696977.63813   -499626.82013     -2947.43213        18.00013
C36  24983519.56926   -545769.22626     -4528.74726        36.20026
R09  19413833.18325   -416123.26525     -2952.58125        34.90025
C26  23222452.33125 -31164258.96225       617.20225        33.00025
C35  23214606.76215    186739.55715      1068.51315        30.40015
R10  19837794.28114     72523.54614       666.62714        27.50014
C29  21586134.73014   -356192.39014     -2093.34314        26.10014
C30  25067047.44413    -71024.79013     -4183.94413        23.10013
> 2025 05 03 08 38 20.9999999  0 16                      
G18  21083015.23226     86901.35626       433.78426        36.20026
G28  22325179.50016   -703834.55916     -4071.91616        35.90016
G31  21488376.60615   -459201.23015     -2692.50315        31.60015
G29  21331490.41615   -554006.92715     -3204.36915        31.40015
G05  23498554.28914    -98352.07714      -632.73414        29.00014
G04  25140743.32614    -64345.64214     -2230.93014        27.20014
G16  22918490.65914    338462.15614      1906.78014        26.30014
G26  21134516.87813    124702.40013       656.06413        22.30013
G20  24697318.80213   -502568.61513     -2946.71113        18.20013
C36  24984177.91426   -550292.01726     -4528.56326        36.60026
R09  19414170.44925   -419028.93825     -2952.82625        34.80025
C26  23222128.25525 -31163635.78325       617.31525        33.00025
C35  23214191.55015    187814.47215      1069.65215        30.60015
R10  19837445.02314     73282.47714       664.13414        27.60014
C29  21586337.39014   -358281.95914     -2096.39514        26.20014
C30  25067641.63313    -75203.51113     -4184.92513        22.80013
> 2025 05 03 08 38 21.9999999  0 16                      
G18  21082692.65626     87340.62626       433.13326        36.20026
G28  22325722.12425   -707900.87725     -4072.37825        35.10025
G31  21488646.42015   -461888.27815     -2693.14615        31.70015
G29  21331866.65615   -557207.13815     -3206.87415        31.40015
G05  23498433.47314    -98978.32814      -632.07114        29.00014
G04  25140930.09614    -66577.38714     -2240.70714        27.20014
G16  22917896.17114    340375.44514      1907.96814        26.30014
G26  21134153.53013    125364.95113       657.28013        22.30013
G20  24697637.78113   -505507.75813     -2943.67713        18.20013
C36  24984811.97526   -554815.01026     -4528.90026        37.00026
R09  19414481.03425   -421954.47625     -2953.86425        34.80025
C26  23221770.30325 -31163013.03725       616.71825        33.00025
C35  23213745.75815    188889.24415      1068.89115        30.70015
R10  19837068.78314     74023.86614       670.28314        27.70014
C29  21586500.47714   -360370.72114     -2094.16614        26.30014
C30  25068232.22413    -79380.39013     -4181.76413        22.60013
> 2025 05 03 08 38 22.9999999  0 16                      
G18  21082368.58026     87779.35726       432.59826        36.10026
G28  22326263.84925   -711967.76425     -4073.03125        34.50025
G31  21488921.32915   -464575.39515     -2693.01215        31.80015
G29  21332232.40315   -560406.12515     -3204.23615        31.40015
G05  23498318.65314    -99603.59214      -630.63514        29.00014
G04  25141111.77014    -68809.85714     -2238.69414        27.10014
G16  22917287.59214    342288.35614      1906.85714        26.30014
G26  21133781.18813    126027.75913       657.07213        22.40013
G20  24697949.86513   -508449.86313     -2949.44613        18.10013
C36  24985442.43826   -559338.20226     -4529.09726        37.10026
R09  19414803.61125   -424943.43125     -2954.56625        34.70025
C26  23221410.85225 -31162390.83225       616.12525        33.00025
C35  23213301.46615    189961.74815      1065.55815        30.80015
R10  19836725.22114     74589.82614       661.43214        27.70014
C29  21586659.96614   -362461.87014     -2098.15014        26.50014
C30  25068792.83613    -83557.13613     -4182.48613        22.30013
> 2025 05 03 08 38 24.0000000  0 16                      
G18  21082063.69126     88217.00326       431.29426        36.10026
G28  22326812.76925   -716035.03125     -4073.26225        34.10025
G31  21489208.23115   -467264.02615     -2695.19415        31.90015
G29  21332620.63415   -563604.73915     -3204.23315        31.40015
G05  23498217.02314   -100225.01814      -625.31414        28.90014
G04  25141316.82914    -71038.57614     -2232.65014        27.00014
G16  22916697.60014    344204.69714      1912.24614        26.20014
G26  21133425.93413    126695.85713       664.93513        22.40013
G20  24698300.62213   -511396.82313     -2955.19413        18.10013
C36  24986087.89126   -563861.80226     -4529.55726        37.10026
R09  19415129.78525   -427889.63625     -2955.47725        34.70025
C26  23221065.79125 -31161769.20925       615.57425        33.00025
C35  23212872.46315    191032.28815      1063.80115        30.90015
R10  19836352.27914     75376.18114       660.95114        27.70014
C29  21586838.94214   -364551.64614     -2094.84514        26.60014
C30  25069365.43913    -87736.26513     -4186.07213        22.10013
> 2025 05 03 08 38 25.0000000  0 16                      
G18  21081740.51526     88654.47026       431.49626        36.00026
G28  22327343.70225   -720102.82625     -4073.93825        33.80025
G31  21489484.34015   -469953.74315     -2696.14015        31.90015
G29  21332994.77515   -566804.47315     -3206.17315        31.40015
G05  23498087.51314   -100850.80914      -633.85514        28.90014
G04  25141508.69614    -73266.44114     -2233.31814        27.00014
G16  22916101.31314    346116.69114      1903.93814        26.30014
G26  21133070.38013    127366.99613       666.77613        22.40013
G20  24698621.70013   -514351.73813     -2964.77113        18.00013
C36  24986716.85626   -568385.36126     -4529.36226        37.40026
R09  19415441.27025   -430818.99525     -2956.06425        34.70025
C26  23220703.94125 -31161147.78425       615.49825        32.90025
C35  23212428.17015    192103.57715      1065.83615        31.10015
R10  19835985.33314     76068.75414       664.33814        27.60014
C29  21587002.62914   -366639.80114     -2093.17014        26.90014
C30  25069922.75413    -91917.41113     -4187.98013        21.90013
> 2025 05 03 08 38 26.0000000  0 16                      
G18  21081421.53626     89091.34926       430.72126        36.00026
G28  22327881.52925   -724170.90425     -4074.07925        33.50025
G31  21489757.15115   -472641.14015     -2692.09815        31.90015
G29  21333365.01915   -570005.95915     -3208.22315        31.40015
G05  23497980.48714   -101481.08714      -638.38514        28.80014
G04  25141692.46814    -75493.84514     -2233.03414        27.00014
G16  22915499.93014    348028.50014      1905.85214        26.30014
G26  21132709.13013    128042.27513       671.48713        22.30013
G20  24698958.66713   -517317.00013     -2976.29713        18.00013
C36  24987348.51926   -572909.14926     -4529.71026        37.40026
R09  19415752.15425   -433745.29725     -2956.83525        34.60025
C26  23220351.68525 -31160526.78325       614.97925        32.90025
C35  23211985.37715    193175.08815      1065.81015        31.20015
C29  21587173.81114   -368729.13114     -2095.72714        27.20014
R10  19835624.68314     76727.01314       671.72714        27.50014
C30  25070490.56113    -96100.39813     -4189.71413        21.70013
> 2025 05 03 08 38 27.0000001  0 16                      
G18  21081134.03526     89527.52726       429.96426        36.00026
G28  22328450.53525   -728239.44525     -4074.63325        33.40025
G31  21490059.04215   -475331.24015     -2697.31315        31.80015
G29  21333766.74115   -573208.60915     -3209.09415        31.30015
G05  23497898.04414   -102109.11714      -632.76714        28.70014
G04  25141910.71714    -77723.52514     -2236.68014        27.00014
G16  22914933.62214    349938.17414      1902.74214        26.30014
G26  21132371.26413    128718.90713       671.44413        22.30013
G20  24699325.31313   -520285.60213     -2976.13313        18.50013
C36  24988012.85926   -577433.04826     -4529.76126        37.20026
R09  19416108.90825   -436754.88125     -2957.52625        34.60025
C26  23220024.91125 -31159906.10625       614.70425        32.90025
C35  23211574.66115    194244.98015      1063.27215        31.20015
C29  21587358.48314   -370821.46414     -2099.64214        27.20014
R10  19835318.29514     77257.13014       669.71814        27.40014
C30  25071077.85413   -100283.94013     -4189.62613        21.70013
> 2025 05 03 08 38 27.9999998  0 16                      
G28  22328896.32726   -732308.36726     -4074.97126        39.10026
G18  21080720.02126     89963.18426       429.53326        36.00026
G31  21490241.91515   -478022.24915     -2697.32415        31.70015
G29  21334045.24815   -576408.78315     -3204.79615        31.30015
G05  23497688.18914   -102739.22114      -637.00514        28.70014
G04  25142014.44614    -79954.25514     -2237.11614        27.10014
G16  22914251.59414    351847.91814      1903.91414        26.50014
G26  21131917.07813    129393.19413       667.25013        22.10013
G20  24699569.34413   -523251.27713     -2970.07113        19.00013
C36  24988554.28426   -581957.09126     -4529.92226        37.00026
R09  19416335.25125   -439710.98125     -2958.21625        34.60025
C26  23219578.52025 -31159286.05825       613.92325        32.80025
C35  23211037.73315    195315.24215      1064.63715        31.20015
C29  21587425.33614   -372913.72114     -2098.02714        27.20014
R10  19834850.31914     78008.42214       661.12814        27.30014
C30  25071549.42813   -104464.68313     -4185.14913        22.50013
> 2025 05 03 08 38 28.9999999  0 16                      
G28  22329449.14426   -736377.99826     -4075.79126        39.00026
G18  21080412.43426     90398.18326       428.86126        36.10026
G31  21490527.31815   -480715.19015     -2699.71415        31.70015
G29  21334431.68015   -579608.89915     -3205.89215        31.20015
G05  23497578.16514   -103374.02414      -642.96114        28.70014
G04  25142207.81214    -82186.70714     -2239.11914        27.20014
G16  22913663.70114    353756.50214      1902.19414        26.70014
G26  21131566.62113    130065.66013       665.74713        22.00013
G20  24699915.60413   -526214.73713     -2968.15813        19.40013
C36  24989193.14226   -586481.58426     -4530.46926        36.80026
R09  19416667.12125   -442685.45725     -2959.37525        34.50025
C26  23219234.65825 -31158666.58225       613.43425        32.70025
C35  23210607.83115    196386.21115      1065.56615        31.10015
C29  21587611.50814   -375007.75914     -2100.68214        27.10014
R10  19834492.36714     78715.45414       654.07214        27.20014
C30  25072137.62013   -108644.83813     -4185.61313        22.80013
> 2025 05 03 08 38 30.0000000  0 16                      
G28  22330012.15426   -740447.76326     -4075.71226        38.60026
G18  21080124.33426     90832.69926       428.39326        36.10026
G31  21490848.69515   -483408.58215     -2699.49615        31.50015
G29  21334844.49415   -582809.56915     -3206.82715        31.10015
G05  23497493.02414   -104005.52214      -635.72714        28.70014
G04  25142425.76114    -84414.73914     -2231.70214        27.20014
G16  22913082.10314    355666.33514      1904.57514        26.80014
G26  21131237.14913    130735.17613       662.15913        21.90013
G20  24700270.55913   -529179.24713     -2970.91513        19.40013
C36  24989859.58026   -591005.97026     -4530.15726        36.60026
R09  19417010.38325   -445623.98425     -2959.89325        34.50025
C26  23218909.68325 -31158047.17725       613.54225        32.60025
C35  23210196.21615    197456.86015      1064.66015        31.40015
C29  21587815.96614   -377106.21314     -2106.48914        27.10014
R10  19834164.69414     79357.68514       651.79914        27.10014
C30  25072725.51313   -112824.57813     -4185.35813        22.80013
> 2025 05 03 08 38 31.0000000  0 16                      
G28  22330553.28026   -744517.94626     -4076.25126        38.20026
G18  21079803.25626     91266.56226       427.67326        36.20026
G31  21491118.50815   -486102.67915     -2700.31015        31.40015
G29  21335215.33815   -586012.78115     -3210.34215        31.00015
G05  23497367.11114   -104637.80514      -638.53714        28.90014
G04  25142608.63414    -86645.68414     -2238.26314        27.20014
G16  22912484.01714    357576.38614      1904.29514        27.00014
G26  21130878.89713    131401.31913       658.59313        21.90013
G20  24700600.33013   -532144.28513     -2971.16413        19.30013
C36  24990488.84526   -595530.56426     -4530.50526        36.50026
R09  19417316.17225   -448523.54425     -2960.41225        34.40025
C26  23218558.32725 -31157428.24825       612.88025        32.50025
C35  23209753.72215    198526.35715      1063.11015        31.50015
C29  21587976.95514   -379196.93314     -2092.66014        27.00014
R10  19833828.92614     79883.99114       654.27214        26.90014
C30  25073297.81713   -117004.71413     -4186.14013        22.70013
> 2025 05 03 08 38 32.0000000  0 16                      
G28  22331090.20826   -748588.60126     -4076.75026        37.90026
G18  21079480.08026     91700.00926       427.37526        36.20026
G29  21335587.08015   -589216.24515     -3209.45215        30.90015
G31  21491389.82015   -488791.86915     -2692.59815        31.30015
G05  23497253.19014   -105269.92914      -637.90914        28.90014
G04  25142795.40514    -88880.75314     -2242.99114        27.10014
G16  22911871.24214    359485.91314      1903.40014        27.10014
G26  21130508.05413    132066.05313       658.16513        21.80013
G20  24700929.50213   -535105.57113     -2965.27113        19.30013
C36  24991120.50726   -600055.22026     -4530.49326        36.50026
R09  19417637.24925   -451503.33025     -2961.47425        34.40025
C26  23218197.37625 -31156809.74725       612.47725        32.50025
C35  23209309.13015    199596.00915      1063.91915        31.50015
C29  21588138.24314   -381287.89614     -2096.89314        27.00014
R10  19833473.37214     80515.55314       658.23714        26.80014
C30  25073847.63613   -121184.17613     -4184.93313        22.50013
> 2025 05 03 08 38 33.0000000  0 16                      
G28  22331624.73826   -752659.90726     -4077.49226        37.70026
G18  21079164.99826     92132.58626       426.27926        36.20026
G29  21335958.22315   -592419.86115     -3209.55215        30.90015
G31  21491670.72615   -491483.32515     -2698.45115        31.10015
G05  23497139.26914   -105904.08414      -641.03214        29.00014
G16  22911267.16014    361398.68414      1908.52914        27.20014
G04  25142981.57614    -91109.72714     -2231.78914        27.10014
G26  21130139.60913    132728.94913       656.11313        21.80013
G20  24701266.76913   -538068.02413     -2968.89713        19.20013
C36  24991754.26926   -604580.32026     -4531.12826        36.60026
R09  19417955.92925   -454470.89225     -2962.31825        34.30025
C26  23217841.22325 -31156191.88425       611.73325        32.40025
C35  23208874.13115    200664.34515      1061.86715        31.40015
C29  21588308.82514   -383383.00514     -2102.99014        26.90014
R10  19833067.15314     81417.11114       664.86514        26.70014
C30  25074421.73913   -125366.83313     -4190.06013        22.40013
> 2025 05 03 08 38 33.9999999  0 16                      
G28  22332112.50026   -756731.62826     -4077.73326        37.50026
G18  21078801.34926     92564.47326       425.73326        36.30026
G29  21336279.60115   -595626.05315     -3213.28615        30.80015
G31  21491896.47015   -494177.94515     -2702.00715        31.00015
G05  23496976.18214   -106537.04714      -638.17614        29.00014
G16  22910626.20414    363311.24414      1906.64414        27.40014
G04  25143117.68214    -93339.94014     -2236.63814        27.10014
G26  21129724.99613    133388.22113       651.65213        21.80013
G20  24701540.18013   -541027.80313     -2964.24913        19.20013
C36  24992338.26426   -609105.64626     -4531.19126        36.90026
R09  19418226.34225   -457441.54625     -2962.99425        34.40025
C26  23217440.70025 -31155574.40125       611.53725        32.40025
C35  23208383.97015    201734.82515      1065.79615        31.40015
C29  21588425.44414   -385477.78214     -2100.36514        27.00014
R10  19832660.63514     82060.83714       659.18814        26.60014
C30  25074949.07413   -129550.86613     -4190.47413        22.20013
> 2025 05 03 08 38 34.9999999  0 16                      
G18  21078477.87326     92995.89326       425.30526        36.30026
G28  22332655.42426   -760803.91526     -4078.44826        37.20026
G31  21492167.78215   -496873.56815     -2702.00415        30.90015
G29  21336654.94115   -598833.37415     -3213.76415        30.70015
G05  23496858.06414   -107171.03514      -640.38114        29.00014
G16  22910020.32314    365221.16814      1902.72314        27.40014
G04  25143306.55114    -95576.57714     -2245.72914        27.00014
G26  21129359.24913    134052.22113       660.48113        22.10013
G20  24701869.05213   -543983.81913     -2960.01213        19.30013
C36  24992972.92526   -613631.16226     -4531.43526        36.90026
R09  19418545.02125   -460409.10725     -2963.99525        34.40025
C26  23217090.54325 -31154957.46725       610.83225        32.30025
C35  23207945.37415    202803.15015      1061.41815        31.30015
C29  21588583.73414   -387568.03414     -2093.81614        27.00014
R10  19832321.86914     82603.91614       654.24414        26.50014
C30  25075518.97913   -133735.82513     -4191.24713        22.00013
> 2025 05 03 08 38 35.9999999  0 16                      
G18  21078160.69326     93426.81626       424.81226        36.50026
G31  21492440.29315   -499569.36415     -2701.74415        30.80015
G29  21337023.08615   -602039.51215     -3211.40815        30.60015
G28  22333189.65516   -764873.56216     -4074.18816        35.90016
G05  23496748.34014   -107804.95114      -639.74214        29.00014
G16  22909420.13814    367134.81114      1909.63814        27.30014
G04  25143498.71814    -97814.97414     -2245.13914        27.00014
G26  21129001.89613    134716.10013       657.95513        22.70013
G20  24702205.71913   -546943.79913     -2967.82413        19.50013
C36  24993604.28826   -618156.61426     -4531.22626        36.80026
R09  19418860.70225   -463360.62325     -2964.05825        34.50025
C26  23216725.69525 -31154340.69825       610.87425        32.30025
C35  23207495.98515    203870.63715      1061.25715        31.30015
C29  21588745.02314   -389653.01714     -2088.15614        26.90014
R10  19831944.43114     83351.41014       658.43114        26.40014
C30  25076084.98813   -137920.00013     -4189.58913        21.80013
> 2025 05 03 08 38 36.9999999  0 16                      
G18  21077840.81426     93857.27226       424.35826        36.50026
G31  21492718.50115   -502265.55615     -2702.25115        30.90015
G29  21337397.52715   -605243.80815     -3209.23515        30.40015
G28  22333729.58115   -768945.13315     -4078.39215        34.50015
G05  23496635.31814   -108442.25714      -644.86514        29.00014
G16  22908813.35914    369047.49714      1906.34214        27.20014
G04  25143683.99014   -100054.49814     -2245.94914        26.90014
G26  21128641.24613    135381.98913       661.03113        22.80013
G20  24702542.98513   -549908.13513     -2972.37513        19.50013
C36  24994235.65126   -622682.12626     -4531.34926        36.70026
R09  19419175.78425   -466308.31925     -2965.12125        34.50025
C26  23216369.84225 -31153724.25725       610.46825        32.20025
C35  23207050.49315    204937.75015      1061.11615        31.30015
C29  21588921.30114   -391745.68214     -2102.31514        26.90014
R10  19831596.97114     83941.01314       658.90214        26.40014
C30  25076656.69213   -142104.37913     -4190.28613        21.60013
> 2025 05 03 08 38 38.0000000  0 16                      
G18  21077534.42726     94287.09226       423.69326        36.60026
G31  21493012.29715   -504962.45215     -2703.05415        31.00015
G29  21337777.66415   -608445.54215     -3206.26015        30.30015
G28  22334274.00415   -773019.96715     -4082.27215        33.40015
G05  23496546.27914   -109076.01014      -637.78314        28.90014
G04  25143896.24314   -102292.05914     -2242.38514        26.90014
G16  22908220.06914    370955.30514      1899.56014        27.10014
G26  21128300.08213    136050.34913       663.78613        23.10013
G20  24702891.34413   -552874.15813     -2972.67113        19.50013
C36  24994879.90526   -627207.89126     -4531.64326        36.60026
R09  19419501.05925   -469248.41225     -2966.00025        34.50025
C26  23216028.07825 -31153108.37825       609.84125        32.20025
C35  23206627.78615    206004.57215      1060.92015        31.20015
C29  21589098.47814   -393840.55814     -2101.73414        26.80014
R10  19831235.12214     84668.63514       650.13014        26.30014
C30  25077237.09013   -146287.71113     -4188.56213        21.30013
> 2025 05 03 08 38 39.0000001  0 16                      
G18  21077246.62626     94716.09626       422.71426        36.60026
G31  21493318.98515   -507658.10815     -2700.91515        31.10015
G29  21338179.38615   -611645.51115     -3204.96515        30.20015
G28  22334849.60515   -777095.75715     -4082.14515        32.50015
G05  23496455.74214   -109707.14214      -635.70314        28.70014
G04  25144110.29514   -104527.21414     -2239.83214        26.80014
G16  22907644.16814    372859.36514      1896.30214        27.00014
G26  21127966.11313    136714.25013       655.79013        23.40013
G20  24703250.49613   -555843.59013     -2977.01713        19.70013
C36  24995539.44826   -631734.03426     -4532.15726        36.60026
R09  19419849.71825   -472216.73725     -2966.75025        34.50025
C26  23215700.70515 -31152493.01115       609.28215        32.10015
C35  23206217.07015    207070.91215      1060.26915        31.10015
C29  21589295.14214   -395935.60714     -2100.96414        26.80014
R10  19830903.85114     85329.17614       654.85114        26.20014
C30  25077833.67713   -150470.26613     -4187.99113        21.10013
> 2025 05 03 08 38 39.9999998  0 16                      
G18  21076838.30826     95144.53226       422.28926        36.60026
G31  21493497.96115   -510355.93615     -2704.77515        31.30015
G28  22335301.69215   -781169.55915     -4078.66915        31.90015
G29  21338458.79215   -614849.11115     -3211.27615        30.10015
G05  23496249.78514   -110346.34214      -649.09714        28.50014
G04  25144200.83214   -106764.63114     -2244.40914        26.80014
G16  22906959.44214    374765.05414      1900.63914        26.80014
G26  21127511.02814    137377.16514       656.55714        23.90014
G20  24703493.32713   -558817.33713     -2981.76513        20.50013
C36  24996081.17326   -636260.28626     -4532.11326        36.60026
R09  19420090.15125   -475246.95125     -2967.64625        34.50025
C26  23215261.20915 -31151878.12315       608.83815        32.00015
C35  23205678.64315    208137.94615      1061.57015        31.10015
C29  21589369.79014   -398029.24414     -2098.73814        26.70014
R10  19830458.65914     85959.21114       655.84214        26.20014
C30  25078310.64713   -154651.03913     -4185.68813        20.80013
> 2025 05 03 08 38 40.9999999  0 16                      
G18  21076549.00926     95572.53626       421.92426        36.60026
G31  21493803.74915   -513053.45715     -2703.23015        31.50015
G28  22335869.49915   -785242.35615     -4078.15415        31.40015
G29  21338860.21415   -618052.25415     -3208.77515        29.90015
G05  23496160.14714   -110988.41614      -649.37314        28.40014
G04  25144412.18614   -109000.82014     -2241.43714        26.70014
G16  22906391.03514    376674.02914      1904.75314        26.60014
G26  21127171.66314    138039.40514       656.03914        24.00014
G20  24703855.17713   -561791.96713     -2980.93213        20.60013
C36  24996744.61426   -640786.64026     -4532.21126        36.50026
R09  19420429.81625   -478167.14025     -2968.03225        34.40025
C26  23214930.83815 -31151264.75415       606.80015        31.80015
C35  23205264.92915    209203.44215      1058.91715        31.10015
C29  21589560.75814   -400122.10714     -2098.28514        26.70014
R10  19830121.39314     86653.31214       656.24714        26.20014
C30  25078908.43313   -158832.30213     -4187.31613        20.60013
> 2025 05 03 08 38 41.9999999  0 16                      
G18  21076232.12826     95999.93526       421.23226        36.60026
G31  21494083.15615   -515753.31115     -2706.88015        31.70015
G28  22336405.52815   -789317.29615     -4081.87215        31.10015
G29  21339235.85415   -621258.66015     -3213.89715        29.80015
G05  23496051.02214   -111626.42814      -641.84414        28.30014
G04  25144601.05514   -111237.75214     -2243.16514        26.60014
G16  22905798.04614    378582.77914      1902.77314        26.40014
G26  21126804.41814    138705.19014       661.69414        24.00014
G20  24704179.55213   -564765.32313     -2978.58013        20.80013
C36  24997378.97526   -645313.08526     -4532.29726        36.50026
R09  19420744.59825   -481112.54425     -2969.14125        34.40025
C35  23204826.93315    210268.09815      1058.42415        31.30015
C26  23214577.38215 -31150652.08315       606.51015        31.70015
C29  21589722.34614   -402215.10214     -2098.87014        26.60014
R10  19829792.22114     87144.53314       660.16414        26.20014
C30  25079488.53113   -163014.10013     -4187.87113        20.40013
> 2025 05 03 08 38 43.0000000  0 16                      
G18  21075917.64626     96426.69926       420.63726        36.50026
G31  21494368.25815   -518454.88515     -2708.24115        31.80015
G28  22336957.14615   -793392.29815     -4080.83815        30.90015
G29  21339619.58915   -624463.94715     -3210.53415        29.60015
G05  23495950.29214   -112264.64014      -644.11914        28.30014
G04  25144783.92814   -113481.05814     -2252.30014        26.40014
G16  22905222.14514    380489.49714      1899.89214        26.20014
G26  21126438.67114    139375.40414       666.61914        23.90014
G20  24704509.62413   -567735.92013     -2975.02413        20.90013
C36  24998021.13026   -649839.82726     -4532.64226        36.50026
R09  19421071.97225   -484064.09725     -2969.68825        34.40025
C35  23204396.43115    211333.97815      1060.73615        31.50015
C26  23214234.42015 -31150039.64315       606.56915        31.60015
C29  21589904.92014   -404316.17814     -2110.87014        26.50014
R10  19829430.37114     87872.90914       654.69714        26.20014
C30  25080058.43713   -167196.10513     -4187.86113        20.20013
> 2025 05 03 08 38 44.0000000  0 16                      
G18  21075598.96626     96852.68126       419.71026        36.50026
G31  21494653.06115   -521154.58115     -2704.63515        31.80015
G28  22337496.77315   -797468.22715     -4082.27215        30.80015
G29  21339987.73415   -627667.44815     -3208.48815        29.50015
G05  23495832.17414   -112909.09614      -653.46014        28.30014
G04  25144997.68014   -115724.20314     -2248.94414        26.30014
G16  22904627.65614    382395.58414      1899.88814        26.10014
G26  21126084.91614    140043.98114       661.87714        23.90014
G20  24704842.39313   -570705.02513     -2974.23813        20.90013
C36  24998655.49126   -654366.89326     -4533.05326        36.60026
R09  19421384.95515   -487002.62415     -2970.57415        34.40015
C26  23213876.46815 -31149428.07815       605.30015        31.90015
C35  23203954.83615    212401.18415      1062.04015        31.60015
C29  21590071.90414   -406413.82914     -2101.76514        26.60014
R10  19829063.72514     88563.95014       637.45214        26.20014
C30  25080619.94813   -171375.97913     -4184.63313        20.10013
> 2025 05 03 08 38 45.0000000  0 16                      
G18  21075283.28526     97278.35326       419.65426        36.30026
G26  21125729.66215    140703.82915       649.61815        29.90015
G31  21494928.87015   -523858.67015     -2712.14815        31.70015
G28  22338034.30115   -801545.20215     -4083.35715        30.70015
G29  21340362.17514   -630877.15914     -3218.67614        29.30014
G05  23495721.85014   -113550.47214      -645.69814        28.20014
G16  22904022.37514    384302.13714      1900.92014        26.00014
G04  25145197.64214   -117967.45714     -2249.16914        26.20014
G20  24705163.77113   -573671.24513     -2970.63813        20.90013
C36  24999290.45126   -658893.93826     -4532.84026        36.60026
R09  19421705.73315   -489980.11915     -2971.39015        34.30015
C26  23213522.41315 -31148815.14015       607.81415        32.60015
C35  23203512.94215    213466.72915      1058.90515        32.00015
C29  21590236.19114   -408512.39514     -2104.83114        28.40014
R10  19828690.18314     89290.84614       635.79014        26.10014
C30  25081183.25813   -175558.94213     -4190.31513        20.00013
> 2025 05 03 08 38 46.0000000  0 16                      
G18  21074965.20526     97703.08926       418.40326        36.20026
G26  21125378.90525    141362.33825       651.97725        33.00025
G31  21495199.88315   -526562.12415     -2708.99715        31.60015
G28  22338567.63115   -805622.64015     -4083.52915        30.60015
G29  21340734.21714   -634084.09014     -3211.40114        29.20014
G05  23495594.13914   -114194.34814      -650.98914        28.10014
G16  22903432.38414    386206.70214      1897.70614        26.50014
G04  25145390.70814   -120210.97814     -2249.51614        26.10014
G20  24705492.04413   -576633.12713     -2965.57413        20.80013
C36  24999919.11626   -663421.41526     -4533.50026        36.50026
R09  19422040.60125   -493036.31025     -2972.38225        34.20025
C26  23213164.46125 -31148202.86525       606.13325        33.20025
C35  23203069.54925    214531.41625      1058.44725        32.20025
C29  21590399.27814   -410611.13214     -2104.63114        29.10014
R10  19828303.15114     90088.67114       633.59314        25.90014
C30  25081734.87613   -179742.93513     -4190.31513        20.00013
> 2025 05 03 08 38 47.0000001  0 16                      
G18  21074684.59926     98127.37826       418.20426        36.10026
G26  21125045.83515    142019.13215       650.07315        32.80015
G31  21495506.87015   -529266.37515     -2710.51115        31.50015
G28  22339136.33815   -809699.66615     -4082.68115        30.60015
G29  21341138.03814   -637292.97214     -3215.72014        29.10014
G05  23495511.09614   -114838.91114      -650.76814        28.20014
G16  22902857.68214    388115.04214      1904.36414        26.90014
G04  25145606.25914   -122453.42914     -2247.77814        26.10014
G20  24705842.50113   -579590.35613     -2960.76313        20.60013
C36  25000581.65726   -667948.91726     -4533.32126        36.40026
R09  19422371.27225   -495908.36425     -2972.77025        34.10025
C26  23212837.68725 -31147590.89425       606.00725        33.50025
C35  23202655.53625    215595.79525      1058.41325        32.70025
C29  21590601.33815   -412709.64915     -2104.21615        29.50015
R10  19827997.66314     90612.69714       643.00714        25.70014
C30  25082338.35813   -183928.80613     -4192.61813        19.90013
> 2025 05 03 08 38 47.9999999  0 16                      
G18  21074285.87526     98551.13026       417.67326        35.90026
G31  21495710.72915   -531970.90115     -2710.47015        31.40015
G26  21124610.83615    142674.39715       648.69115        32.50015
G28  22339598.01815   -813778.81415     -4086.01315        30.70015
G29  21341436.63114   -640499.95514     -3211.83814        28.90014
G05  23495316.23114   -115482.14714      -648.38114        28.20014
G16  22902174.45514    390024.48114      1904.17714        27.00014
G04  25145712.98514   -124693.07014     -2244.04214        26.30014
G20  24706084.13413   -582544.54513     -2958.47513        20.40013
C36  25001134.77526   -672476.68526     -4533.65226        36.40026
C26  23212407.48525 -31146979.44625       605.43125        33.60025
R09  19422627.29525   -498958.48125     -2973.86925        34.00025
C35  23202140.79225    216659.92125      1058.24425        32.70025
C29  21590685.28015   -414810.07515     -2107.13415        29.60015
R10  19827583.94914     91137.44114       649.80014        25.60014
C30  25082818.62613   -188118.92513     -4197.99513        19.70013
> 2025 05 03 08 38 48.9999999  0 16                      
G18  21073968.39526     98974.12026       416.72826        35.70026
G31  21495981.44215   -534674.05215     -2708.34315        31.30015
G28  22340141.24215   -817857.44815     -4084.25515        30.70015
G26  21124245.38915    143330.50415       650.64515        32.10015
G05  23495203.20914   -116125.06014      -648.63114        28.20014
G29  21341799.97914   -643708.03614     -3214.50814        28.80014
G16  22901578.76714    391929.34114      1896.68814        27.00014
G04  25145908.15014   -126936.67214     -2251.46414        26.50014
G20  24706403.11313   -585500.08313     -2962.09113        20.30013
C36  25001767.93626   -677004.61526     -4533.83626        36.70026
C26  23212056.72825 -31146368.50125       604.86625        33.60025
R09  19422923.49025   -501806.84925     -2974.44025        33.90025
C35  23201696.50025    217723.65925      1057.71525        32.70025
C29  21590852.86415   -416909.74015     -2105.11215        29.70015
R10  19827229.89414     91761.36714       644.68214        25.40014
C30  25083383.73513   -192313.62013     -4202.80613        19.60013
> 2025 05 03 08 38 50.0000000  0 16                      
G18  21073682.39326     99396.39126       416.04826        35.60026
G31  21496295.02515   -537379.74315     -2712.82315        31.20015
G28  22340712.64615   -821935.43515     -4083.52415        30.80015
G26  21123912.62015    143987.69015       651.86215        31.80015
G05  23495123.16514   -116772.78714      -655.99814        28.10014
G16  22901000.76714    393832.92714      1897.08414        27.00014
G04  25146125.50014   -129177.12814     -2244.74414        26.80014
G29  21342213.69314   -646913.48614     -3209.99714        28.40014
G20  24706758.66713   -588458.89613     -2966.31113        20.20013
C36  25002431.37726   -681532.94526     -4534.33726        37.00026
C26  23211736.84925 -31145758.03625       604.41425        33.80025
R09  19423281.14225   -504821.78225     -2975.44025        33.70025
C35  23201287.58325    218786.97125      1057.28825        32.60025
C29  21591054.62415   -419009.40815     -2105.47715        29.80015
R10  19826898.92314     92421.91414       645.44014        25.30014
C30  25083979.12313   -196510.36513     -4203.57913        19.50013
> 2025 05 03 08 38 51.0000000  0 15                      
G18  21073358.01825     99818.12925       415.60725        35.40025
G31  21496573.83215   -540085.27915     -2711.31815        31.10015
G28  22341244.47815   -826014.77615     -4085.87815        30.80015
G26  21123558.86415    144645.47415       652.22015        31.50015
G05  23495004.14714   -117421.07214      -654.42614        28.00014
G04  25146311.97014   -131421.95914     -2252.88014        26.90014
G16  22900403.58014    395738.25714      1900.33714        27.00014
G29  21342595.92814   -650114.02014     -3203.93614        27.40014
G20  24707083.04213   -591424.31313     -2974.58013        20.10013
C36  25003060.34226   -686061.32626     -4534.21326        37.00026
C26  23211382.79425 -31145147.81325       604.29225        33.80025
R09  19423611.81325   -507853.52425     -2976.12225        33.60025
C35  23200846.88825    219850.15025      1057.30125        32.50025
C29  21591222.80715   -421111.56615     -2109.21315        29.90015
R10  19826558.65914     92971.86014       650.45914        25.20014
> 2025 05 03 08 38 52.0000000  0 14                      
G18  21073041.73725    100239.36725       415.12425        35.30025
G31  21496853.23815   -542790.39315     -2710.76615        31.20015
G28  22341790.40015   -830093.85715     -4084.81215        30.90015
G05  23494891.12514   -118068.51814      -652.89014        28.00014
G04  25146493.04514   -133666.18914     -2249.79114        26.90014
G16  22899806.69414    397645.52514      1902.37314        26.90014
G29  21342958.07814   -653313.66314     -3205.05714        26.40014
G20  24707422.70713   -594397.41613     -2982.80713        20.00013
C36  25003695.60226   -690589.76526     -4534.27626        36.80026
C26  23211025.74125 -31144538.09125       603.66025        33.80025
R09  19423923.29825   -510783.64625     -2976.64025        33.50025
C35  23200413.38825    220912.87425      1056.68625        32.40025
C29  21591384.09615   -423213.85615     -2108.16415        29.90015
R10  19826161.13414     93827.65514       645.94614        25.10014
> 2025 05 03 08 38 52.9999998  0 15                      
G18  21072647.21025    100659.93325       414.42225        35.20025
G31  21497053.79915   -545498.75515     -2715.79015        31.60015
G28  22342250.58215   -834173.59315     -4085.86815        31.00015
G05  23494701.35714   -118717.59114      -655.69514        27.90014
G04  25146606.06714   -135908.17814     -2246.67414        26.90014
G16  22899134.25914    399552.48714      1900.99814        26.80014
G29  21343244.37914   -656519.30514     -3214.44814        25.60014
G26  21122760.51714    145949.97714       642.18514        27.00014
G20  24707680.52913   -597376.95213     -2988.55913        20.00013
C36  25004250.21826   -695118.47426     -4534.59426        36.70026
C26  23210594.34025 -31143929.10025       602.87125        33.80025
R09  19424171.52625   -513791.73925     -2977.68525        33.30025
C35  23199888.75125    221975.15925      1056.30825        32.30025
C29  21591469.83615   -425316.23215     -2108.17115        29.90015
R10  19825745.92214     94360.02414       647.46214        25.20014
> 2025 05 03 08 38 53.9999999  0 15                      
G18  21072364.50625    101079.89925       413.78425        35.00025
G31  21497361.98615   -548206.15915     -2712.80615        31.90015
G28  22342816.89015   -838253.02415     -4085.15815        31.00015
G05  23494610.52014   -119367.05114      -655.53414        27.80014
G04  25146838.10614   -138153.67514     -2253.13214        27.10014
G16  22898563.45414    401458.16014      1899.14714        26.70014
G26  21122413.95714    146596.41314       640.57214        26.00014
G29  21343636.20814   -659729.02914     -3217.64414        25.00014
G20  24708041.77913   -600359.40313     -2989.78713        20.00013
C36  25004914.85826   -699647.34726     -4534.78226        36.50026
C26  23210268.46525 -31143320.34125       602.81425        33.70025
R09  19424510.89125   -516710.40125     -2978.47725        33.20025
C35  23199480.43425    223037.20225      1056.09425        32.20025
C29  21591666.20115   -427417.12915     -2105.98515        29.80015
R10  19825412.85214     95031.23614       643.61614        25.50014
> 2025 05 03 08 38 54.9999999  0 15                      
G18  21072047.32525    101499.18225       413.07725        34.90025
G31  21497639.29415   -550914.14615     -2714.13915        32.10015
G28  22343360.71315   -842334.73015     -4088.70215        31.00015
G05  23494497.49814   -120016.09214      -654.69414        27.80014
G04  25147025.77614   -140400.65314     -2253.58014        27.40014
G16  22897966.56814    403360.28214      1894.48214        26.60014
G26  21122055.10614    147247.17714       647.06514        25.50014
G29  21344022.04114   -662940.90314     -3218.81014        24.50014
G20  24708376.64713   -603345.74213     -2994.14513        20.10013
C36  25005547.42026   -704176.65026     -4535.32326        36.30026
C26  23209913.51125 -31142712.01925       602.29325        33.60025
R09  19424841.26225   -519740.61525     -2979.34625        33.10025
C35  23199033.44325    224098.90625      1055.72425        32.20025
C29  21591833.48515   -429519.73315     -2109.26515        29.80015
R10  19825051.30314     95694.06914       639.81114        25.60014
> 2025 05 03 08 38 55.9999999  0 15                      
G18  21071740.63825    101917.95225       412.65025        34.80025
G31  21497919.00025   -553622.82525     -2714.88625        32.40025
G28  22343906.93515   -846416.34415     -4087.42815        31.00015
G05  23494391.97114   -120669.47614      -661.41814        27.70014
G04  25147205.95214   -142646.81814     -2251.62014        27.40014
G16  22897372.97914    405264.67614      1899.66514        26.50014
G26  21121686.06114    147900.99814       649.48514        25.20014
G29  21344402.17814   -666154.03914     -3219.62714        24.20014
G20  24708707.31813   -606332.80413     -2993.28413        20.10013
C36  25006179.38226   -708705.87026     -4534.98426        36.10026
C26  23209557.35825 -31142104.33925       601.54825        33.60025
C35  23198593.04825    225160.22725      1055.31725        32.40025
R09  19425160.24115   -522710.46815     -2979.45815        32.90015
C29  21591997.77115   -431625.96315     -2113.85215        29.70015
R10  19824698.14714     96314.18214       643.93814        25.70014
> 2025 05 03 08 38 56.9999999  0 15                      
G18  21071420.75925    102336.09525       411.96725        34.70025
G31  21498197.80725   -556332.05225     -2715.36325        32.70025
G28  22344439.96615   -850497.01315     -4086.05715        30.90015
G05  23494277.15014   -121320.09114      -655.09314        27.70014
G04  25147401.71614   -144889.89114     -2247.38914        27.40014
G16  22896770.09614    407169.92414      1899.81014        26.40014
G26  21121317.01614    148559.21014       654.54214        25.10014
G29  21344759.83014   -669363.21614     -3213.05814        24.00014
G20  24709036.79013   -609320.96513     -2994.57113        20.00013
C36  25006812.84426   -713235.18326     -4535.16626        35.90026
C26  23209200.90525 -31141496.67825       601.84225        33.50025
C35  23198158.94925    226221.48825      1055.42125        32.50025
R09  19425472.62515   -525644.41015     -2980.70215        32.70015
C29  21592167.45415   -433728.50815     -2106.50915        29.70015
R10  19824342.89314     96943.45414       638.91814        25.90014
> 2025 05 03 08 38 58.0000000  0 15                      
G18  21071112.87225    102753.81325       411.69725        34.60025
G31  21498486.50725   -559041.80325     -2715.81825        32.90025
G28  22344994.58215   -854578.85115     -4088.22815        30.90015
G05  23494173.72214   -121969.64714      -654.83614        27.70014
G04  25147612.17014   -147134.65814     -2251.42014        27.40014
G16  22896173.80914    409078.99314      1905.16914        26.30014
G26  21120973.75414    149216.43514       650.92314        25.00014
G29  21345158.85414   -672573.22314     -3216.22714        24.00014
G20  24709370.75913   -612311.51913     -2997.55613        19.80013
C36  25007456.19826   -717764.87026     -4535.62626        35.70026
C35  23197727.54725    227282.28225      1054.80325        32.80025
C26  23208859.74125 -31140889.76625       600.78125        33.40025
R09  19425786.50815   -528525.67115     -2978.04415        32.60015
C29  21592342.53215   -435832.09915     -2109.86915        29.90015
R10  19823976.54714     97693.19414       644.02414        25.90014
> 2025 05 03 08 38 59.0000001  0 15                      
G18  21070820.57425    103170.87825       410.85625        34.50025
G31  21498796.49325   -561752.33725     -2716.80525        33.10025
G29  21345566.57215   -675783.31015     -3216.00715        30.90015
G28  22345556.99315   -858662.26815     -4090.08515        30.90015
G05  23494095.47614   -122618.19214      -653.92014        27.80014
G04  25147823.52414   -149379.47314     -2250.71914        27.20014
G26  21120656.87414    149870.22114       646.18414        25.30014
G16  22895609.89914    410984.00114      1897.09514        26.10014
G20  24709729.91013   -615301.36413     -2995.37113        19.70013
C36  25008117.84026   -722294.58426     -4535.55226        35.50026
C35  23197312.33525    228342.75925      1054.49025        33.20025
C26  23208541.06115 -31140283.17715       600.59915        33.20015
R09  19426158.85015   -531618.53715     -2983.80115        32.50015
C29  21592540.39515   -437935.11515     -2108.55515        31.10015
R10  19823664.16314     98254.58214       641.79414        26.10014
> 2025 05 03 08 38 59.9999998  0 16                      
G18  21070417.05425    103587.26925       410.19125        35.10025
G26  21120197.89115    150522.06815       645.01415        31.90015
G31  21498985.36225   -564463.54625     -2717.40725        33.10025
G29  21345848.97615   -678996.68015     -3220.87215        31.60015
G28  22346018.37315   -862744.65315     -4087.72815        31.10015
G05  23493895.21514   -123270.90314      -660.65614        28.20014
G04  25147910.76414   -151625.83814     -2253.00214        27.10014
G16  22894902.08914    412889.30914      1899.59314        25.90014
G20  24709976.93913   -618287.93413     -2990.79313        19.90013
R09  19426379.49726   -534543.31126     -2982.77526        35.80026
C36  25008661.06425   -726824.57725     -4535.93825        35.30025
C35  23196785.59925    229402.80625      1054.02225        33.50025
C29  21592618.94115   -440039.87215     -2111.43515        32.30015
C26  23208088.07515 -31139675.12615       602.97115        32.30015
R10  19823224.06814     98857.15314       638.07514        26.50014
C30  25089550.76513    -20933.97713     -4193.54513        22.20013
> 2025 05 03 08 39 00.9999998  0 17                      
G18  21070130.15226    104003.05126       409.61426        35.60026
G26  21119859.42625    151174.10725       646.27125        33.60025
G31  21499287.55325   -567175.76225     -2717.83225        33.00025
G29  21346248.00015   -682206.94815     -3214.57915        31.60015
G28  22346585.28115   -866825.29215     -4085.62615        31.40015
G05  23493813.37114   -123925.02214      -660.68614        28.50014
G04  25148135.90814   -153873.91314     -2254.79214        26.90014
G16  22894333.08314    414795.02514      1900.05514        25.80014
G20  24710351.67913   -621271.24413     -2987.54213        20.20013
R09  19426732.65326   -537534.55726     -2983.58426        38.90026
C36  25009327.50315   -731354.73315     -4536.04615        35.10015
C35  23196372.48525    230462.61425      1053.87725        33.70025
C29  21592816.20425   -442144.68625     -2110.65225        33.20025
C26  23207776.29115 -31139068.27815       600.43715        31.70015
R10  19822882.60414     99573.38014       645.67014        26.60014
C30  25090141.05713    -25121.75613     -4193.58613        22.20013
R16  23434367.82513    -20780.31413     -5445.27513        17.50013
> 2025 05 03 08 39 01.9999999  0 17                      
G18  21069817.76926    104418.19626       408.96226        35.90026
G26  21119497.27625    151825.64525       645.42425        33.50025
G31  21499571.45625   -569888.57425     -2719.22125        32.90025
G29  21346622.44115   -685417.47715     -3216.51915        31.60015
G28  22347126.40615   -870910.29915     -4093.05015        31.40015
G05  23493697.05214   -124582.71014      -665.33514        28.60014
G04  25148335.27014   -156126.12714     -2260.14414        26.80014
G16  22893732.29914    416700.40214      1899.34314        26.00014
G20  24710688.64613   -624251.40813     -2984.45113        20.20013
R09  19427059.12726   -540544.14226     -2984.77826        38.80026
C36  25009959.76525   -735885.08325     -4536.25225        34.90025
C35  23195936.58725    231521.98425      1053.34125        33.90025
C29  21592983.48925   -444249.75025     -2110.99725        33.60025
C26  23207415.34115 -31138462.06215       600.09015        32.70015
R10  19822533.34614    100171.36514       637.44314        26.70014
C30  25090704.66713    -29310.43113     -4194.93013        22.10013
R16  23435173.66713    -26349.89413     -5440.51013        17.50013
> 2025 05 03 08 39 03.0000000  0 16                      
G18  21069511.98026    104832.92226       408.70826        35.90026
G31  21499859.85725   -572601.39725     -2718.63425        32.90025
G28  22347671.72915   -874996.07615     -4091.96715        31.40015
G26  21119151.01615    152476.92215       645.33715        33.20015
G29  21347014.27015   -688630.30915     -3219.79015        31.50015
G05  23493597.22114   -125240.62714      -663.84014        28.60014
G04  25148543.62614   -158379.07414     -2259.12014        26.60014
G16  22893151.00114    418607.86814      1902.70114        26.10014
R09  19427392.49626   -543527.78626     -2984.99126        38.50026
C36  25010604.61925   -740415.34825     -4535.97325        34.80025
C35  23195505.78525    232581.10425      1053.23725        33.90025
C29  21593160.36615   -446355.43115     -2111.74415        33.60015
C26  23207071.47915 -31137857.03115       598.68215        32.90015
R10  19822173.29514    100889.84114       632.14714        26.70014
C30  25091286.86413    -33498.95313     -4194.19713        22.00013
R16  23436000.19513    -31969.96213     -5427.83213        18.00013
> 2025 05 03 08 39 04.0000000  0 15                      
G28  22348209.25716   -879080.99616     -4090.37016        37.90016
G18  21069198.69726    105246.68526       407.40026        35.90026
G31  21500136.26525   -575315.40025     -2720.47325        32.80025
G29  21347392.00815   -691843.74515     -3219.61715        31.40015
G05  23493479.40314   -125896.08314      -660.10714        28.60014
G16  22892562.50914    420513.73814      1899.18814        26.60014
G04  25148730.69614   -160631.34714     -2257.81614        26.60014
R09  19427709.37726   -546485.41526     -2986.52326        38.20026
C36  25011235.98225   -744946.43925     -4537.33025        34.80025
C35  23195066.88925    233639.72925      1052.55025        33.80025
C29  21593328.25015   -448462.17615     -2113.10415        33.40015
C26  23206723.12015 -31137250.45815       601.51615        32.80015
R10  19821820.73914    101505.38214       636.37714        27.00014
C30  25091857.66813    -37685.01513     -4190.65813        22.00013
R16  23436787.74913    -37443.25113     -5429.28513        18.10013
> 2025 05 03 08 39 05.0000000  0 16                      
G28  22348752.48126   -883166.37926     -4091.47426        39.70026
G18  21068879.41826    105659.89626       407.07126        35.90026
G31  21500415.97225   -578029.98625     -2720.73825        32.60025
G29  21347771.54515   -695055.68115     -3217.04715        31.30015
G05  23493358.88614   -126549.59714      -658.40514        28.50014
G16  22891960.22614    422416.67514      1895.60614        27.10014
G04  25148923.76214   -162882.43614     -2256.35814        26.50014
G26  21118409.03014    153785.15714       647.35114        29.20014
R09  19428035.55126   -549494.23426     -2986.63026        37.80026
C36  25011868.84425   -749477.24425     -4536.46825        35.30025
C35  23194621.99725    234698.08525      1052.41025        33.70025
C29  21593501.83015   -450568.22415     -2111.50715        33.30015
C26  23206371.16415 -31136648.78315       593.41515        32.60015
R10  19821454.39314    102194.14214       635.38014        27.30014
C30  25092422.47713    -41870.72613     -4191.34113        22.00013
R16  23437566.61013    -42869.14713     -5434.67013        18.40013
> 2025 05 03 08 39 06.0000000  0 16                      
G28  22349294.20626   -887252.50226     -4092.35326        39.70026
G18  21068562.83726    106072.50326       406.44126        35.90026
G31  21500692.38025   -580745.44025     -2721.75025        32.50025
G29  21348148.08515   -698265.94115     -3215.28315        31.20015
G05  23493247.06314   -127205.05514      -662.29214        28.40014
G16  22891366.93614    424317.20114      1893.45514        27.50014
G04  25149126.12214   -165134.04814     -2257.73514        26.70014
G26  21118047.48014    154436.03314       645.01214        27.20014
R09  19428356.02926   -552471.72926     -2988.11426        37.40026
C36  25012501.10615   -754007.25515     -4535.42015        35.30015
C35  23194184.00125    235756.03225      1051.93125        33.60025
C26  23206013.21115 -31136045.85215       597.74915        32.30015
R10  19821097.34014    102834.09214       635.38414        27.50014
C29  21593671.81215   -452673.57115     -2110.80515        32.00015
C30  25092994.78113    -46053.04813     -4186.43413        22.30013
R16  23438314.59213    -48131.48013     -5434.31313        18.40013
> 2025 05 03 08 39 06.9999999  0 15                      
G28  22349787.66426   -891339.50026     -4092.49126        39.80026
G18  21068197.09126    106484.36126       405.67426        35.80026
G31  21500923.52015   -583461.04315     -2722.23415        32.40015
G29  21348470.66115   -701475.00115     -3214.26515        31.10015
G05  23493090.87214   -127859.59314      -659.88614        28.60014
G16  22890709.49214    426215.39714      1891.22014        27.60014
G04  25149263.12714   -167386.48414     -2258.65514        27.10014
G26  21117650.55514    155085.09214       642.34214        25.70014
R09  19428619.84626   -555403.41626     -2988.37226        37.00026
C35  23193692.34125    236813.57725      1051.58725        33.50025
C26  23205618.38515 -31135445.39315       593.46715        32.00015
R10  19820684.82514    103512.89814       639.01314        27.50014
C29  21593795.92615   -454776.89315     -2108.06315        30.40015
C30  25093522.41613    -50238.22413     -4192.35513        22.60013
R16  23439028.09813    -53467.98813     -5434.62213        18.40013
> 2025 05 03 08 39 07.9999999  0 15                      
G28  22350326.69126   -895426.25926     -4092.76726        39.90026
G18  21067884.40726    106895.74426       405.26426        35.80026
G31  21501203.82615   -586178.28815     -2723.69415        32.20015
G29  21348850.19915   -704687.17215     -3219.60615        30.90015
G05  23492984.14614   -128516.23314      -663.57314        28.60014
G04  25149458.29214   -169641.56314     -2262.27914        27.40014
G16  22890113.20414    428107.40614      1883.03414        27.60014
G26  21117289.60514    155730.54514       637.76614        24.70014
R09  19428955.01426   -558460.37226     -2989.32426        36.70026
C35  23193257.04225    237870.83525      1051.28725        33.40025
C26  23205266.72815 -31134842.86715       597.73215        31.70015
R10  19820335.56714    104109.37114       632.11414        27.80014
C29  21593949.72014   -456879.62714     -2108.26614        29.00014
C30  25094083.02813    -54422.94413     -4190.31713        22.80013
R16  23439768.28613    -58689.05313     -5443.51113        18.40013
> 2025 05 03 08 39 08.9999999  0 16                      
G28  22350864.81826   -899513.45626     -4093.27726        40.00026
G18  21067568.72626    107306.53226       404.62826        35.70026
G31  21501480.53515   -588892.17915     -2718.07515        32.00015
G29  21349215.94515   -707901.41715     -3221.14215        30.90015
G05  23492872.32314   -129172.42514      -661.83014        28.60014
G16  22889514.51914    430004.98614      1894.50014        27.50014
G04  25149643.86414   -171898.13314     -2263.17714        27.40014
G20  24712949.38124                     -2988.63124        24.80024
G26  21116929.85414    156379.20014       644.39314        24.10014
R09  19429267.39826   -561395.07926     -2990.15426        36.40026
C35  23192815.44825    238927.89025      1051.14225        33.20025
C26  23204911.47415 -31134240.92415       595.84015        31.50015
R10  19819971.02014    104788.98514       635.66814        28.00014
C29  21594120.60114   -458985.33514     -2113.00414        28.00014
C30  25094645.73813    -58611.73513     -4196.63413        23.10013
R16  23440596.01313    -64377.88313     -5449.06913        18.30013
> 2025 05 03 08 39 10.0000000  0 16                      
G28  22351438.92126   -903601.26826     -4093.98026        40.00026
G18  21067287.22126    107716.78026       404.11426        35.60026
G31  21501793.51815   -591613.40815     -2730.75915        31.80015
G29  21349619.16615   -711114.39015     -3218.19815        30.80015
G05  23492783.28514   -129833.12114      -668.81114        28.90014
G16  22888948.81014    431906.22414      1897.20214        27.50014
G04  25149873.50514   -174153.20114     -2260.17814        27.50014
G20  24713300.73814     -2984.96214     -2990.82214        24.50014
G26  21116600.68214    157030.64614       646.97714        23.70014
R09  19429617.25626   -564369.51626     -2990.84326        36.10026
C35  23192403.53325    239984.68525      1050.85525        33.10025
C30  25095245.32314    -62797.18314     -4189.58214        24.60014
C26  23204592.79515 -31133638.90415       596.24915        31.40015
R10  19819652.64014    105381.63614       631.95914        28.00014
C29  21594315.76614   -461092.84614     -2114.22114        27.40014
R16  23441362.28313    -69576.02113     -5460.24613        18.10013
> 2025 05 03 08 39 11.0000000  0 17                      
G18  21066968.54126    108126.19226       403.13226        35.60026
G31  21502081.31915   -594333.32715     -2725.12415        31.70015
G29  21350000.20215   -714329.56715     -3222.14015        30.70015
G05  23492676.55814   -130499.35514      -674.86414        28.90014
G16  22888360.31814    433808.27214      1896.58914        27.80014
G28  22351978.84716   -907688.59616     -4093.69716        39.30016
G04  25150069.26914   -176408.88014     -2261.84614        27.70014
G26  21116226.84014    157682.24114       645.80714        23.50014
G20  24713644.60014     -5972.57914     -2994.80714        24.30014
R09  19429936.23526   -567337.84126     -2991.80326        35.80026
C35  23191962.53825    241040.87825      1050.08125        33.00025
C26  23204242.03815 -31133036.39515       596.94215        31.20015
C36  25015649.22614     -4533.40914     -4536.89514        27.80014
R10  19819309.37814    105947.60114       631.08714        28.20014
C30  25095820.62515    -66983.48515     -4192.53615        30.40015
C29  21594487.24814   -463202.12614     -2115.97314        27.00014
R16  23442191.50913    -75272.49113     -5469.19013        17.90013
> 2025 05 03 08 39 12.0000001  0 15                      
G18  21066670.24826    108535.45026       403.37126        35.50026
G31  21502373.01715   -597052.88215     -2725.18015        31.60015
G29  21350387.83415   -717545.95615     -3222.80115        30.70015
G16  22887773.62414    435709.45414      1894.93814        28.30014
G05  23492578.22714   -131166.09714      -672.80414        28.80014
G04  25150271.03014   -178666.67214     -2264.65514        27.70014
G26  21115876.68313    158330.65613       641.01613        23.30013
G20  24713981.56714     -8963.58514     -2998.50614        23.90014
R09  19430277.09926   -570361.21626     -2991.99226        35.60026
C35  23191532.33615    242096.95915      1050.26915        32.90015
C36  25016294.68015     -9064.78115     -4537.14215        30.60015
C26  23203895.17815 -31132433.31415       597.61215        31.00015
R10  19818953.52414    106642.42914       634.53414        28.40014
C30  25096395.32715    -71168.91415     -4190.74615        30.00015
C29  21594665.32414   -465316.39414     -2122.51614        26.80014
> 2025 05 03 08 39 12.9999998  0 15                      
G18  21066264.32925    108943.90625       402.17325        35.40025
G31  21502562.78615   -599772.26115     -2725.17015        31.40015
G29  21350678.63315   -720763.11815     -3223.42815        30.60015
G16  22887091.89614    437605.65914      1887.83414        28.50014
G05  23492371.07014   -131826.67814      -663.38114        28.70014
G04  25150376.25714   -180923.74514     -2262.59414        27.80014
G26  21115435.98813    158975.96513       637.87413        23.10013
G20  24714226.19714    -11958.62014     -3002.92814        23.50014
R09  19430515.13426   -573379.20526     -2993.04226        35.50026
C36  25016836.40515    -13596.51615     -4537.74015        31.80015
C35  23191002.60315    243152.70915      1049.75515        32.70015
C26  23203450.28615 -31131828.97815       599.13415        30.80015
R10  19818517.02614    107227.46114       633.27914        28.70014
C30  25096872.89614    -75353.38414     -4189.81414        29.40014
C29  21594743.57014   -467429.19114     -2117.88714        26.70014
> 2025 05 03 08 39 13.9999999  0 16                      
G18  21065972.33125    109351.73525       401.65225        35.30025
G29  21351078.85615   -723977.54815     -3218.92415        30.60015
G31  21502868.57415   -602495.34815     -2730.80215        31.30015
G16  22886518.69314    439502.75014      1891.66914        28.50014
G05  23492289.82614   -132485.02614      -663.09514        28.60014
G28  22353557.85415   -919964.01415     -4096.44115        32.30015
G04  25150603.20014   -183176.45814     -2256.39414        27.90014
G26  21115109.81413    159617.44313       633.69813        22.90013
G20  24714608.73213    -14957.70713     -3006.97513        23.00013
R09  19430863.49325   -576345.23725     -2993.87025        35.30025
C36  25017504.34215    -18129.01015     -4538.68015        32.50015
C35  23190595.48515    244208.25415      1049.63215        32.50015
C26  23203130.70715 -31131225.27615       597.57615        30.60015
R10  19818183.65714    107900.20214       628.63614        29.00014
C29  21594936.63614   -469537.51414     -2111.89414        26.60014
C30  25097472.48114    -79537.38614     -4189.57514        28.70014
> 2025 05 03 08 39 14.9999999  0 15                      
G18  21065656.35025    109759.07625       400.48425        35.20025
G29  21351456.59415   -727192.45315     -3221.00215        30.70015
G31  21503160.87115   -605219.64015     -2730.75515        31.10015
G16  22885911.61314    441402.92014      1895.84414        29.00014
G28  22354111.57115   -924054.95415     -4096.80015        31.20015
G05  23492176.20514   -133142.67114      -663.15614        28.50014
G04  25150792.96814   -185430.45914     -2260.50714        27.90014
G26  21114759.65613    160260.10513       637.39013        22.80013
G20  24714941.80213    -17959.06013     -3008.34713        22.60013
C36  25018133.60725    -22662.10825     -4539.20725        32.80025
C35  23190158.08815    245263.17815      1048.80215        32.30015
C26  23202777.55115 -31130625.08615       592.62415        30.40015
R10  19817821.20814    108568.37114       628.49014        29.20014
C29  21595106.01914   -471644.65514     -2112.35814        26.40014
C30  25098028.59614    -83722.17114     -4190.98214        28.00014
> 2025 05 03 08 39 15.9999999  0 16                      
G31  21503446.27415   -607941.42915     -2726.40015        31.00015
G29  21351831.03515   -730408.51915     -3222.50815        30.70015
G16  22885311.72815    443303.72015      1895.25115        29.50015
G28  22354644.00215   -928143.62215     -4093.39215        30.70015
G18  21065339.46915    110162.81015       396.31715        34.20015
G05  23492065.28214   -133801.24114      -664.89514        28.40014
G04  25150993.23014   -187689.07314     -2266.78114        27.80014
G26  21114408.00013    160904.97013       640.10213        22.90013
G20  24715278.46913    -20966.28313     -3016.01813        22.10013
C36  25018769.46625    -27195.13525     -4538.79725        33.20025
C35  23189719.79115    246317.64315      1048.42415        32.10015
C26  23202422.29715 -31130027.19115       590.93715        30.20015
R10  19817471.65014    109168.65614       628.54614        29.20014
R09  19431486.46215   -582203.95415     -2992.47715        33.90015
C29  21595273.60314   -473757.57614     -2121.62014        26.40014
C30  25098594.00514    -87907.32914     -4191.15114        27.30014
> 2025 05 03 08 39 17.0000000  0 16                      
G28  22355190.52415   -932234.82615     -4098.27715        31.20015
G18  21065043.87415    110567.53415       399.40915        33.20015
G29  21352215.66915   -733627.41015     -3226.10815        30.60015
G31  21503740.07115   -610659.46215     -2721.96015        30.90015
G16  22884727.73315    445202.97215      1892.66715        29.50015
G05  23491958.55614   -134466.89414      -675.00314        28.30014
G04  25151203.98414   -189949.74214     -2267.50314        27.80014
G26  21114064.43713    161550.51413       640.07513        23.10013
G20  24715612.43813    -23980.21613     -3023.09413        21.70013
C36  25019414.02025    -31728.61525     -4539.45825        33.20025
C35  23189292.28715    247373.61415      1050.96815        32.00015
R09  19431843.81415   -585315.19515     -2995.79515        32.80015
C26  23202088.62815 -31129431.79815       588.38615        30.10015
R10  19817121.49214    109833.73414       627.65214        29.30014
C29  21595453.47914   -475871.30114     -2119.88114        26.30014
C30  25099175.30314    -92096.43114     -4196.82614        26.70014
> 2025 05 03 08 39 18.0000000  0 16                      
G28  22355729.85016   -936326.00616     -4097.04716        40.20016
G18  21064736.58615    110973.62415       400.89115        32.90015
G29  21352588.31115   -736846.16115     -3224.56015        30.60015
G31  21504006.88615   -613381.74815     -2730.29315        30.80015
G16  22884120.65315    447103.62415      1895.47015        29.50015
G05  23491857.22614   -135132.18914      -670.99714        28.20014
G04  25151390.75514   -192209.22314     -2264.76614        27.70014
G26  21113702.88813    162194.76413       637.72113        23.40013
G20  24715956.00013    -26994.31113     -3020.05613        21.40013
C36  25020046.58225    -36261.99225     -4539.15125        33.10025
R09  19432164.59215   -588294.21715     -2997.84815        32.40015
C35  23188856.08915    248429.35615      1049.79815        31.80015
C26  23201733.67415 -31128835.21615       591.34715        30.00015
R10  19816756.34514    110516.39714       627.13414        29.30014
C29  21595632.15514   -477983.71814     -2117.59014        26.20014
C30  25099747.00714    -96286.02714     -4195.66714        26.10014
> 2025 05 03 08 39 19.0000001  0 16                      
G28  22356300.65526   -940418.05626     -4097.59426        40.20026
G18  21064450.28515    111378.45015       398.33215        33.20015
G31  21504326.16515   -616106.15915     -2731.33415        30.70015
G29  21352995.12915   -740060.87215     -3218.55315        30.50015
G16  22883554.04515    448999.08315      1886.99715        29.50015
G05  23491786.47514   -135797.79814      -671.62914        28.60014
G26  21113369.21914    162837.97114       636.82214        28.80014
G04  25151614.69914   -194468.30814     -2264.74914        27.60014
G20  24716321.44713    -30004.28813     -3013.77913        21.10013
C29  21595823.72214   -480094.71814     -2116.10014        27.90014
C36  25020711.22225    -40795.59525     -4539.52225        33.10025
R09  19432512.05215   -591254.90115     -2996.58915        32.20015
C35  23188443.57515    249481.93115      1045.18215        31.80015
C26  23201413.49615 -31128235.49515       595.48115        30.00015
R10  19816452.05614    111033.54714       627.79714        29.20014
C30  25100353.48714   -100474.37614     -4193.53314        25.70014
> 2025 05 03 08 39 19.9999998  0 15                      
G28  22356754.24126   -944510.21526     -4098.32326        40.20026
G18  21064042.86725    111782.51025       397.81325        34.30025
G26  21112921.02915    163480.28915       636.01115        30.00015
G31  21504521.03015   -618829.11015     -2728.08315        30.60015
G29  21353273.63615   -743276.05315     -3221.27515        30.50015
G16  22882873.51614    450900.96714      1899.23214        29.40014
G05  23491586.51314   -136464.26914      -672.76414        28.90014
G20  24716554.08613    -32999.80713     -2994.15113        21.00013
C29  21595905.86516   -482207.47216     -2119.43816        36.10016
C36  25021258.04425    -45329.41225     -4539.73025        33.00025
R09  19432754.58425   -594298.86825     -2998.91025        32.60025
C35  23187915.34015    250535.55815      1048.34215        32.30015
C26  23200971.90115 -31127636.71515       592.49915        30.00015
R10  19816002.36714    111686.46014       626.45814        29.20014
C30  25100821.16314   -104661.22214     -4191.90214        25.40014
> 2025 05 03 08 39 20.9999999  0 15                      
G28  22357311.85526   -948602.84626     -4098.67326        40.00026
G18  21063736.17925    112185.89425       397.23725        34.70025
G26  21112578.66615    164122.47215       636.30615        32.50015
G31  21504808.83115   -621552.73715     -2729.77015        30.60015
G29  21353660.36915   -746494.49015     -3225.87115        30.50015
G16  22882285.92315    452800.01015      1891.81315        29.90015
G05  23491470.79314   -137129.37914      -670.23814        28.80014
G20  24716884.75713    -35983.45613     -2983.52013        21.20013
C29  21596088.43926   -484320.61826     -2119.09626        35.90026
C36  25021900.49925    -49863.51525     -4539.99725        33.00025
R09  19433088.85325   -597287.09625     -2999.35925        32.80025
C35  23187495.33115    251587.45415      1045.27415        32.30015
C26  23200633.43615 -31127039.94315       590.01215        30.30015
R10  19815644.11514    112395.01314       624.47014        29.20014
C30  25101396.16514   -108847.76914     -4192.14814        25.20014
> 2025 05 03 08 39 21.9999999  0 14                      
G28  22357848.78326   -952695.96226     -4099.23626        39.80026
G18  21063427.69225    112588.78325       396.75925        34.90025
G26  21112222.21315    164762.71215       633.38615        32.50015
G29  21354038.70715   -749712.44715     -3223.59715        30.40015
G31  21505090.93515   -624277.32815     -2730.95315        30.60015
G16  22881686.93815    454698.28415      1892.00615        29.90015
G05  23491362.86814   -137795.74014      -672.86714        28.70014
G20  24717208.23313    -38955.95213     -2972.79713        21.20013
R09  19433408.73125   -600260.00625     -3000.37225        32.80025
C36  25022536.95825    -54397.82225     -4540.23425        32.90025
C29  21596249.42815   -486434.52115     -2120.10815        35.30015
C26  23200280.58015 -31126443.64615       590.23115        30.60015
R10  19815272.37214    113111.99614       627.15014        29.10014
C30  25101974.46514   -113037.71314     -4197.46914        25.20014
> 2025 05 03 08 39 23.0000000  0 15                      
G28  22358420.48826   -956789.24826     -4099.23226        39.60026
G18  21063142.29025    112991.24325       396.38325        35.00025
G26  21111885.54615    165402.77115       634.10515        32.30015
G29  21354451.82115   -752928.23815     -3220.56915        30.40015
G31  21505406.31715   -627003.57015     -2732.93015        30.50015
G16  22881118.23115    456596.89215      1892.91015        29.70015
G05  23491290.01814   -138464.66214      -676.06514        28.60014
G20  24717568.58313    -41916.28413     -2960.11313        21.10013
R09  19433765.18425   -603269.58925     -3000.44825        32.90025
C36  25023192.30425    -58932.00525     -4539.92725        32.90025
C26  23199961.60115 -31125848.72515       588.42315        30.80015
R10  19814975.57814    113591.01014       623.39814        29.00014
C29  21596439.19615   -488548.79915     -2120.27415        34.00015
C30  25102561.45814   -117227.80014     -4195.96414        25.20014
C35  23186652.31515    253669.26015      1025.96715        30.30015
> 2025 05 03 08 39 24.0000000  0 15                      
G28  22358963.41226   -960883.14126     -4100.05526        39.40026
G18  21062830.80625    113392.89325       395.38125        35.00025
G26  21111531.19115    166040.57815       630.81715        32.00015
G29  21354824.76215   -756144.99915     -3223.10715        30.40015
G31  21505680.02815   -629730.81215     -2733.60215        30.30015
G16  22880529.73915    458492.15115      1887.71915        29.60015
G05  23491186.29014   -139133.21214      -674.22714        28.80014
G20  24717887.26313    -44867.05813     -2951.85513        20.90013
R09  19434083.56425   -606236.38725     -3001.82925        33.00025
C36  25023832.36125    -63466.59125     -4540.59525        32.80025
C26  23199611.14315 -31125253.24515       589.94915        30.90015
R10  19814617.02614    114238.58514       624.83114        28.90014
C29  21596613.67515   -490661.45415     -2117.65115        32.30015
C30  25103120.27114   -121417.79514     -4195.75614        25.10014
C35  23186222.71214    254696.55014      1021.47914        28.30014
> 2025 05 03 08 39 25.0000000  0 14                      
G28  22359506.03626   -964977.50326     -4100.45826        39.30026
G18  21062513.62525    113793.84225       394.73625        35.00025
G29  21355200.40215   -759364.16115     -3226.22315        30.30015
G31  21505968.12815   -632457.35815     -2732.05815        30.30015
G05  23491073.86814   -139802.02014      -674.80014        28.90014
G16  22879923.25914    460386.11214      1887.44814        29.40014
G26  21111174.73815    166681.56415       636.71315        31.40015
C36  25024465.52325    -68001.32425     -4540.61225        32.90025
R09  19434404.04225   -609213.11725     -3002.60525        33.00025
C26  23199256.78915 -31124658.94515       587.90015        31.00015
R10  19814268.66714    114832.00414       623.22014        28.80014
C29  21596785.75615   -492773.67815     -2117.81715        30.80015
C30  25103701.56914   -125608.02414     -4196.15314        25.00014
C35  23185769.42614    255731.31014      1032.68414        26.80014
> 2025 05 03 08 39 25.9999998  0 14                      
G28  22359967.41726   -969072.31426     -4100.83926        39.30026
G18  21062127.79225    114194.27025       394.35825        35.00025
G31  21506174.68515   -635186.01215     -2735.51515        30.20015
G29  21355503.49315   -762583.28115     -3224.90415        30.30015
G05  23490891.29414   -140470.59814      -674.27214        28.90014
G26  21110739.43915    167321.47315       633.56015        30.50015
G16  22879240.93114    462280.26114      1888.43314        28.10014
R09  19434650.77125   -612214.33425     -3003.01425        33.00025
C36  25025017.74125    -72536.42925     -4541.04125        33.00025
C26  23198827.78615 -31124063.56215       590.16915        31.20015
R10  19813831.27014    115481.82814       618.71114        28.70014
C29  21596872.39615   -494890.05115     -2124.20115        29.60015
C30  25104197.42614   -129795.29014     -4191.53514        25.00014
C35  23185240.29214    256782.85414      1054.18014        26.00014
> 2025 05 03 08 39 26.9999999  0 13                      
G28  22360543.31826   -973167.58726     -4101.38326        39.20026
G18  21061846.28725    114594.17825       393.76625        35.00025
G29  21355904.01515   -765803.40015     -3226.49715        30.30015
G31  21506486.16915   -637916.50315     -2737.28915        30.20015
G05  23490809.15114   -141141.60114      -678.09614        28.90014
G26  21110403.37215    167962.76015       636.09515        29.80015
R09  19435015.91825   -615269.76125     -3003.91625        33.00025
C36  25025685.07925    -77071.53125     -4540.92625        33.00025
C26  23198511.50515 -31123468.29215       589.38515        31.20015
R10  19813500.59914    116140.84514       624.02314        28.60014
C29  21597077.75414   -497007.69114     -2124.10114        28.70014
C35  23184840.06914    257835.17114      1046.87414        25.70014
C30  25104794.31314   -133981.10814     -4190.92014        25.00014
> 2025 05 03 08 39 27.9999999  0 13                      
G28  22361085.94226   -977263.10526     -4101.50126        39.20026
G18  21061535.10325    114993.53525       393.21825        35.00025
G29  21356278.45615   -769023.36615     -3225.75115        30.40015
G31  21506773.07115   -640646.56715     -2735.71115        30.10015
G05  23490708.12114   -141814.06814      -679.06114        28.90014
G26  21110042.42215    168603.77115       635.00915        29.50015
R09  19435339.69425   -618265.59225     -3004.78525        33.10025
C36  25026323.33725    -81606.76025     -4541.09925        33.00025
C26  23198162.24615 -31122875.73115       585.39715        31.50015
R10  19813167.82914    116651.13714       624.07314        28.50014
C35  23184393.67814    258886.32114      1044.75514        25.90014
C29  21597249.53514   -499127.29814     -2126.39914        28.00014
C30  25105355.22414   -138166.53614     -4191.04014        25.00014
> 2025 05 03 08 39 28.9999999  0 13                      
G28  22361626.46826   -981359.14726     -4102.16326        39.20026
G18  21061216.42325    115392.24425       392.52125        35.00025
G29  21356661.59115   -772242.13815     -3224.03515        30.60015
G31  21507052.77715   -643377.15715     -2736.71415        30.00015
G05  23490602.59414   -142488.52314      -681.31214        28.80014
G26  21109681.77114    169241.88514       630.80214        29.20014
R09  19435662.87125   -621256.83925     -3005.36225        33.10025
C36  25026955.00025    -86142.19525     -4541.34425        32.90025
C35  23183958.67915    259936.58315      1044.00815        29.70015
C26  23197812.08915 -31122281.82115       588.77315        31.90015
R10  19812798.18514    117358.96014       621.26314        28.50014
C29  21597413.52214   -501246.14114     -2124.26914        27.60014
C30  25105918.23414   -142350.03314     -4188.33714        25.00014
> 2025 05 03 08 39 30.0000000  0 13                      
G28  22362181.68426   -985455.59326     -4102.45326        39.20026
G18  21060913.63325    115790.40425       392.07725        35.00025
G29  21357044.72615   -775459.85015     -3222.98715        30.70015
G31  21507350.17115   -646106.87615     -2735.09015        29.90015
G05  23490506.36114   -143165.35214      -683.82514        28.70014
G26  21109338.80914    169880.76014       633.44614        29.00014
R09  19435997.43925   -624246.59525     -3006.18625        33.20025
C36  25027599.85325    -90677.81125     -4541.45825        32.90025
C35  23183535.37215    260986.67115      1044.24415        32.40015
C26  23197471.22515 -31121689.04415       586.45515        32.10015
R10  19812456.72214    117976.75014       617.28714        28.40014
C29  21597601.49214   -503362.82414     -2121.35714        27.20014
C30  25106497.13414   -146532.54114     -4187.76614        25.00014
> 2025 05 03 08 39 31.0000000  0 13                      
G28  22362724.60826   -989552.54826     -4103.08826        39.20026
G18  21060600.05025    116187.76125       391.07225        35.00025
G29  21357414.96915   -778681.33915     -3229.25715        30.80015
G31  21507634.37515   -648842.47015     -2744.41115        29.70015
G26  21108988.95114    170521.08714       635.17114        28.80014
G05  23490404.13214   -143846.79414      -689.62914        28.60014
R09  19436314.91925   -627209.57225     -3007.16425        33.20025
C36  25028235.11325    -95213.66125     -4541.79225        33.00025
C26  23197117.77025 -31121096.72725       586.25925        32.40025
C35  23183091.97925    262036.28825      1043.55225        32.40025
R10  19812087.37714    118680.00814       618.06414        28.30014
C29  21597770.27514   -505480.32114     -2123.73014        26.90014
C30  25107067.63914   -150716.30114     -4190.21114        25.00014
> 2025 05 03 08 39 32.0000001  0 13                      
G28  22363296.91226   -993649.79726     -4103.25726        39.20026
G18  21060317.34625    116584.82925       391.06125        35.00025
G29  21357825.98515   -781904.54715     -3229.92915        30.90015
G31  21507946.75815   -651577.93115     -2741.25615        29.60015
G26  21108652.58414    171160.97314       633.80214        28.60014
G05  23490320.78914   -144523.27014      -679.85614        28.40014
R09  19436676.16925   -630244.36925     -3007.38325        33.20025
C36  25028899.15425    -99749.45625     -4541.57425        33.00025
C26  23196793.69425 -31120504.65625       586.13725        32.70025
C35  23182680.66425    263085.86425      1043.74525        32.50025
R10  19811768.09814    119277.99514       613.16714        28.20014
C29  21597964.84014   -507596.25414     -2120.96014        26.70014
C30  25107661.52814   -154904.00914     -4195.48914        24.90014
> 2025 05 03 08 39 32.9999998  0 14                      
G28  22363748.39926   -997747.50726     -4103.80026        39.20026
G18  21059918.02225    116981.07825       389.97525        35.00025
G29  21358107.79015   -785130.82615     -3233.67415        30.90015
G26  21108200.19714    171797.75314       629.36314        28.60014
G31  21508146.12014   -654313.26914     -2741.13714        29.40014
G05  23490125.62414   -145197.59114      -679.10614        28.30014
G16  22875034.84324                      1888.76124        25.70024
R09  19436912.70525   -633253.95425     -3008.61825        33.20025
C36  25029443.27725   -104285.56825     -4542.07725        33.20025
C26  23196355.69715 -31119914.87215       582.83015        32.90015
C35  23182157.22715    264135.02115      1043.13615        32.40015
R10  19811355.28414    119735.66114       617.17714        28.10014
C29  21598053.87814   -509714.16914     -2124.71314        26.60014
C30  25108136.99814   -159095.26914     -4198.84214        24.90014
> 2025 05 03 08 39 33.9999999  0 14                      
G28  22364301.21626  -1001845.78326     -4104.36326        39.20026
G18  21059619.42925    117376.85125       389.72725        35.30025
G29  21358500.81815   -788353.23115     -3226.27515        30.90015
G26  21107858.73314    172435.11414       631.84314        29.20014
G31  21508424.62714   -657047.49114     -2739.46914        29.20014
G16  22874448.14914      1897.04314      1891.21414        27.30014
G05  23490028.49214   -145872.93114      -681.65814        28.10014
R09  19437252.07025   -636269.68825     -3009.12525        33.50025
C36  25030091.72825   -108821.86425     -4542.14025        33.40025
C29  21598233.45414   -511833.49614     -2125.78714        28.40014
C26  23196026.52515 -31119324.37615       585.09615        32.90015
C35  23181730.62225    265183.89025      1042.96925        32.30025
R10  19811006.92514    120391.58914       619.44914        28.00014
C30  25108712.00014   -163286.49414     -4196.95914        24.90014
> 2025 05 03 08 39 35.0000000  0 14                      
G28  22364875.01926  -1005944.39226     -4104.65526        39.10026
G18  21059337.62426    117771.85926       388.74326        35.60026
G29  21358903.43915   -791573.25115     -3224.70715        30.90015
G26  21107525.36415    173070.39115       628.35315        29.70015
G16  22873889.93614      3795.28014      1892.95214        29.00014
G31  21508736.41214   -659780.91714     -2738.90914        29.20014
G05  23489950.24614   -146547.71614      -680.38814        27.90014
C29  21598433.71515   -513952.66215     -2124.91215        34.10015
R09  19437605.52625   -639263.22725     -3010.19025        33.80025
C36  25030752.47125   -113358.47425     -4542.59125        33.80025
C26  23195704.54815 -31118734.84815       583.21615        32.80015
C35  23181324.70325    266232.00825      1041.91425        32.10025
R10  19810643.27714    121226.78714       620.75414        27.80014
C30  25109308.58714   -167477.75914     -4197.11114        24.90014
> 2025 05 03 08 39 36.0000000  0 14                      
G28  22365422.14026  -1010043.61526     -4105.38926        39.10026
G18  21059026.43926    118166.25226       388.22226        36.00026
G29  21359278.77915   -794794.11215     -3227.14215        30.90015
G16  22873286.45315      5691.67215      1889.60415        29.80015
G26  21107175.50615    173705.72515       629.49815        29.90015
G31  21509020.91514   -662515.78614     -2741.45014        29.20014
G05  23489854.61214   -147228.32214      -689.37914        27.80014
C29  21598603.09825   -516072.19425     -2125.52325        35.30025
R09  19437936.79625   -642297.26025     -3010.83725        34.20025
C36  25031389.23025   -117895.27125     -4542.69625        33.90025
C26  23195352.89115 -31118144.97515       584.23515        32.80015
C35  23180879.21125    267280.02325      1042.15225        32.00025
R10  19810273.63314    121933.08914       610.85214        27.70014
C30  25109871.89714   -171669.54314     -4197.85114        24.80014
> 2025 05 03 08 39 37.0000000  0 14                      
G28  22365962.36626  -1014143.23826     -4105.68326        39.00026
G18  21058713.45626    118560.03526       387.61426        36.40026
G29  21359659.81515   -798017.50915     -3230.52515        31.00015
G16  22872677.57515      7587.70015      1889.98115        30.20015
G26  21106812.15815    174342.63615       631.83615        30.00015
G31  21509303.31915   -665251.93715     -2742.65415        29.70015
G05  23489746.08714   -147905.46914      -681.28114        27.60014
C29  21598773.08126   -518192.20226     -2126.05526        35.80026
R09  19438261.17225   -645296.14825     -3011.54925        34.70025
C36  25032021.79225   -122432.15125     -4542.72825        34.00025
C26  23194995.83925 -31117555.23325       583.86625        32.70025
C35  23180445.41225    268327.63825      1041.60525        32.10025
R10  19809961.84914    122331.26114       615.86214        27.70014
C30  25110445.40014   -175859.23514     -4194.45114        24.80014
> 2025 05 03 08 39 38.0000000  0 14                      
G28  22366510.08726  -1018243.20726     -4106.00226        39.00026
G18  21058405.26926    118953.24826       387.06426        36.80026
G29  21360027.66115   -801238.75815     -3226.03615        31.10015
G16  22872090.58115      9483.48815      1889.80315        30.60015
G26  21106453.90615    174979.64415       631.19315        30.40015
G31  21509589.02115   -667990.36015     -2745.42015        29.90015
G05  23489646.25614   -148583.58614      -684.46414        27.40014
C29  21598944.56226   -520312.60826     -2126.41326        36.00026
R09  19438585.24725   -648291.97925     -3012.48625        35.20025
C36  25032656.45325   -126969.28025     -4543.05825        34.10025
C26  23194651.97725 -31116965.99525       583.17425        32.70025
C35  23180005.91625    269375.02925      1041.46825        32.60025
R10  19809597.60114    123009.34014       613.33014        27.60014
C30  25111011.10914   -180046.17114     -4191.36514        24.70014
> 2025 05 03 08 39 38.9999999  0 14                      
G28  22367004.14526  -1022343.66926     -4106.51326        38.90026
G18  21058042.82026    119345.92026       386.59426        37.20026
G29  21360355.33415   -804460.74915     -3228.16915        31.20015
G26  21106051.58515    175614.32615       627.70915        30.70015
G16  22871445.12815     11380.34615      1891.58315        30.80015
G31  21509831.55315   -670725.34315     -2739.06915        29.90015
G05  23489496.06014   -149262.96714      -685.82114        27.10014
C29  21599065.97826   -522433.32726     -2126.62926        36.20026
R09  19438859.25826   -651279.44326     -3012.99926        35.60026
C36  25033246.14425   -131506.44525     -4542.93725        34.10025
C26  23194246.35725 -31116377.10525       582.96025        32.80025
C35  23179519.35325    270421.94725      1040.92525        32.70025
R10  19809197.67814    123619.50814       617.59814        27.60014
C30  25111534.24714   -184234.50314     -4194.78214        24.60014
> 2025 05 03 08 39 39.9999999  0 15                      
G28  22367544.67126  -1026444.70726     -4107.20526        38.90026
G18  21057731.03626    119737.84226       385.66426        37.60026
G29  21360735.77015   -807686.28315     -3233.18315        31.20015
G26  21105695.43115    176247.53215       626.58715        31.10015
G16  22870846.14315     13277.03115      1890.71615        30.80015
G31  21510106.76315   -673462.31815     -2743.85015        30.00015
G05  23489391.13314   -149942.85714      -686.02514        26.90014
G20  24723127.63513    -15003.37413     -3007.97413        21.30013
C29  21599234.46126   -524554.60026     -2127.37726        36.20026
R09  19439183.93326   -654278.33026     -3014.24726        36.00026
C36  25033878.10725   -136044.17825     -4543.84025        34.20025
C35  23179083.45425    271468.82125      1041.02325        32.80025
C26  23193894.10115 -31115788.25115       583.00715        32.80015
R10  19808852.61714    124195.38314       611.56914        27.60014
C30  25112103.55214   -188423.76514     -4195.55214        24.40014
> 2025 05 03 08 39 40.9999999  0 15                      
G28  22368087.89526  -1030546.00826     -4107.29126        38.90026
G18  21057421.35126    120129.23626       385.26726        37.60026
G26  21105332.38215    176882.66815       630.23715        31.40015
G29  21361108.41215   -810911.39615     -3230.76415        31.20015
G16  22870244.45915     15174.09515      1891.38815        30.90015
G31  21510388.56815   -676200.91015     -2745.26115        30.20015
G05  23489275.71314   -150624.54314      -688.44814        26.60014
G20  24723473.89513    -18005.91613     -3008.40213        22.20013
R09  19439515.50326   -657314.65626     -3014.55426        36.00026
C29  21599401.44616   -526676.38616     -2127.85016        36.10016
C36  25034511.26825   -140581.80425     -4543.38025        34.20025
C26  23193552.33815 -31115200.34715       581.61915        32.70015
C35  23178642.16015    272514.68115      1039.54215        32.70015
R10  19808464.08614    125003.12714       612.85614        27.50014
C30  25112679.45414   -192616.86014     -4200.81714        24.30014
> 2025 05 03 08 39 41.9999999  0 15                      
G28  22368631.11926  -1034647.77626     -4107.86226        38.80026
G18  21057112.26526    120520.06226       384.67826        37.60026
G26  21104977.72815    177514.90915       624.92915        31.40015
G29  21361492.14715   -814136.87815     -3231.52615        31.20015
G16  22869645.77415     17071.39715      1891.55715        30.90015
G31  21510675.16915   -678941.26815     -2747.10315        30.20015
G05  23489156.99514   -151309.29314      -692.14514        26.40014
G20  24723801.56813    -21008.04513     -3007.78313        22.60013
R09  19439838.98026   -660308.95926     -3015.50126        36.00026
C36  25035142.03225   -145119.59025     -4543.67225        34.20025
C26  23193201.28125 -31114612.70425       581.70225        32.70025
C35  23178205.36215    273561.51815      1041.51515        32.60015
C29  21599575.32515   -528798.04615     -2127.40615        35.30015
R10  19808140.01014    125467.65414       612.21514        27.40014
C30  25113249.95914   -196808.31314     -4196.43914        24.30014
> 2025 05 03 08 39 43.0000000  0 14                      
G28  22369183.63626  -1038749.84126     -4108.01826        38.80026
G18  21056813.67126    120910.34226       384.19726        37.60026
G26  21104635.06515    178144.69815       622.75515        31.40015
G29  21361874.08215   -817361.84515     -3230.51515        31.10015
G31  21510977.36015   -681680.96815     -2745.17515        30.10015
G05  23489069.45614   -151993.53014      -689.78814        26.30014
G20  24724161.01913    -24014.55813     -3014.51213        22.70013
R09  19440175.04726   -663307.12026     -3015.96726        35.90026
C36  25035792.28225   -149657.51625     -4543.74725        34.20025
C26  23192858.61825 -31114025.60925       581.06625        32.60025
C35  23177779.65715    274606.92915      1038.94115        32.40015
R10  19807790.45214    126128.16314       614.94114        27.30014
C29  21599753.40215   -530918.43915     -2125.51215        33.60015
C30  25113835.75314   -201001.96214     -4200.49914        24.20014
> 2025 05 03 08 39 44.0000001  0 15                      
G28  22369758.93826  -1042852.21826     -4108.41226        38.80026
G18  21056530.96726    121300.17726       383.73126        37.50026
G26  21104306.19315    178778.62515       630.11415        31.30015
G29  21362281.80015   -820584.65915     -3227.61715        31.00015
G31  21511298.43815   -684420.67315     -2745.58915        29.90015
G05  23488994.80714   -152674.84014      -685.72814        26.10014
G16  22868491.87314     20870.71614      1892.80614        28.50014
G20  24724517.17313    -27024.15613     -3017.02013        22.70013
R09  19440540.19426   -666364.07526     -3016.90026        35.80026
C36  25036458.72025   -154195.46125     -4543.78125        34.10025
C26  23192539.93925 -31113438.81425       580.81625        32.80025
C35  23177374.33815    275654.20415      1042.37815        32.30015
C29  21599952.76415   -533040.53515     -2128.77415        32.30015
R10  19807481.06614    126672.00614       615.27614        27.20014
C30  25114424.54614   -205193.72014     -4196.63714        24.20014
> 2025 05 03 08 39 44.9999998  0 15                      
G28  22370213.12426  -1046955.26526     -4109.24226        38.80026
G18  21056129.84526    121689.14026       382.66326        37.40026
G26  21103849.00915    179410.38015       624.80515        31.30015
G29  21362571.99915   -823810.37115     -3233.02215        31.00015
G31  21511479.51315   -687160.06515     -2745.09515        29.80015
G16  22867806.84714     22766.94514      1890.36414        27.70014
G05  23488795.14514   -153354.52114      -684.72914        25.90014
G20  24724766.90013    -30030.29513     -3010.26913        22.70013
R09  19440771.03426   -669341.56926     -3017.69626        35.70026
C36  25037000.14525   -158733.72525     -4544.22825        34.00025
C26  23192101.94225 -31112852.35025       580.48825        32.80025
C35  23176847.00315    276699.42515      1038.38315        32.10015
C29  21600030.71015   -535160.99315     -2125.44815        31.60015
R10  19807029.57914    127336.35614       613.01714        27.10014
C30  25114894.92014   -209384.07914     -4195.46614        24.20014
> 2025 05 03 08 39 45.9999998  0 15                      
G28  22370754.84926  -1051058.82726     -4109.68026        38.70026
G18  21055818.06026    122077.50726       382.20626        37.30026
G26  21103492.85615    180040.33915       623.19715        31.20015
G29  21362946.74015   -827036.27315     -3231.85615        31.00015
G31  21511770.61115   -689900.87215     -2747.37715        30.20015
G05  23488678.52614   -154036.37814      -688.80714        25.80014
G16  22867204.56414     24663.36114      1890.64414        27.20014
G20  24725113.16013    -33033.11113     -3007.01513        22.70013
R09  19441106.50226   -672400.05326     -3018.59926        35.50026
C36  25037636.60515   -163272.24515     -4544.45515        33.90015
C26  23191755.98125 -31112266.61525       579.56125        32.80025
C35  23176410.20515    277745.42115      1040.57415        32.00015
C29  21600200.99215   -537285.35715     -2132.12415        31.00015
R10  19806667.72914    128000.70314       605.63414        26.90014
C30  25115469.92214   -213578.39614     -4202.10314        24.20014
> 2025 05 03 08 39 46.9999999  0 14                      
G28  22371313.96226  -1055162.96426     -4110.23026        38.70026
G18  21055517.06926    122465.14826       381.46926        37.20026
G31  21512067.70515   -692642.74715     -2748.21515        30.60015
G26  21103146.29615    180672.04715       626.77415        31.10015
G29  21363332.87215   -830262.74515     -3232.56415        30.90015
G05  23488577.49614   -154719.48714      -689.54414        26.00014
G16  22866613.07314     26555.71514      1884.51214        26.80014
G20  24725458.82113    -36039.03913     -3013.29013        22.60013
R09  19441444.06825   -675405.09025     -3019.51125        35.40025
C26  23191415.41725 -31111681.53325       578.99925        32.80025
C35  23175976.70515    278791.10615      1039.77115        31.90015
C29  21600385.96415   -539409.62115     -2129.96815        30.70015
R10  19806334.66014    128575.79014       603.45314        26.80014
C30  25116035.93014   -217773.48514     -4201.22714        24.10014
> 2025 05 03 08 39 48.0000000  0 15                      
G28  22371885.36626  -1059267.41626     -4110.48726        38.60026
G18  21055231.36726    122852.21226       380.89326        37.10026
G31  21512381.88815   -695383.65415     -2746.30315        30.80015
G26  21102815.92515    181301.75115       622.81915        31.00015
G29  21363741.49015   -833487.90315     -3230.38015        30.80015
G05  23488493.85414   -155403.39714      -690.19114        26.50014
G16  22866036.57214     28447.02414      1884.90514        26.40014
G20  24725823.36913    -39049.44113     -3018.51813        22.60013
R09  19441788.53025   -678350.49325     -3020.00725        35.30025
C26  23191097.33725 -31111096.74725       578.80925        32.90025
C35  23175577.68115    279834.75515      1036.80315        31.80015
C29  21600588.92315   -541534.65415     -2131.24415        30.40015
R10  19806018.37914    129157.00914       618.77414        26.60014
C36  25038946.39815   -172350.50715     -4545.56515        32.20015
C30  25116625.32214   -221966.70914     -4198.11714        23.90014
> 2025 05 03 08 39 49.0000000  0 15                      
G28  22372432.78726  -1063372.22426     -4110.84626        38.60026
G18  21054921.68126    123238.70726       380.34826        37.00026
G31  21512669.38915   -698127.02715     -2750.46515        30.90015
G26  21102458.27215    181927.10715       617.31815        30.80015
G29  21364116.23015   -836712.47015     -3230.13115        30.60015
G05  23488383.23114   -156088.17114      -691.06914        26.70014
G16  22865437.58714     30339.93214      1887.84214        26.10014
G20  24726157.63713    -42061.62813     -3018.94013        22.60013
R09  19442119.50125   -681383.76325     -3020.84625        35.20025
C26  23190745.08125 -31110512.35025       578.39225        32.90025
C35  23175136.38715    280879.17215      1038.99015        31.70015
C29  21600767.60015   -543657.71115     -2127.87815        30.20015
R10  19805654.13114    129835.85214       607.17814        26.60014
C36  25039578.96015   -176889.98515     -4545.28415        30.50015
C30  25117191.63014   -226161.38814     -4201.21214        23.70014
> 2025 05 03 08 39 50.0000000  0 15                      
G28  22372975.41126  -1067477.61126     -4111.53726        38.50026
G18  21054611.39626    123624.64526       379.79526        36.80026
G31  21512951.79315   -700871.45715     -2750.82115        31.20015
G29  21364501.76315   -839940.21715     -3235.19815        30.50015
G26  21102097.32215    182552.30415       619.25415        30.70015
G05  23488286.09814   -156773.55514      -691.55114        26.80014
G16  22864845.19714     32235.07914      1890.40214        25.90014
G20  24726495.80313    -45076.11013     -3021.49013        22.60013
R09  19442449.27225   -684411.68425     -3021.87025        35.00025
C26  23190395.22325 -31109928.57225       577.65825        32.90025
C35  23174699.29015    281924.23515      1039.57515        31.60015
C29  21600934.58415   -545783.08815     -2132.34515        30.00015
R10  19805305.47214    130430.79114       601.00314        26.50014
C36  25040213.62114   -181428.93314     -4544.48914        29.20014
C30  25117766.03214   -230360.12414     -4206.57114        23.50014
> 2025 05 03 08 39 50.9999998  0 14                      
G28  22373440.98926  -1071583.45026     -4111.87026        38.50026
G18  21054224.66426    124009.85026       379.03126        36.70026
G31  21513161.04915   -703616.12915     -2750.59915        31.30015
G29  21364799.75715   -843164.05315     -3227.68615        30.40015
G05  23488091.23314   -157461.84114      -695.54614        26.90014
G16  22864170.36414     34129.80814      1888.70914        25.70014
G20  24726747.02913    -48086.49313     -3014.14013        22.60013
R09  19442702.89725   -687449.57625     -3022.44325        34.90025
C26  23189969.81825 -31109345.04825       577.64225        32.80025
C35  23174187.24415    282967.11415      1036.03115        31.50015
C29  21601030.81815   -547910.16515     -2133.68115        29.90015
R10  19804867.17614    131085.95714       600.33614        26.40014
C36  25040767.93714   -185966.51814     -4542.65514        28.40014
C30  25118275.68013   -234564.74013     -4213.30913        23.20013
> 2025 05 03 08 39 51.9999999  0 15                      
G28  22374017.49026  -1075689.51326     -4112.05326        38.40026
G18  21053941.36026    124394.47426       378.45226        36.60026
G31  21513469.23515   -706360.12915     -2749.54315        31.60015
G29  21365208.67415   -846390.42015     -3233.51115        30.30015
G05  23488025.87814   -158149.16314      -692.72114        27.00014
G16  22863612.75014     36023.27714      1886.95614        25.60014
G26  21101343.04414    183803.00414       619.11514        28.80014
G20  24727112.77613    -51092.90613     -3010.30713        22.60013
R09  19443059.05025   -690456.86825     -3023.13925        34.80025
C26  23189652.93725 -31108762.00725       576.97025        32.80025
C35  23173781.32515    284009.00215      1035.56315        31.40015
C29  21601226.58215   -550035.72115     -2130.62115        29.80015
C36  25041432.27714   -190502.31714     -4540.73314        27.90014
R10  19804553.29314    131654.97614       600.77214        26.30014
C30  25118884.85813   -238771.58113     -4213.77913        22.90013
> 2025 05 03 08 39 52.9999999  0 15                      
G28  22374560.41426  -1079796.20826     -4112.87026        38.40026
G18  21053632.27426    124778.57026       377.96726        36.40026
G31  21513761.23315   -709105.95815     -2752.60515        31.80015
G29  21365592.10815   -849617.21915     -3232.87615        30.20015
G05  23487912.55614   -158836.97114      -693.91314        27.00014
G16  22863015.56414     37915.25014      1885.35914        25.50014
G26  21100988.98914    184427.39314       618.52514        27.60014
G20  24727448.24413    -54097.17513     -3009.05913        22.50013
R09  19443386.72325   -693474.09225     -3023.81425        34.60025
C26  23189302.48025 -31108179.46325       576.48525        32.90025
C35  23173341.52915    285050.64915      1035.71515        31.40015
C29  21601400.16215   -552162.44015     -2133.10915        29.80015
C36  25042067.23814   -195042.61414     -4548.35114        27.60014
R10  19804219.62414    132168.31714       607.11114        26.10014
C30  25119436.77613   -242982.60913     -4218.92813        22.70013
> 2025 05 03 08 39 53.9999999  0 15                      
G28  22375103.03826  -1083903.05426     -4112.78326        38.30026
G18  21053322.28826    125162.30626       377.69326        36.30026
G31  21514050.83315   -711852.13615     -2752.21315        32.00015
G29  21365967.14915   -852845.03215     -3234.18115        30.10015
G05  23487801.33314   -159527.05414      -697.08314        27.00014
G16  22862412.68114     39805.84214      1884.03814        26.00014
G26  21100628.03914    185059.24314       629.71714        27.00014
G20  24727789.70713    -57100.42213     -3008.59713        22.50013
C26  23188954.42125 -31107597.05425       576.53125        33.50025
R09  19443712.29825   -696478.32825     -3024.42125        34.40025
C35  23172900.23515    286094.07815      1038.50915        31.50015
C29  21601571.04415   -554289.11015     -2132.45515        29.70015
C36  25042704.89614   -199582.22714     -4545.07814        27.50014
R10  19803878.46014    132724.36214       606.11014        26.00014
C30  25120003.08413   -247201.58613     -4228.75713        22.40013
> 2025 05 03 08 39 55.0000000  0 15                      
G28  22375678.64026  -1088010.32826     -4113.34826        38.30026
G18  21053041.98226    125545.36426       376.85526        36.20026
G31  21514367.41325   -714599.08225     -2753.19125        32.20025
G29  21366366.77215   -856073.14515     -3234.12315        30.00015
G05  23487734.78014   -160218.18614      -697.52014        27.00014
G16  22861852.96914     41698.88614      1888.40414        26.60014
G26  21100307.26114    185690.35114       624.87414        26.70014
G20  24728162.94913    -60106.74813     -3013.72613        22.40013
C26  23188632.74425 -31107015.15125       575.84025        34.00025
R09  19444063.65525   -699460.40625     -3025.26825        34.30025
C35  23172494.91615    287136.14815      1035.58015        31.70015
C29  21601772.80415   -556416.67915     -2133.82615        29.50015
C36  25043370.73514   -204121.84814     -4545.43314        27.50014
R10  19803539.09514    133429.13714       600.46314        25.80014
C30  25120598.47213   -251428.10213     -4236.09413        22.10013
> 2025 05 03 08 39 56.0000000  0 15                      
G28  22376202.97726  -1092118.19926     -4113.97426        38.30026
G18  21052716.10826    125927.66326       376.11126        36.10026
G31  21514628.53325   -717346.72225     -2753.79325        32.40025
G29  21366717.82915   -859300.53815     -3232.83815        29.90015
G16  22861228.80114     43593.05014      1888.91514        27.10014
G05  23487601.37214   -160910.52714      -698.75414        27.00014
G26  21099932.82014    186319.44614       622.27914        26.70014
G20  24728488.82313    -63120.60913     -3023.43413        22.40013
C26  23188266.99725 -31106433.87625       575.20425        34.50025
R09  19444384.43325   -702536.50025     -3026.35525        34.10025
C35  23172038.33215    288177.65215      1035.46515        31.70015
C29  21601931.09414   -558544.96814     -2134.40414        29.40014
C36  25043987.40814   -208661.96714     -4546.11714        27.80014
R10  19803185.64014    133952.35214       598.47414        25.70014
C30  25121149.79013   -255662.00013     -4243.34013        21.80013
> 2025 05 03 08 39 57.0000001  0 15                      
G28  22376782.17626  -1096226.48926     -4114.37826        38.20026
G18  21052431.90526    126309.54726       375.79426        35.90026
G31  21514939.11825   -720095.02525     -2754.51425        32.60025
G29  21367126.44615   -862528.68315     -3234.40015        29.80015
G16  22860673.28514     45482.87914      1881.77814        27.50014
G05  23487518.03014   -161602.01814      -696.94614        27.00014
G26  21099600.35114    186947.54314       621.71514        26.70014
G20  24728852.77113    -66139.23313     -3026.88513        22.40013
C26  23187949.21725 -31105852.84325       575.08425        34.90025
R09  19444740.58625   -705545.32025     -3026.83125        33.90025
C35  23171630.61415    289220.13715      1037.14615        31.80015
C29  21602132.85514   -560672.75014     -2133.35514        29.30014
C36  25044649.35014   -213203.90614     -4548.67514        28.00014
R10  19802855.26914    134609.07514       600.17414        25.60014
C30  25121750.27413   -259905.81313     -4254.59613        21.40013
> 2025 05 03 08 39 57.9999998  0 14                      
G28  22377235.76226  -1100335.13926     -4114.69026        38.20026
G18  21052033.78026    126690.70826       374.93726        35.80026
G31  21515134.58225   -722843.99725     -2755.16825        32.60025
G29  21367407.05215   -865757.79115     -3235.45115        29.70015
G16  22859987.96014     47372.76414      1884.04914        27.70014
G05  23487322.26514   -162290.33514      -692.59414        27.00014
G26  21099157.55714    187574.36414       620.32014        26.80014
G20  24729082.71213    -69158.03113     -3024.74413        22.50013
C26  23187510.92025 -31105272.37125       574.38025        35.10025
R09  19444990.91325   -708627.49025     -3027.63025        33.70025
C35  23171106.57715    290259.85215      1032.51915        31.90015
C29  21602220.39414   -562802.96114     -2137.23314        29.10014
C36  25045204.56614   -217744.05714     -4545.06414        28.20014
R10  19802436.45914    135098.01114       594.54514        25.50014
> 2025 05 03 08 39 58.9999999  0 14                      
G28  22377808.66526  -1104443.94626     -4114.74626        38.20026
G18  21051754.97326    127071.60126       374.89526        35.70026
G31  21515456.26025   -725593.32125     -2755.36025        32.70025
G29  21367818.96715   -868988.65215     -3237.59915        29.50015
G16  22859423.75014     49261.56714      1882.39614        28.10014
G05  23487242.82014   -162978.06114      -693.29314        27.00014
G26  21098827.18614    188201.67714       621.69614        26.80014
G20  24729447.56013    -72176.68713     -3024.44813        22.50013
C26  23187194.04025 -31104691.98825       574.52825        35.30025
R09  19445333.87515   -711564.48915     -3028.30015        33.50015
C35  23170698.55915    291300.18315      1034.82915        31.90015
C36  25045862.31014   -222282.66514     -4543.64214        28.40014
C29  21602417.95714   -564931.44314     -2133.42714        28.90014
R10  19802109.38514    135737.19114       599.61514        25.40014
> 2025 05 03 08 39 59.9999999  0 14                      
G28  22378335.10126  -1108553.45326     -4115.66026        38.20026
G18  21051427.90026    127451.58426       373.71926        35.60026
G31  21515721.27625   -728343.46425     -2756.35925        32.80025
G29  21368176.02014   -872223.10214     -3242.04814        29.40014
G16  22858810.97414     51153.51514      1887.71114        28.30014
G05  23487128.00014   -163668.79914      -698.05114        26.90014
G26  21098442.25214    188828.85114       621.29514        26.80014
G20  24729772.23513    -75194.37013     -3023.00113        22.60013
C26  23186825.89426 -31104112.28026       573.61326        35.50026
R09  19445660.05015   -714670.38115     -3028.88315        33.40015
C35  23170240.77615    292340.14615      1034.02215        32.10015
C36  25046477.78414   -226821.98214     -4545.42414        28.60014
C29  21602564.25614   -567063.60614     -2139.75614        28.70014
R10  19801758.92814    136245.15514       596.72114        25.20014
> 2025 05 03 08 40 01.0000000  0 14                      
G28  22378911.30226  -1112663.25926     -4115.83626        38.10026
G18  21051149.69226    127831.08226       373.37426        35.50026
G31  21516041.45425   -731094.14525     -2756.82925        32.90025
G29  21368595.12914   -875452.09714     -3232.14714        29.30014
G16  22858237.17214     53045.05914      1885.45914        28.50014
G26  21098110.38214    189454.72314       619.33914        26.70014
G05  23487059.64714   -164362.63714      -701.26914        26.90014
G20  24730132.58513    -78210.15013     -3020.70913        22.60013
C26  23186507.51526 -31103532.93526       573.33626        35.60026
R09  19446006.61015   -717626.48115     -3030.00515        33.20015
C35  23169838.45525    293380.18725      1034.25125        32.30025
C36  25047144.22314   -231360.01014     -4543.20814        28.60014
C29  21602775.31014   -569193.27614     -2134.25114        28.60014
R10  19801423.76014    136927.05614       604.79514        25.10014
> 2025 05 03 08 40 02.0000000  0 14                      
G28  22379458.12426  -1116773.51926     -4116.34726        38.20026
G18  21050837.00925    128209.97325       372.72425        35.40025
G31  21516326.25725   -733845.48125     -2757.52425        33.10025
G16  22857642.08414     54935.18614      1883.55514        28.60014
G29  21368977.96414   -878679.35014     -3232.24314        29.10014
G05  23486953.82014   -165061.20214      -706.79114        26.80014
G26  21097758.12614    190083.04814       623.68714        26.70014
G20  24730469.85213    -81223.54713     -3018.06613        22.60013
C26  23186160.95526 -31102954.07526       572.80626        35.60026
R09  19446331.58525   -720627.66025     -3030.47425        33.00025
C35  23169400.45825    294419.87025      1033.69325        32.30025
C36  25047773.18714   -235900.79814     -4547.97414        28.70014
C29  21602940.19614   -571324.20614     -2137.36814        28.40014
R10  19801077.79914    137507.50214       593.55814        25.00014
> 2025 05 03 08 40 03.0000000  0 14                      
G28  22380002.54726  -1120884.04226     -4116.51526        38.20026
G18  21050533.01925    128588.44625       372.40125        35.30025
G31  21516614.35825   -736597.31925     -2757.95125        33.40025
G16  22857052.39214     56825.67014      1884.79714        28.90014
G29  21369351.20614   -881907.79014     -3234.89514        29.00014
G05  23486854.88914   -165759.30114      -703.72914        26.70014
G26  21097396.57614    190707.97314       617.36114        26.60014
G20  24730802.62213    -84235.31413     -3016.81213        22.60013
C26  23185814.09526 -31102375.43026       572.72726        35.60026
C35  23168959.76325    295459.23625      1033.39725        32.30025
R09  19446670.95025   -723706.77425     -3031.20325        32.80025
C36  25048411.74514   -240440.02414     -4544.25114        28.70014
C29  21603113.17614   -573458.60614     -2141.94314        28.30014
R10  19800703.05914    138241.27114       595.04214        24.80014
> 2025 05 03 08 40 04.0000001  0 15                      
G28  22380580.24726  -1124995.09826     -4117.18326        38.30026
G18  21050259.30925    128966.34525       371.74725        35.20025
G31  21516926.14225   -739349.81025     -2758.67825        33.70025
G16  22856480.68814     58716.35314      1884.91714        29.20014
G29  21369752.92814   -885136.59814     -3234.85314        28.80014
G05  23486782.93914   -166454.58714      -699.74214        26.70014
G26  21097073.10014    191325.97914       608.68314        26.40014
G20  24731164.47113    -87249.69413     -3021.54913        22.50013
C26  23185495.71526 -31101797.26926       572.11026        35.60026
C35  23168558.94025    296498.32225      1033.13625        32.30025
R09  19447031.30025   -726735.45925     -3031.98825        32.70025
C36  25049079.68314   -244984.20114     -4552.45914        28.70014
C29  21603311.03914   -575588.26514     -2133.09614        28.10014
C30  25125698.24124                     -4197.34824        24.60024
R10  19800393.97214    138785.88614       613.79214        24.70014
> 2025 05 03 08 40 04.9999999  0 15                      
G28  22381044.92526  -1129106.58526     -4117.50626        38.30026
G18  21049870.17825    129343.36325       370.77025        35.10025
G31  21517133.29925   -742103.16025     -2759.58525        33.70025
G16  22855803.15714     60606.65214      1884.29714        29.40014
G29  21370063.51314   -888365.05114     -3234.08014        28.60014
G05  23486596.16814   -167153.52514      -706.57114        26.70014
G26  21096636.60214    191940.07514       606.33314        26.30014
G20  24731420.49413    -90264.54313     -3020.88813        22.50013
C26  23185067.91126 -31101219.73526       571.46326        35.60026
C35  23168044.19725    297536.88625      1032.54625        32.30025
R09  19447277.43025   -729735.14725     -3032.95225        32.50025
C36  25049631.30114   -249529.21714     -4551.18514        28.60014
C29  21603406.97314   -577719.85314     -2138.30714        28.00014
C30  25126174.61114     -4189.74414     -4195.51414        24.70014
R10  19799955.67614    139439.52014       605.28014        24.60014
> 2025 05 03 08 40 05.9999999  0 15                      
G28  22381587.54926  -1133218.70526     -4118.31626        38.30026
G18  21049557.79425    129719.81625       370.28825        35.00025
G31  21517426.19625   -744857.15125     -2760.19125        33.80025
G16  22855214.96415     62495.02415      1881.52515        29.50015
G29  21370432.85714   -891593.21414     -3233.89814        28.40014
G05  23486490.34114   -167851.24214      -702.98814        26.60014
G26  21096292.74014    192555.19214       609.74514        26.20014
G20  24731748.16713    -93277.58113     -3018.01313        22.40013
C26  23184722.55126 -31100642.53626       571.20426        35.50026
C35  23167603.50225    298575.09825      1032.20725        32.40025
R09  19447600.90625   -732728.68625     -3033.63725        32.40025
C36  25050272.25714   -254072.92814     -4548.88414        28.50014
C29  21603584.74914   -579854.07114     -2141.35914        27.90014
R10  19799597.42414    140086.32614       592.52214        24.50014
C30  25126776.89414     -8375.73514     -4189.93914        24.60014
> 2025 05 03 08 40 06.9999999  0 15                      
G28  22382135.87026  -1137331.12926     -4118.43626        38.20026
G18  21049252.00625    130095.67125       369.69125        34.90025
G31  21517713.69725   -747611.66825     -2760.64125        33.80025
G16  22854621.37515     64384.10815      1883.57515        29.80015
G29  21370817.19114   -894823.07014     -3236.56214        28.10014
G05  23486383.91514   -168547.34814      -701.16314        26.60014
G26  21095940.48414    193172.35614       612.32414        26.00014
G20  24732079.73713    -96289.30013     -3016.92113        22.30013
C26  23184374.19226 -31100065.92126       570.51226        35.50026
C35  23167165.80525    299613.09125      1032.07325        32.50025
R09  19447938.17315   -735796.33915     -3034.58415        32.40015
C36  25050906.01914   -258614.14514     -4545.77514        28.50014
C29  21603759.22914   -581983.43514     -2132.74614        27.90014
R10  19799254.76114    140649.23514       588.67714        24.30014
C30  25127347.10014    -12559.23114     -4188.05614        24.40014
> 2025 05 03 08 40 08.0000000  0 15                      
G28  22382713.57026  -1141443.91326     -4118.82526        38.10026
G18  21048975.29825    130471.06825       369.30425        34.80025
G31  21518032.67625   -750366.92225     -2761.48425        33.80025
G16  22854046.97315     66273.02515      1882.96915        29.80015
G29  21371230.00514   -898055.42014     -3239.45814        27.90014
G05  23486310.46614   -169242.98014      -701.25814        26.50014
G26  21095616.40914    193792.25714       615.40514        25.90014
G20  24732452.08013    -99298.73913     -3014.15913        22.20013
C26  23184052.21526 -31099489.58926       570.37926        35.50026
C35  23166760.78525    300650.71625      1031.63025        32.60025
R09  19448311.11415   -738893.78915     -3032.84615        32.30015
C36  25051570.35914   -263156.32714     -4548.47214        28.90014
C29  21603959.49014   -584113.84814     -2136.74514        27.90014
R10  19798918.09414    141338.76314       593.59114        24.20014
C30  25127949.08314    -16744.14314     -4191.42614        24.00014
> 2025 05 03 08 40 09.0000001  0 15                      
G28  22383267.28726  -1145557.19826     -4119.34026        38.10026
G18  21048670.40925    130845.65125       368.36825        34.60025
G31  21518330.96925   -753122.89625     -2762.14025        33.80025
G16  22853461.17815     68162.75015      1884.31915        29.90015
G29  21371610.74214   -901290.57814     -3242.36814        27.80014
G05  23486216.03114   -169941.48614      -705.75114        26.40014
G26  21095265.95114    194412.00614       613.86514        25.80014
G20  24732788.44713   -102311.23813     -3019.83613        22.10013
C26  23183720.04526 -31098913.88826       569.63126        35.60026
C35  23166338.37825    301687.99125      1031.34425        32.60025
R09  19448628.29515   -741791.09415     -3036.27015        32.20015
C36  25052216.11214   -267697.07014     -4545.77514        29.10014
C29  21604139.36614   -586246.94114     -2140.18814        27.90014
R10  19798581.42714    141932.91214       595.64914        24.10014
C30  25128511.79314    -20935.27014     -4199.98714        23.80014
> 2025 05 03 08 40 10.0000001  0 15                      
G28  22383815.00726  -1149670.86826     -4119.74026        38.00026
G18  21048367.91825    131219.80425       368.05625        34.50025
G31  21518614.57325   -755879.29725     -2762.49325        33.80025
G16  22852866.69015     70052.67315      1884.13915        29.90015
G29  21371991.77814   -904521.60514     -3234.84114        27.70014
G05  23486106.00714   -170642.75414      -708.53014        26.40014
G26  21094924.78714    195033.80614       616.94214        25.80014
G20  24733129.31113   -105323.92913     -3018.66713        21.90013
C26  23183371.38626 -31098338.34326       569.63726        35.70026
C35  23165901.28025    302725.10625      1031.20625        32.90025
R09  19448963.46315   -744846.52215     -3035.65915        32.00015
C36  25052850.17314   -272237.51714     -4546.12414        29.30014
C29  21604320.14014   -588381.76014     -2141.50814        28.10014
R10  19798239.36414    142492.01214       593.54614        24.10014
C30  25129082.59814    -25131.83114     -4205.10214        23.70014
> 2025 05 03 08 40 10.9999998  0 15                      
G28  22384273.39026  -1153785.06626     -4120.32226        38.00026
G18  21047970.99325    131593.18625       367.13225        34.40025
G31  21518812.43625   -758636.49325     -2763.45625        33.80025
G16  22852176.56715     71941.96715      1883.11415        29.90015
G29  21372270.88514   -907752.58514     -3236.81614        27.60014
G05  23485908.14414   -171341.13814      -702.80514        26.40014
G26  21094468.50314    195653.96614       613.47614        25.80014
G20  24733385.33413   -108334.51913     -3015.39913        21.80013
C26  23182930.99126 -31097763.58026       568.56326        35.90026
C35  23165371.54725    303761.52425      1030.25725        32.90025
R09  19449222.78315   -747977.59115     -3039.04315        31.90015
C36  25053399.09314   -276780.49314     -4550.04514        29.30014
C29  21604400.18514   -590515.05814     -2138.34514        28.40014
R10  19797802.26714    143079.32514       593.20014        24.10014
C30  25129557.76914    -29327.38114     -4200.85214        23.60014
