     4.01           OBSERVATION DATA    M                   RINEX VERSION / TYPE
GnssLogger          samsung 13          20250507 105633 UTC PGM / RUN BY / DATE
Google GnssLogger                                           MARKER NAME
Unknown                                                     MARKER NUMBER
Unknown             Unknown                                 OBSERVER / AGENCY
Unknown             GnssLogger          v3.1.0.4            REC # / TYPE / VERS
Unknown             Unknown                                 ANT # / TYPE
        0.0000        0.0000        0.0000                  ANTENNA: DELTA H/E/N
G    4 C1C L1C D1C S1C                                      SYS / # / OBS TYPES
R    4 C1C L1C D1C S1C                                      SYS / # / OBS TYPES
C    4 C2C L2C D2C S2C                                      SYS / # / OBS TYPES
  2025    05    07    10    56   33.0000000     GPS         TIME OF FIRST OBS
 1 R15  0                                                   GLONASS SLOT / FRQ #
samsung SM-A515F (Android 13) HW Year: 2016 HW Model:       COMMENT
S.LSI,K102                                                  COMMENT
                                                            END OF HEADER
> 2025 05 07 10 56 33.9999999  0 8                      
G10  22124006.46926      7835.04026      1298.93126        35.70026
G27  20501881.94215      1088.48215       178.01815        30.70015
G23  21287382.55214     -7571.91614     -1271.56114        29.10014
G26  22070825.08614    -24973.16814     -4171.27114        27.80014
G08  23012826.05214     10563.03514      1759.23714        26.50014
G16  20530677.60814    -14969.61114     -2504.73414        25.30014
C37  23551644.83614    -15185.93914     -2540.95314        28.70014
R15  19924732.29514    -13477.22014     -2211.50914        28.90014
> 2025 05 07 10 56 35.0000000  0 8                      
G10  22123555.28126      9139.48426      1298.34326        35.80026
G27  20501648.70415      1266.55615       169.68115        30.60015
G23  21287424.82214     -8835.51714     -1268.44714        29.10014
G26  22071400.98714    -29135.29014     -4166.93314        27.80014
G08  23012270.53714     12324.48014      1754.51314        26.70014
G16  20530936.92814    -17470.29814     -2507.55314        25.40014
C37  23551921.24414    -17722.86414     -2544.20914        28.70014
R15  19924926.26114    -15620.34314     -2216.04314        28.80014
> 2025 05 07 10 56 36.0000000  0 8                      
G10  22123069.31826     10443.56526      1298.03626        35.90026
G27  20501376.19315      1443.52215       170.54915        30.40015
G23  21287436.21514    -10099.15614     -1269.52014        29.00014
G26  22071951.10614    -33296.92514     -4167.25014        27.80014
G08  23011704.52814     14084.88814      1754.02514        27.20014
G16  20531175.56314    -19968.55314     -2502.90214        25.70014
C37  23552175.46814    -20259.06614     -2541.64814        28.70014
R15  19925089.94714    -17761.17714     -2224.17414        28.70014
> 2025 05 07 10 56 37.0000000  0 8                      
G10  22122574.36026     11747.17826      1297.51426        36.00026
G27  20501100.68315      1621.93115       173.26715        30.40015
G23  21287438.61314    -11361.86214     -1268.10214        29.10014
G26  22072513.51714    -37460.09114     -4169.79114        27.90014
G08  23011138.22014     15845.20814      1754.41114        27.40014
G16  20531420.49314    -22465.13214     -2501.60214        25.70014
C37  23552423.39714    -22791.78414     -2536.78514        28.90014
R15  19925262.32814    -19949.41014     -2220.33714        28.60014
> 2025 05 07 10 56 38.0000000  0 8                      
G10  22122104.88526     13050.44026      1297.16926        36.10026
G27  20500845.26015      1806.67015       181.98515        30.30015
G23  21287472.48915    -12627.34315     -1272.78615        29.50015
G26  22073089.11814    -41624.35214     -4170.72414        28.10014
G08  23010575.51014     17607.75114      1757.73514        27.40014
G16  20531680.41314    -24965.11814     -2507.60614        26.00014
C37  23552693.21015    -25324.54415     -2538.64315        30.10015
R15  19925455.39414    -22150.60414     -2221.09314        28.50014
> 2025 05 07 10 56 39.0000000  0 8                      
G10  22121622.22026     14353.38026      1296.93126        36.20026
G23  21287476.68715    -13894.81015     -1274.30415        30.10015
G27  20500582.34215      1985.14815       169.50315        30.20015
G26  22073650.03014    -45788.00214     -4169.18714        28.30014
G08  23009999.90914     19379.57114      1770.61114        27.30014
G16  20531918.74814    -27462.43214     -2501.82114        26.40014
C37  23552944.43615    -27858.71615     -2540.66715        30.50015
R15  19925642.46514    -24416.82714     -2216.86714        28.40014
> 2025 05 07 10 56 40.0000000  0 9                      
G10  22121139.55426     15655.85626      1296.38026        36.40026
G23  21287478.78515    -15159.89615     -1269.75715        30.50015
G27  20500305.63415      2163.35815       172.21215        30.20015
G26  22074205.24614    -49951.68914     -4169.56514        28.40014
G16  20532150.48814    -29961.77414     -2506.21714        26.90014
G08  23009412.31514     21154.34514      1770.38714        27.20014
C37  23553192.06415    -30392.83615     -2539.90215        31.00015
R15  19925806.15114    -26557.65914     -2225.91414        28.50014
C14  25392211.33814      3794.10114       760.73414        25.10014
> 2025 05 07 10 56 41.0000001  0 8                      
G10  22120687.46726     16957.93226      1296.01226        36.70026
G23  21287515.06015    -16427.00715     -1273.98615        30.80015
G27  20500054.70715      2341.21215       171.81315        30.10015
G26  22074785.34414    -54114.76014     -4168.62314        28.80014
G16  20532421.20114    -32459.43714     -2502.68514        27.00014
C37  23553469.97215    -32928.41815     -2542.12215        31.80015
R15  19926025.30014    -28835.34614     -2220.55514        28.50014
C14  25391837.49714      4562.27214       762.36014        24.60014
> 2025 05 07 10 56 41.9999998  0 8                      
G10  22120111.56526     18259.45526      1295.38326        37.10026
G23  21287436.51415    -17694.51315     -1273.56515        31.10015
G27  20499689.56015      2517.51115       169.65815        30.10015
G26  22075250.32214    -58280.48314     -4172.90814        29.30014
G16  20532562.70314    -34959.92514     -2507.76114        27.00014
C37  23553631.26015    -35463.96015     -2541.32915        32.50015
R15  19926099.94814    -30981.52914     -2219.01414        28.40014
C14  25391353.63214      5334.39014       768.28114        24.20014
> 2025 05 07 10 56 43.0000001  0 8                      
G10  22119734.42726     19560.67126      1295.14326        37.40026
G23  21287550.73515    -18963.53515     -1275.69715        31.40015
G27  20499539.06415      2694.37915       171.23415        30.00015
G26  22075912.86415    -62446.53415     -4172.13115        29.60015
G16  20532917.05714    -37462.01814     -2508.81214        27.40014
C37  23553991.01125    -37999.91825     -2542.02925        32.80025
R15  19926435.41614    -33463.33414     -2224.86814        28.30014
C14  25391066.43014      6109.66714       770.99214        23.80014
> 2025 05 07 10 56 43.9999998  0 8                      
G10  22119164.22126     20861.46626      1294.73826        37.40026
G23  21287464.09515    -20233.48115     -1276.25315        31.80015
G27  20499177.81515      2868.82915       167.39715        30.00015
G26  22076378.44115    -66612.87115     -4172.32215        29.80015
G16  20533072.35014    -39965.37614     -2509.83414        27.70014
C37  23554150.50125    -40536.51325     -2542.70325        32.80025
R15  19926497.17314    -35540.70614     -2230.91414        28.20014
C14  25390584.66413      6887.88713       773.89813        23.40013
> 2025 05 07 10 56 44.9999999  0 9                      
G10  22118708.23726     22161.84226      1294.30326        37.40026
G23  21287499.77115    -21504.52715     -1277.45815        32.10015
G26  22076971.73115    -70779.79515     -4173.07715        30.30015
G27  20498937.68115      3042.47915       167.38615        30.00015
G16  20533340.06414    -42469.16214     -2509.86014        28.20014
G08  23006548.39813     30026.62313      1749.50113        20.70013
C37  23554425.71025    -43073.60425     -2543.14725        32.80025
R15  19926697.73414    -37718.23014     -2227.53914        28.10014
C14  25390230.60913      7670.65013       779.22413        22.90013
> 2025 05 07 10 56 45.9999999  0 10                      
G10  22118227.96926     23461.48526      1293.41126        37.30026
G23  21287503.66825    -22775.71825     -1277.12525        32.10025
G26  22077530.54415    -74950.02815     -4177.74715        30.30015
G27  20498658.57415      3218.87015       171.89715        30.00015
G16  20533582.89614    -44974.31714     -2511.70214        28.60014
G08  23005977.29313     31782.01513      1746.34813        20.40013
C33  25459789.95415 -31209113.63115      1829.89315        32.40015
C37  23554676.63725    -45611.23825     -2543.71225        32.70025
R15  19926865.01814    -39878.94014     -2225.42114        28.00014
C14  25389848.37413      8454.50413       778.59013        22.50013
> 2025 05 07 10 56 46.9999999  0 10                      
G10  22117744.70426     24760.71126      1293.15426        37.20026
G23  21287514.46025    -24047.68025     -1278.21025        32.10025
G26  22078090.55615    -79117.31615     -4171.67615        30.60015
G27  20498393.85715      3396.58215       172.51115        29.90015
G16  20533831.12514    -47477.54614     -2508.12614        29.10014
G08  23005410.68613     33531.10913      1740.07913        20.40013
C33  25459196.96525 -31207279.52725      1828.29225        33.20025
C37  23554927.26325    -48149.66625     -2544.63325        32.70025
R15  19927060.78314    -42191.80414     -2225.89014        27.80014
C14  25389465.23913      9238.91913       778.88413        22.10013
> 2025 05 07 10 56 47.9999999  0 10                      
G26  22078646.37116    -83285.33116     -4174.23816        37.50016
G10  22117253.64426     26059.33326      1292.45626        37.10026
G23  21287514.46015    -25320.36815     -1278.91315        32.10015
G16  20534067.06115    -49983.03915     -2512.48715        29.50015
G27  20498123.74415      3571.81115       168.12315        29.80015
G08  23004838.38213     35279.17713      1741.69113        20.30013
C33  25458608.17225 -31205445.63225      1827.97925        33.50025
C37  23555179.38925    -50688.48025     -2544.81625        32.60025
R15  19927231.36514    -44370.86114     -2228.57214        27.70014
C14  25389078.80613     10023.61013       779.01913        21.70013
> 2025 05 07 10 56 49.0000000  0 9                      
G26  22079227.36926    -87453.14026     -4173.56626        40.30026
G10  22116796.46026     27357.98226      1292.79726        37.10026
G16  20534333.57715    -52489.95015     -2513.48015        29.80015
G27  20497890.50615      3745.58615       167.18515        29.70015
G08  23004291.26113     37028.12513      1743.52413        20.20013
C33  25458044.26325 -31203611.60925      1828.27525        33.50025
C37  23555460.59425    -53228.13825     -2545.88825        32.60025
R15  19927418.73514    -46480.34614     -2233.12414        27.60014
C14  25388710.96113     10808.78413       779.60413        21.30013
> 2025 05 07 10 56 49.9999999  0 10                      
G26  22079765.49626    -91621.47526     -4174.51426        40.30026
G10  22116300.30426     28655.75126      1291.41126        37.00026
G16  20534570.71315    -54996.24915     -2511.91015        29.90015
G27  20497608.70115      3919.71115       168.38215        29.70015
G23  21287528.25115    -27865.12515     -1277.89515        31.10015
G08  23003704.86713     38785.72013      1755.99713        20.70013
C33  25457444.67825 -31201777.96125      1827.59525        33.50025
C37  23555693.23325    -55768.05925     -2545.91525        32.50025
R15  19927612.10114    -48840.57414     -2233.36614        27.50014
C14  25388304.74213     11592.60513       777.27913        20.90013
> 2025 05 07 10 56 51.0000000  0 10                      
G26  22080354.58926    -95790.61426     -4175.38226        40.60026
G10  22115851.51516     29953.11116      1290.55916        36.80016
G16  20534841.12515    -57503.03815     -2512.87715        29.90015
G27  20497372.16515      4090.83415       163.77615        29.70015
G23  21287562.12715    -29139.10015     -1280.71815        29.80015
G08  23003166.13913     40549.61513      1761.20013        20.70013
C33  25456878.67015 -31199946.37215      1824.76615        33.40015
C37  23555971.14125    -58308.86125     -2547.03325        32.40025
R15  19927824.95414    -51086.91714     -2229.68014        27.50014
C14  25387934.79813     12377.04713       778.96113        20.60013
> 2025 05 07 10 56 51.9999999  0 10                      
G26  22080896.91326    -99960.07826     -4175.54126        40.60026
G10  22115360.75416     31247.51116      1287.25116        36.60016
G16  20535072.26515    -60011.98315     -2515.93915        29.90015
G27  20497095.75615      4259.01815       160.79715        29.60015
G23  21287549.23614    -30414.21614     -1281.60314        28.70014
G08  23002568.35313     42315.12513      1760.39813        20.70013
C33  25456282.68215 -31198116.23415      1823.54715        33.30015
C37  23556213.07325    -60850.12825     -2547.36025        32.30025
R15  19928016.82114    -53439.50414     -2231.76214        27.60014
C14  25387529.17913     13164.64713       783.31313        20.30013
> 2025 05 07 10 56 52.9999999  0 10                      
G26  22081454.52726   -104130.38626     -4176.57126        40.70026
G10  22114874.19116     32540.74616      1286.80716        36.40016
G16  20535307.30315    -62521.17515     -2515.15915        30.20015
G27  20496813.65115      4428.84015       164.79515        29.50015
G23  21287560.92814    -31692.52614     -1285.75114        27.60014
G08  23001999.64713     44079.87213      1758.51913        20.60013
C33  25455694.48915 -31196284.50615      1826.73015        33.20015
C37  23556466.99725    -63392.25325     -2548.34425        32.20025
R15  19928173.31314    -55543.63314     -2235.61914        27.70014
C14  25387138.25013     13956.83213       788.68513        20.00013
> 2025 05 07 10 56 54.0000000  0 9                      
G26  22082040.32226   -108301.44326     -4177.29326        40.70026
G10  22114417.90716     33835.65816      1289.88616        36.30016
G16  20535575.61715    -65032.15915     -2517.74115        30.50015
G23  21287608.29514    -32974.23314     -1289.26814        26.80014
G08  23001461.22013     45842.67613      1755.96813        20.80013
C33  25455130.88015 -31194452.64815      1826.11215        33.10015
C37  23556752.40015    -65935.30915     -2549.33015        32.20015
R15  19928378.07114    -57744.86314     -2232.92214        27.70014
C14  25386771.90413     14752.69413       791.89113        19.80013
> 2025 05 07 10 56 55.0000000  0 10                      
G26  22082599.73426   -112473.16026     -4177.90726        40.70026
G10  22113937.64026     35129.77726      1287.85826        36.10026
G16  20535810.35415    -67543.91115     -2517.99715        30.80015
G27  20496305.20314      4780.74814       174.76014        28.70014
G23  21287611.89314    -34253.74514     -1284.27614        26.10014
G08  23000884.41913     47602.15013      1751.94313        21.30013
C37  23557002.12725    -68479.10625     -2549.97525        32.50025
C33  25454548.08325 -31192621.16225      1825.48825        33.00025
R15  19928556.74714    -59965.98114     -2235.60214        27.70014
C14  25386377.67613     15553.34513       797.23313        19.50013
> 2025 05 07 10 56 56.0000000  0 10                      
G26  22083174.73626   -116645.56626     -4178.66526        40.70026
G10  22113478.35726     36423.06226      1286.95026        36.00026
G16  20536067.57615    -70056.32015     -2518.65315        31.10015
G27  20496051.57914      4958.06414       170.91114        27.70014
G23  21287628.38214    -35533.39314     -1285.63314        25.60014
G08  23000332.80113     49358.52513      1748.90713        21.50013
C37  23557273.73925    -71023.78625     -2550.98525        32.60025
C33  25453972.78125 -31190790.12325      1824.95025        32.90025
R15  19928730.62714    -62065.48714     -2243.08314        27.60014
C14  25386010.13113     16355.15813       796.53013        19.30013
> 2025 05 07 10 56 57.0000000  0 10                      
G26  22083731.75126   -120818.77826     -4179.45626        40.70026
G10  22112992.69426     37715.64326      1286.38226        35.80026
G16  20536314.90515    -72569.26315     -2519.05315        31.30015
G27  20495784.46414      5126.88514       158.72814        26.90014
G23  21287640.67314    -36815.14814     -1288.65214        25.20014
G08  22999769.19113     51112.27713      1746.59513        21.70013
C37  23557523.76625    -73569.43425     -2551.92125        32.60025
C33  25453378.89215 -31188959.79015      1824.18615        32.70015
R15  19928914.40014    -64314.12114     -2240.05714        27.50014
C14  25385618.30213     17160.30113       801.01513        19.00013
> 2025 05 07 10 56 58.0000000  0 9                      
G26  22084289.66426   -124992.57226     -4179.94526        40.70026
G10  22112502.53326     39007.40626      1285.49026        35.70026
G16  20536565.23215    -75082.63715     -2519.45015        31.30015
G27  20495517.94814      5292.75314       158.52814        26.40014
G23  21287655.96214    -38097.73214     -1288.86014        24.90014
G08  22999193.59013     52867.60013      1750.24313        21.80013
C37  23557779.78825    -76115.72025     -2552.41225        32.90025
C33  25452790.99915 -31187129.75415      1824.07715        32.60015
R15  19929111.06414    -66632.33714     -2239.50914        27.30014
> 2025 05 07 10 56 59.0000000  0 9                      
G26  22084846.37926   -129167.24726     -4180.97626        40.70026
G10  22112017.46926     40298.15626      1284.37826        35.60026
G16  20536808.36315    -77597.03715     -2520.77515        31.30015
G27  20495257.12914      5456.54714       156.89414        26.10014
G23  21287657.76114    -39379.67914     -1287.49114        24.70014
G08  22998624.58413     54623.42513      1750.21113        21.80013
C37  23558031.01425    -78663.07025     -2553.69125        33.00025
C33  25452209.40225 -31185300.21725      1823.47625        32.40025
R15  19929320.01914    -69015.54314     -2247.42914        27.20014
> 2025 05 07 10 57 00.0000000  0 9                      
G26  22085425.57826   -133342.53426     -4181.50826        40.60026
G10  22111560.58526     41588.27726      1283.88826        35.50026
G16  20537066.78515    -80111.59915     -2520.55915        31.20015
G27  20495007.40214      5623.15314       162.09414        26.00014
G23  21287688.64014    -40662.13214     -1288.62314        24.50014
G08  22998075.36413     56382.10013      1754.18113        22.30013
C37  23558298.72925    -81211.19125     -2554.36925        33.00025
C33  25451636.79825 -31183471.17525      1822.92825        32.20025
R15  19929566.14814    -71498.87014     -2241.72114        27.00014
> 2025 05 07 10 57 01.0000000  0 9                      
G26  22085982.89226   -137518.68526     -4182.42526        40.60026
G10  22111080.91725     42877.57525      1283.04125        35.40025
G16  20537297.32515    -82632.19015     -2529.44715        31.10015
G27  20494741.78514      5787.78814       157.80414        26.30014
G23  21287694.63614    -41944.57714     -1288.28514        24.40014
G08  22997517.75013     58138.17413      1748.92713        22.80013
C37  23558553.25325    -83760.17425     -2555.20425        33.00025
C33  25451043.50925 -31181642.96225      1822.00525        32.10025
R15  19929737.33014    -73680.98814     -2242.86314        26.80014
> 2025 05 07 10 57 02.0000001  0 9                      
G26  22086571.98426   -141695.25326     -4182.63626        40.50026
G10  22110631.52825     44166.11425      1282.29625        35.40025
G16  20537574.63315    -85152.40215     -2525.88515        31.00015
G27  20494504.94914      5953.60214       160.54014        26.80014
G23  21287730.31114    -43227.90014     -1289.62414        24.30014
G08  22996984.71913     59893.80313      1749.54113        23.20013
C37  23558831.76025    -86310.10825     -2556.21725        32.90025
C33  25450487.99425 -31179814.73725      1822.41925        31.90025
R15  19929900.71714    -75659.72014     -2234.08214        26.60014
> 2025 05 07 10 57 02.9999998  0 9                      
G26  22087040.26026   -145872.81726     -4183.92326        40.50026
G10  22110055.92725     45453.98825      1281.67625        35.30025
G16  20537726.32815    -87667.89415     -2518.99215        30.90015
G27  20494149.09614      6118.24614       158.19514        27.30014
G23  21287647.86814    -44510.55514     -1288.18414        24.20014
G08  22996319.47913     61647.88513      1747.44513        23.30013
C37  23558993.94825    -88860.74325     -2556.79325        32.80025
C33  25449814.06025 -31177987.28725      1821.25125        31.80025
R15  19929974.16614    -77799.78814     -2239.99914        26.40014
> 2025 05 07 10 57 03.9999998  0 9                      
G26  22087623.95626   -150050.78426     -4184.02926        40.40026
G10  22109598.14425     46741.12925      1280.91025        35.30025
G16  20537995.24215    -90186.01215     -2525.29315        30.80015
G27  20493899.96814      6281.96614       157.39414        27.70014
G23  21287683.54314    -45796.83614     -1293.95614        24.10014
G08  22995785.54913     63402.14013      1748.47613        23.40013
C37  23559273.95415    -91412.09015     -2557.51115        32.70015
C33  25449256.14725 -31176160.17325      1821.13525        31.60025
R15  19930203.50714    -80133.29714     -2247.06314        26.10014
> 2025 05 07 10 57 05.0000001  0 9                      
G26  22088259.51626   -154229.34726     -4184.77526        40.30026
G10  22109198.22125     48027.70425      1280.37325        35.20025
G16  20538319.31715    -92705.99115     -2526.82515        30.70015
G27  20493718.59414      6444.62614       156.21214        27.90014
G08  22995296.88714     65154.06214      1744.83714        24.10014
G23  21287778.27814    -47086.71314     -1297.59214        24.00014
C37  23559612.72015    -93964.00615     -2558.06315        32.60015
C33  25448746.49925 -31174333.24025      1820.97725        31.50025
R15  19930446.03914    -82277.91514     -2249.53914        25.80014
> 2025 05 07 10 57 05.9999998  0 9                      
G26  22088727.79226   -158408.30226     -4184.99226        40.20026
G10  22108628.31525     49313.72025      1279.89025        35.10025
G16  20538475.20915    -95229.86615     -2531.66615        30.80015
G27  20493357.34414      6604.15914       152.12414        28.10014
G08  22994640.04214     66905.48714      1745.32914        24.30014
G23  21287705.72814    -48378.22314     -1298.17014        24.00014
C37  23559778.50515    -96517.24615     -2559.69215        32.40015
C33  25448067.76915 -31172506.63315      1820.65115        31.40015
R15  19930551.26614    -84586.19314     -2254.61514        25.60014
> 2025 05 07 10 57 06.9999999  0 9                      
G26  22089316.88426   -162587.47226     -4185.13926        40.20026
G10  22108184.62225     50599.20325      1279.35325        35.00025
G16  20538748.32015    -97751.20715     -2525.93515        30.90015
G27  20493114.21214      6766.07514       157.24414        28.30014
G08  22994105.51214     68658.17414      1747.45414        24.30014
G23  21287751.89614    -49668.34714     -1295.29414        24.00014
C37  23560053.71415    -99072.63815     -2562.27515        32.10015
C33  25447497.26415 -31170677.00315      1825.33015        31.30015
R15  19930749.12914    -86750.72214     -2251.73614        25.40014
> 2025 05 07 10 57 07.9999999  0 9                      
G26  22089873.59926   -166766.90426     -4185.42226        40.10026
G10  22107702.85625     51884.67225      1279.59725        34.90025
G27  20492843.50014      6927.94814       155.98914        29.30014
G16  20538989.35415   -100272.66915     -2527.38315        31.00015
G08  22993525.41414     70412.11214      1748.69814        24.20014
G23  21287759.09114    -50956.23714     -1292.63414        23.90014
C37  23560310.93615   -101625.40715     -2557.26615        31.90015
C33  25446918.36515 -31168850.53515      1819.07615        31.20015
R15  19930949.69114    -89089.58214     -2249.86114        25.50014
> 2025 05 07 10 57 08.9999999  0 9                      
G26  22090433.91126   -170946.73626     -4185.89326        40.10026
G10  22107214.49425     53169.50325      1278.64725        34.80025
G27  20492576.38515      7089.89015       156.11315        33.20015
G16  20539234.28415   -102794.35515     -2527.66015        31.00015
G08  22992948.61314     72169.08014      1752.61914        24.20014
G23  21287778.27814    -52247.43014     -1298.70714        23.90014
C37  23560567.25915   -104179.95315     -2561.24315        31.80015
C33  25446329.27315 -31167024.31315      1820.28815        31.00015
R15  19931120.87214    -91270.93514     -2251.60214        25.70014
> 2025 05 07 10 57 09.9999999  0 9                      
G26  22091008.31326   -175126.72826     -4185.98726        40.00026
G10  22106748.91625     54454.13725      1278.61825        34.70025
G27  20492326.05825      7251.83225       156.02425        33.20025
G16  20539497.80215   -105318.97415     -2532.00115        31.00015
G08  22992387.40114     73929.59514      1756.37014        24.10014
G23  21287816.65114    -53538.68514     -1297.20414        23.80014
C37  23560834.67415   -106735.95515     -2562.59215        32.30015
C33  25445756.66915 -31165202.28115      1814.07115        30.80015
R15  19931340.62014    -93613.58314     -2255.49714        26.00014
> 2025 05 07 10 57 10.9999999  0 9                      
G26  22091567.42626   -179306.82626     -4185.99226        40.00026
G10  22106267.15025     55738.60625      1278.54025        34.60025
G27  20492058.34325      7413.60425       155.84125        33.10025
G16  20539739.13415   -107844.44315     -2531.73715        30.90015
G08  22991807.90314     75691.82514      1757.24114        24.00014
G23  21287819.64914    -54826.13214     -1291.38614        23.70014
C37  23561091.89515   -109290.37715     -2559.42315        32.80015
C33  25445179.26915 -31163377.93115      1819.71615        30.40015
R15  19931521.39514    -95847.68914     -2254.40214        26.30014
> 2025 05 07 10 57 11.9999999  0 9                      
G26  22092125.93926   -183487.22326     -4186.40626        39.90026
G10  22105783.88425     57022.64125      1277.95325        34.60025
G27  20491790.92825      7575.08525       155.47325        33.00025
G16  20539978.06915   -110369.68315     -2530.98615        30.80015
G08  22991240.09614     77452.82314      1754.51814        24.00014
G23  21287832.54014    -56114.64214     -1294.90414        23.70014
C37  23561342.82225   -111845.22125     -2560.86225        33.10025
C33  25444592.87515 -31161551.58515      1821.53215        30.80015
R15  19931696.17414    -98048.15614     -2249.44014        26.40014
> 2025 05 07 10 57 13.0000000  0 9                      
G26  22092715.93126   -187667.96626     -4186.77726        39.90026
G10  22105337.79325     58306.41525      1277.77925        34.50025
G27  20491561.58725      7736.32525       155.25525        33.00025
G16  20540255.37715   -112894.39115     -2530.30415        30.80015
G08  22990703.46714     79207.93714      1746.30714        23.90014
G23  21287874.81114    -57402.17514     -1292.90814        23.70014
C37  23561629.12425   -114400.50225     -2561.30825        33.20025
C33  25444035.56115 -31159725.22815      1820.55115        31.10015
R15  19931942.60314   -100471.88814     -2258.89514        26.40014
> 2025 05 07 10 57 14.0000000  0 9                      
G26  22093276.24326   -191848.85326     -4186.81826        39.80026
G10  22104850.63025     59589.84925      1277.39925        34.50025
G27  20491289.37625      7897.34825       155.05125        33.00025
G16  20540497.90915   -115420.31715     -2532.39715        30.80015
G08  22990144.65414     80959.31014      1743.63814        23.90014
G23  21287885.90314    -58694.55314     -1300.66114        23.60014
C37  23561882.44825   -116956.19425     -2561.70625        33.50025
C33  25443444.67015 -31157899.32415      1819.86715        31.30015
R15  19932074.51214   -102442.97814     -2260.45414        26.50014
> 2025 05 07 10 57 15.0000000  0 9                      
G26  22093853.34426   -196029.90326     -4187.04826        39.80026
G10  22104388.05125     60872.86625      1276.89025        34.50025
G27  20491044.44525      8057.86425       154.34425        32.90025
G16  20540757.52915   -117945.15215     -2530.20615        30.80015
G08  22989581.04414     82712.51914      1748.20714        23.90014
G23  21287905.09014    -59987.98314     -1299.87314        23.60014
C37  23562155.55925   -119512.07525     -2561.83825        34.00025
C33  25442882.25915 -31156072.17315      1821.90815        31.50015
R15  19932304.75314   -104842.20314     -2259.76714        26.60014
> 2025 05 07 10 57 16.0000000  0 9                      
G26  22094415.15526   -200211.29226     -4187.39926        39.70026
G10  22103910.48125     62155.66925      1276.84925        34.40025
G27  20490777.33025      8218.49825       154.84825        32.80025
G16  20541005.15815   -120470.09415     -2530.83715        30.90015
G08  22989014.43614     84469.51914      1753.05014        23.80014
G23  21287915.28314    -61279.53014     -1296.45014        23.50014
C37  23562405.58625   -122068.63125     -2562.68325        34.30025
C33  25442293.46715 -31154244.53915      1822.08215        31.50015
R15  19932505.01414   -107178.76514     -2260.65414        26.60014
> 2025 05 07 10 57 17.0000000  0 8                      
G26  22094976.66626   -204393.01826     -4187.75526        39.60026
G10  22103422.71925     63438.07925      1276.34925        34.40025
G27  20490505.11825      8378.51225       153.84125        32.80025
G16  20541244.69215   -122992.81515     -2527.47215        30.90015
G08  22988433.13914     86223.60014      1746.75714        23.80014
C37  23562661.90925   -124625.29225     -2562.52225        34.30025
C33  25441706.47315 -31152416.06715      1823.08115        31.50015
R15  19932694.48314   -109457.98814     -2256.77314        26.60014
> 2025 05 07 10 57 18.0000000  0 8                      
G26  22095528.88426   -208574.81626     -4187.69426        39.50026
G10  22102945.74925     64720.19425      1276.10225        34.40025
G27  20490243.69925      8538.42325       153.99625        32.70025
G16  20541487.22415   -125521.27215     -2537.18715        30.90015
G08  22987864.13314     87973.46214      1741.88814        23.80014
C37  23562918.23125   -127182.38925     -2563.12225        34.30025
C33  25441116.18215 -31150590.31315      1818.58315        31.50015
R15  19932842.58014   -111517.00514     -2257.53314        26.50014
> 2025 05 07 10 57 19.0000001  0 8                      
G26  22096119.17526   -212757.07126     -4188.34326        39.40026
G10  22102491.86325     66001.90825      1275.65025        34.40025
G27  20490003.86525      8697.95625       153.48125        32.60025
G16  20541763.63315   -128049.40415     -2533.83115        31.00015
G08  22987320.01014     89722.21414      1742.33214        23.90014
C37  23563200.63625   -129740.12525     -2563.86425        34.30025
C33  25440558.26815 -31148763.95415      1820.85115        31.50015
R15  19933084.51314   -113918.56114     -2263.50614        26.50014
> 2025 05 07 10 57 19.9999998  0 8                      
G26  22096588.95026   -216939.49826     -4188.37426        39.30026
G10  22101921.95825     67283.23525      1275.26825        34.50025
G27  20489654.90725      8857.32025       153.41525        32.60025
G16  20541915.92815   -130579.29115     -2536.62515        31.10015
G08  22986653.57114     91474.99014      1748.92314        24.10014
C37  23563368.81925   -132298.13125     -2563.94925        34.20025
C33  25439879.53815 -31146938.02015      1819.91115        31.60015
R15  19933174.75014   -116147.32014     -2259.89914        26.40014
> 2025 05 07 10 57 21.0000001  0 8                      
G26  22097254.18926   -221122.05426     -4188.53526        39.20026
G10  22101543.32025     68564.23125      1274.91325        34.60025
G27  20489481.92725      9016.36725       152.97225        32.50025
G16  20542266.08515   -133109.54415     -2536.35315        31.10015
G08  22986190.69114     93229.43414      1749.36014        24.10014
C37  23563726.47225   -134856.33025     -2564.15825        34.20025
C33  25439402.26815 -31145110.99015      1821.71115        31.60015
R15  19933458.95414   -118354.62914     -2262.11314        26.40014
> 2025 05 07 10 57 21.9999998  0 9                      
G26  22097723.06526   -225304.86326     -4188.77726        39.10026
G10  22100983.00825     69845.11825      1274.98625        34.60025
G27  20489126.67325      9175.16425       152.82525        32.40025
G16  20542424.97515   -135637.86515     -2533.19715        31.30015
G08  22985543.43914     94984.32214      1749.26314        24.10014
G23  21287904.79013     -1296.95713     -1300.64913        19.60013
C37  23563892.85625   -137415.08725     -2564.82625        34.10025
C33  25438725.93615 -31143284.65615      1820.19415        31.80015
R15  19933547.39214   -120574.97614     -2261.01614        26.40014
> 2025 05 07 10 57 22.9999999  0 8                      
G26  22098311.55726   -229487.99626     -4189.15526        39.00026
G10  22100533.91925     71125.67125      1274.52125        34.60025
G27  20488888.03825      9333.79725       152.68925        32.20025
G16  20542699.88515   -138166.63715     -2534.85915        31.30015
G08  22985008.31014     96739.74814      1749.83014        24.10014
C37  23564174.96125   -139974.21525     -2565.12225        34.00025
C33  25438168.02315 -31141458.42515      1820.36815        32.10015
R15  19933772.53614   -122884.77714     -2249.17814        26.30014
> 2025 05 07 10 57 23.9999999  0 8                      
G26  22098867.67226   -233671.42626     -4189.43926        38.80026
G10  22100051.85225     72405.69525      1273.89625        34.50025
G27  20488618.22525      9491.96125       152.06625        32.10025
G16  20542946.61415   -140696.48815     -2536.25215        31.30015
G08  22984445.59914     98496.69914      1751.84914        24.10014
C37  23564429.78525   -142533.72725     -2565.51225        34.00025
C33  25437578.03125 -31139632.25325      1820.33125        32.10025
R15  19933991.68514   -125321.50714     -2256.68814        26.20014
> 2025 05 07 10 57 24.9999998  0 8                      
G26  22099413.29526   -237854.95126     -4189.48626        38.70026
G10  22099556.29625     73685.48725      1273.75725        34.50025
G27  20488343.61515      9650.05815       152.14515        32.00015
G16  20543178.05415   -143227.35115     -2537.28515        31.40015
G08  22983859.80514    100253.00314      1750.06214        24.10014
C37  23564677.41325   -145093.47525     -2565.72725        34.00025
C33  25436979.34625 -31137806.16525      1820.17925        32.10025
R15  19934133.48714   -127409.55014     -2267.99714        26.00014
> 2025 05 07 10 57 25.9999999  0 8                      
G26  22100006.58426   -242038.85026     -4189.92826        38.50026
G10  22099100.91125     74964.98925      1273.51025        34.40025
G16  20543450.56515   -145758.52415     -2537.17115        31.50015
G27  20488109.17715      9808.62715       152.95915        31.90015
G08  22983324.07614    102009.80514      1751.20414        24.10014
C37  23564960.41725   -147653.82425     -2566.44025        34.20025
C33  25436422.33125 -31135980.17125      1820.15425        32.20025
R15  19934343.64114   -129639.06914     -2273.55414        25.80014
> 2025 05 07 10 57 26.9999999  0 8                      
G26  22100565.69726   -246222.95526     -4190.06926        38.40026
G10  22098623.34125     76244.01025      1272.91725        34.30025
G16  20543698.19415   -148290.01415     -2537.51015        31.60015
G27  20487839.96415      9967.21615       152.73615        31.80015
G08  22982752.07214    103765.63314      1749.47614        24.00014
C37  23565214.04225   -150214.51525     -2566.66925        34.30025
C33  25435834.43825 -31134154.07225      1820.34125        32.60025
R15  19934536.10814   -131934.34614     -2265.41514        25.60014
> 2025 05 07 10 57 27.9999999  0 8                      
G26  22101122.41126   -250407.44326     -4190.53926        38.20026
G10  22098144.27325     77522.60925      1272.52325        34.30025
G16  20543950.01915   -150823.14115     -2539.80615        31.70015
G27  20487563.85515     10124.72415       151.10515        31.70015
G08  22982179.16814    105522.47814      1751.48914        24.00014
C37  23565470.36425   -152775.71825     -2567.26825        34.50025
C33  25435248.34425 -31132328.31525      1819.77525        32.60025
R15  19934712.98514   -134145.51714     -2264.75214        25.50014
> 2025 05 07 10 57 28.9999999  0 8                      
G26  22101698.61226   -254592.12626     -4190.69626        38.10026
G10  22097682.29325     78801.01825      1272.39625        34.30025
G16  20544208.44015   -153357.09315     -2540.28215        31.90015
G27  20487313.22815     10281.90315       151.09615        31.70015
G08  22981624.25314    107278.20414      1749.24714        24.20014
C37  23565744.67425   -155337.10725     -2567.34525        34.50025
C33  25434677.53925 -31130502.49725      1819.98325        32.60025
R15  19934917.74414   -136409.41114     -2272.79514        25.40014
> 2025 05 07 10 57 29.9999999  0 8                      
G26  22102262.52226   -258777.29326     -4191.24926        37.90026
G10  22097205.92325     80078.82525      1271.65925        34.20025
G16  20544445.27615   -155891.85815     -2541.01315        32.00015
G27  20487055.70615     10437.41615       148.83515        31.60015
G08  22981048.35114    109027.67114      1740.49014        24.50014
C37  23565999.79825   -157899.32325     -2568.41825        34.50025
C33  25434089.94625 -31128676.78425      1819.86625        32.50025
R15  19935107.51214   -138689.39314     -2266.72714        25.30014
> 2025 05 07 10 57 30.9999999  0 8                      
G26  22102819.83626   -262962.59826     -4191.23426        37.80026
G10  22096722.05825     81356.37325      1271.55525        34.30025
G16  20544696.80215   -158427.58315     -2542.06615        32.00015
G27  20486787.39215     10592.80015       149.45715        31.60015
G08  22980473.94914    110772.23214      1736.24414        24.50014
C37  23566251.32425   -160461.74825     -2568.33925        34.50025
C33  25433502.95225 -31126851.17025      1819.75425        32.50025
R15  19935299.97914   -140984.67514     -2267.43614        25.20014
> 2025 05 07 10 57 32.0000000  0 8                      
G26  22103406.23026   -267148.22026     -4191.64126        37.60026
G10  22096275.06725     82633.59125      1271.18825        34.40025
G16  20544973.21115   -160962.60615     -2540.53415        32.00015
G27  20486551.75515     10748.92215       150.62815        31.80015
G08  22979945.11514    112517.16414      1739.25214        24.40014
C37  23566536.72625   -163024.59425     -2568.86525        34.50025
C33  25432940.84125 -31125025.52125      1819.85625        32.40025
R15  19935534.41714   -143344.94114     -2277.37014        25.10014
> 2025 05 07 10 57 33.0000000  0 8                      
G26  22103968.34126   -271334.10326     -4191.87426        37.50026
G10  22095796.89825     83910.47025      1270.84725        34.40025
G16  20545217.24225   -163498.16025     -2541.68125        32.20025
G27  20486294.53315     10906.13615       151.89615        31.80015
G08  22979371.91214    114268.41914      1748.55214        24.30014
C37  23566792.14925   -165587.74425     -2569.10925        34.40025
C33  25432355.94625 -31123199.96925      1819.69025        32.40025
R15  19935706.19814   -145529.35314     -2267.77314        25.00014
> 2025 05 07 10 57 34.0000000  0 8                      
G26  22104551.13826   -275520.27826     -4192.23726        37.40026
G10  22095333.11925     85186.91025      1270.30025        34.40025
G16  20545483.75825   -166034.21825     -2542.22725        32.40025
G27  20486038.81015     11059.77015       145.92515        31.80015
G08  22978820.59414    116023.44814      1750.99814        24.20014
C37  23567063.16225   -168151.54525     -2569.98925        34.40025
C33  25431785.14225 -31121374.59225      1819.42525        32.40025
R15  19935904.36114   -147757.31114     -2278.12514        25.20014
> 2025 05 07 10 57 35.0000000  0 8                      
G26  22105114.44826   -279706.75426     -4192.46826        37.30026
G10  22094845.05725     86462.93125      1269.96725        34.50025
G16  20545734.08425   -168570.90425     -2542.84225        32.50025
G27  20485777.39115     11215.60115       151.08515        31.80015
G08  22978243.79314    117784.63214      1758.41414        24.20014
C37  23567320.08425   -170715.65925     -2570.06225        34.30025
C33  25431199.34725 -31119549.12225      1819.72225        32.50025
R15  19936074.34314   -149932.54314     -2278.17114        25.40014
> 2025 05 07 10 57 36.0000000  0 8                      
G26  22105668.46426   -283893.42426     -4192.62726        37.20026
G10  22094369.28625     87738.71425      1269.79925        34.50025
G16  20545971.22025   -171107.99025     -2543.14825        32.70025
G27  20485507.27815     11370.55715       148.65615        31.90015
G08  22977686.47914    119544.62814      1753.53814        24.10014
C37  23567574.90725   -173280.04525     -2570.32825        34.20025
C33  25430617.75025 -31117723.78025      1819.46725        32.50025
R15  19936287.19614   -152337.15814     -2272.11314        25.40014
> 2025 05 07 10 57 37.0000000  0 8                      
G26  22106227.87726   -288080.65126     -4193.36526        37.10026
G10  22093887.82025     89014.01225      1269.19225        34.50025
G16  20546220.94725   -173646.27325     -2543.99225        32.80025
G27  20485232.66915     11524.63615       147.77615        32.00015
G08  22977121.96914    121305.13614      1754.89914        24.00014
C37  23567835.12725   -175845.24425     -2571.41425        34.10025
C33  25430033.15425 -31115898.72625      1819.09825        32.50025
R15  19936477.26414   -154619.43714     -2273.21714        25.60014
> 2025 05 07 10 57 38.0000000  0 8                      
G26  22106802.57926   -292268.13526     -4193.52826        37.00026
G10  22093427.03925     90288.67325      1268.42225        34.60025
G16  20546485.96425   -176184.83725     -2544.87225        32.80025
G27  20484985.34025     11678.31525       147.56225        32.10025
G08  22976570.95114    123062.37614      1749.68814        23.90014
C37  23568107.63925   -178410.87025     -2571.70325        34.00025
C33  25429461.15025 -31114073.81225      1818.97925        32.80025
R15  19936688.31814   -156916.20614     -2274.11814        25.70014
> 2025 05 07 10 57 39.0000000  0 8                      
G26  22107364.39026   -296456.13526     -4194.10026        37.00026
G10  22092947.07125     91562.97425      1268.27625        34.70025
G16  20546738.08925   -178723.98125     -2545.27625        32.90025
G27  20484723.62125     11831.63025       147.28725        32.10025
G08  22975998.04814    124818.76414      1750.11514        23.80014
C37  23568366.06025   -180976.95025     -2572.09625        33.90025
C33  25428876.55525 -31112249.03925      1818.90825        32.80025
R15  19936871.79114   -159164.07914     -2273.38714        25.90014
> 2025 05 07 10 57 40.0000001  0 8                      
G26  22107957.08026   -300644.47426     -4194.36826        36.90026
G10  22092500.08025     92836.76525      1267.67125        34.80025
G16  20547015.69725   -181263.83725     -2546.07425        33.00025
G27  20484491.28225     11984.62525       146.97325        32.20025
G08  22975449.72714    126571.19014      1744.58114        23.70014
C37  23568646.96525   -183543.67625     -2572.85725        33.80025
C33  25428321.04025 -31110424.38825      1818.78025        32.80025
R15  19937081.04614   -161389.01714     -2278.50814        26.10014
> 2025 05 07 10 57 41.0000001  0 8                      
G26  22108514.39426   -304833.14626     -4194.69826        36.80026
G10  22092020.41325     94110.00825      1267.10525        34.90025
G16  20547262.12625   -183804.33725     -2546.68325        33.10025
G27  20484221.76825     12137.01025       146.21525        32.20025
G08  22974875.92414    128325.56614      1749.48514        23.80014
C37  23568902.68825   -186110.81525     -2573.15425        33.70025
C33  25427733.74625 -31108600.10725      1818.28525        32.80025
R15  19937278.01014   -163707.23214     -2277.69114        26.20014
> 2025 05 07 10 57 41.9999998  0 9                      
G26  22108986.56726   -309022.23426     -4195.15726        36.70026
G10  22091454.10525     95382.95025      1266.92825        35.10025
G16  20547418.31825   -186345.38825     -2547.18825        33.10025
G27  20483860.81825     12289.04325       145.99425        32.30025
G08  22974214.88214    130078.66514      1746.59714        24.10014
G23  21288191.09213    -27477.29913     -1318.01213        20.20013
C37  23569068.17425   -188678.53725     -2573.82025        33.70025
C33  25427055.61625 -31106775.79025      1818.52325        32.90025
R15  19937378.14014   -165989.51114     -2284.15314        26.50014
> 2025 05 07 10 57 43.0000001  0 9                      
G26  22109651.50726   -313211.91826     -4195.89726        36.70026
G10  22091085.95925     96655.09425      1265.82525        35.20025
G16  20547770.57425   -188887.42625     -2548.44825        33.10025
G27  20483703.12725     12440.67425       145.51225        32.30025
G08  22973744.20814    131831.31914      1746.51214        24.30014
G23  21288319.10313    -28791.97213     -1320.57213        20.60013
C37  23569431.82225   -191247.00325     -2574.70125        33.60025
C33  25426576.54725 -31104951.94225      1817.74825        33.00025
R15  19937674.03514   -168260.28514     -2284.48414        26.70014
> 2025 05 07 10 57 43.9999998  0 9                      
G26  22110125.47926   -317401.93626     -4196.02726        36.60026
G10  22090515.75425     97926.98325      1265.91625        35.30025
G16  20547934.56125   -191429.85925     -2548.47425        33.10025
G27  20483352.97025     12591.65625       144.81225        32.30025
G08  22973098.75514    133582.77114      1745.00414        24.30014
G23  21288252.25013    -30105.58413     -1318.92513        20.80013
C37  23569597.00825   -193815.89925     -2574.90125        33.60025
C33  25425899.31625 -31103128.13425      1817.99425        33.20025
R15  19937778.96314   -170568.55914     -2281.14614        26.70014
> 2025 05 07 10 57 44.9999999  0 9                      
G26  22110718.46826   -321592.15826     -4196.18426        36.60026
G10  22090065.76625     99198.30425      1265.17325        35.40025
G16  20548212.46925   -193972.91725     -2549.23125        33.00025
G27  20483109.83825     12742.59225       145.04925        32.30025
G08  22972543.83914    135336.36314      1748.79714        24.50014
G23  21288294.22113    -31419.30913     -1319.64513        21.20013
C33  25425341.10325 -31101304.41825      1817.86025        33.30025
C37  23569882.41025   -196385.24025     -2575.37325        33.60025
R15  19937984.32114   -172771.32114     -2283.04414        26.70014
> 2025 05 07 10 57 45.9999999  0 10                      
G26  22111278.18126   -325782.62326     -4196.44526        36.50026
G10  22089589.09626    100469.38826      1265.10126        35.60026
G16  20548448.70525   -196516.51825     -2549.73425        33.00025
G27  20482848.11925     12892.98725       144.26125        32.20025
G08  22971962.84114    137089.01114      1746.31314        24.60014
G23  21288306.51213    -32730.35613     -1315.56913        21.30013
C27  24863449.99215 -31194201.34415      1314.59315        34.50015
C33  25424754.40925 -31099480.89825      1817.61025        33.50025
C37  23570136.33425   -198954.88525     -2575.60425        33.60025
R15  19938188.18014   -175130.06014     -2278.90014        26.70014
> 2025 05 07 10 57 46.9999999  0 10                      
G26  22111855.28126   -329973.60726     -4197.16026        36.40026
G10  22089127.11626    101740.01026      1264.47126        35.80026
G16  20548716.42025   -199060.72725     -2550.43125        32.90025
G27  20482598.09225     13043.17525       144.16625        32.30025
G08  22971412.72214    138840.37314      1744.79814        24.60014
G23  21288337.39113    -34042.75613     -1318.99513        21.40013
C27  24862976.61925 -31192880.55125      1314.94625        34.50025
C33  25424185.40325 -31097657.37525      1817.65825        33.60025
C37  23570413.34225   -201525.14725     -2576.43425        33.50025
R15  19938424.11614   -177558.34014     -2287.68214        26.60014
> 2025 05 07 10 57 47.9999999  0 10                      
G10  22088645.94926    103010.31726      1264.30426        36.10026
G26  22112418.59126   -334164.82526     -4197.17626        36.40026
G16  20548970.34425   -201605.52725     -2550.93825        32.80025
G27  20482335.47425     13192.93725       143.70525        32.30025
G08  22970840.41814    140589.90314      1742.76914        24.50014
G23  21288357.77713    -35353.48213     -1315.73213        21.50013
C27  24862485.26025 -31191559.76025      1314.99825        34.50025
C33  25423596.31125 -31095833.97325      1817.54825        33.90025
C37  23570672.36325   -204095.77325     -2576.59725        33.70025
R15  19938594.39814   -179736.63314     -2288.91414        26.60014
> 2025 05 07 10 57 48.9999999  0 10                      
G10  22088170.47826    104279.90926      1263.37026        36.20026
G26  22112979.20326   -338356.44926     -4197.68726        36.30026
G27  20482068.95925     13342.19425       143.14125        32.30025
G16  20549208.37925   -204151.02025     -2551.69925        32.70025
G08  22970285.80214    142338.33514      1742.01714        24.50014
G23  21288365.57113    -36665.98013     -1319.24713        21.50013
C27  24861990.90225 -31190239.25925      1314.54525        34.40025
C33  25423007.21825 -31094010.86825      1817.14525        34.10025
C37  23570928.38625   -206667.08825     -2577.46725        33.70025
R15  19938772.47514   -181954.68714     -2285.81614        26.60014
> 2025 05 07 10 57 49.9999999  0 9                      
G26  22113542.81326   -342548.44926     -4198.04826        36.30026
G10  22087695.90626    105549.13026      1263.17126        36.20026
G27  20481808.13925     13491.16025       142.95625        32.30025
G16  20549457.50725   -206697.14925     -2552.31025        32.60025
G08  22969717.09614    144085.18714      1740.19814        24.40014
C27  24861501.34125 -31188918.71325      1314.75725        34.40025
C33  25422423.82225 -31092187.87725      1817.12325        34.10025
C37  23571191.00415   -209238.90815     -2577.88015        33.70015
R15  19938965.84114   -184255.31514     -2285.17814        26.60014
> 2025 05 07 10 57 51.0000000  0 9                      
G26  22114127.40826   -346740.89526     -4198.52926        36.30026
G10  22087246.81726    106817.93926      1262.73826        36.20026
G27  20481571.60325     13639.73325       142.51425        32.40025
G16  20549737.21315   -209245.21815     -2555.64915        32.50015
G08  22969165.47814    145833.73114      1743.52514        24.30014
C33  25421865.00925 -31090365.08525      1816.88125        34.10025
C27  24861044.45725 -31187598.36625      1314.43725        34.30025
C37  23571475.50715   -211811.22115     -2578.36815        33.60015
R15  19939169.70014   -186450.43014     -2282.83714        26.60014
> 2025 05 07 10 57 51.9999999  0 9                      
G26  22114680.82526   -350933.70226     -4198.90326        36.30026
G10  22086759.35526    108086.09726      1261.91326        36.20026
G27  20481292.19625     13787.80225       141.89825        32.50025
G16  20549968.35315   -211794.54615     -2555.62415        32.40015
G08  22968587.77814    147584.23114      1745.55814        24.10014
C27  24860541.70525 -31186278.23325      1314.16025        34.20025
C33  25421270.52125 -31088542.53525      1816.56325        34.00025
C37  23571720.13815   -214381.51715     -2575.15015        33.50015
R15  19939351.97414   -188754.08214     -2284.13014        26.60014
> 2025 05 07 10 57 53.0000000  0 9                      
G26  22115276.51326   -355126.73626     -4198.99026        36.20026
G10  22086309.06626    109354.09526      1262.07326        36.10026
G27  20481061.05625     13935.67125       141.92425        32.50025
G16  20550249.85815   -214344.50415     -2556.11715        32.20015
G08  22968052.04814    149337.98314      1749.53314        24.10014
C27  24860078.22625 -31184958.02225      1314.45825        34.10025
C33  25420712.60725 -31086719.79925      1817.03725        33.90025
C37  23572002.54215   -216955.17915     -2581.13515        33.30015
R15  19939562.42814   -190985.13314     -2289.28614        26.50014
> 2025 05 07 10 57 54.0000000  0 9                      
G26  22115835.92526   -359320.20626     -4199.54826        36.20026
G10  22085835.39426    110621.56326      1261.33826        36.10026
G27  20480793.34225     14083.07925       141.31425        32.50025
G16  20550493.58915   -216893.47615     -2554.33915        32.00015
G08  22967486.04014    151092.86114      1749.57514        24.00014
C27  24859592.56225 -31183637.89625      1314.27225        34.00025
C33  25420121.11625 -31084897.52425      1816.23325        33.90025
C37  23572263.06215   -219528.98015     -2579.67915        33.20015
R15  19939755.19514   -193281.94114     -2289.77514        26.50014
> 2025 05 07 10 57 55.0000000  0 9                      
G26  22116399.23526   -363514.05826     -4199.90326        36.20026
G10  22085357.52526    111888.54126      1260.86926        36.10026
G27  20480525.32725     14229.95025       140.74025        32.40025
G16  20550744.51615   -219440.74715     -2552.28315        31.80015
G08  22966918.23314    152845.05514      1744.98814        23.90014
C27  24859100.60325 -31182318.07825      1313.85325        33.90025
C33  25419533.52315 -31083075.23015      1816.49215        33.80015
C37  23572524.18125   -222103.21325     -2580.25725        33.10025
R15  19939961.75214   -195652.14614     -2288.86214        26.60014
> 2025 05 07 10 57 56.0000000  0 9                      
G10  22084898.84326    113154.78126      1259.95226        36.10026
G26  22116973.33826   -367708.44326     -4200.56726        36.20026
G27  20480278.59825     14376.35925       140.25925        32.40025
G16  20551006.83415   -221987.81115     -2552.87615        31.60015
G08  22966355.22314    154595.98314      1744.37614        23.90014
C27  24858626.33125 -31180998.38725      1313.76225        33.90025
C33  25418967.81525 -31081253.31425      1815.86125        33.70025
C37  23572794.29425   -224678.17125     -2581.18325        33.00025
R15  19940150.32114   -197829.64214     -2292.05414        26.70014
> 2025 05 07 10 57 57.0000000  0 9                      
G10  22084420.07426    114420.65426      1259.84326        36.10026
G26  22117534.54926   -371903.18226     -4200.75626        36.10026
G27  20480020.47725     14522.52325       140.19725        32.40025
G16  20551243.97015   -224538.03015     -2557.64015        31.40015
G08  22965785.61714    156345.18114      1742.48614        23.80014
C27  24858136.77025 -31179678.79725      1313.74725        33.90025
C33  25418382.32025 -31079431.59825      1815.82325        33.60025
C37  23573059.91025   -227253.65225     -2581.53225        33.00025
R15  19940330.49614   -200058.39914     -2298.03614        26.70014
> 2025 05 07 10 57 58.0000000  0 9                      
G10  22083943.40426    115686.12326      1259.40226        36.10026
G26  22118097.85926   -376098.22426     -4201.05526        36.10026
G27  20479755.46025     14668.00225       139.27125        32.40025
G16  20551498.49415   -227090.87815     -2560.02415        31.20015
G08  22965213.91314    158095.41514      1744.88714        24.00014
C27  24857643.61125 -31178359.35925      1313.55125        34.10025
C33  25417795.62625 -31077609.95825      1815.79025        33.60025
C37  23573315.93325   -229829.51125     -2581.85625        32.90025
R15  19940535.55414   -202421.72414     -2288.89014        26.70014
> 2025 05 07 10 57 59.0000000  0 9                      
G10  22083471.83126    116951.13626      1258.92126        36.10026
G26  22118656.97226   -380293.75326     -4201.63226        36.10026
G27  20479485.34725     14813.24325       139.26025        32.50025
G16  20551752.11815   -229645.46215     -2561.31315        31.00015
G08  22964649.70414    159844.90114      1743.24814        24.30014
C27  24857154.95025 -31177039.95325      1313.57925        34.10025
C33  25417210.43125 -31075788.57725      1815.44125        33.50025
C37  23573570.75725   -232406.01325     -2582.63025        32.70025
R15  19940740.91214   -204785.05214     -2294.12514        26.80014
> 2025 05 07 10 58 00.0000001  0 9                      
G10  22083021.84226    118215.63926      1258.38526        36.10026
G26  22119246.96426   -384489.53626     -4201.77126        36.00026
G27  20479248.81125     14958.10425       138.80825        32.60025
G16  20552029.72615   -232200.11915     -2560.55615        30.80015
G08  22964115.77314    161591.96514      1739.98814        24.40014
C27  24856694.46825 -31175720.73225      1313.31825        34.10025
C33  25416652.51825 -31073967.31125      1815.39725        33.60025
C37  23573859.75625   -234982.83325     -2582.78725        32.60025
R15  19940929.78214   -206902.18014     -2301.10714        26.90014
> 2025 05 07 10 58 00.9999998  0 9                      
G10  22082452.83626    119479.80426      1258.13126        36.10026
G26  22119717.93826   -388685.71426     -4202.23426        36.00026
G27  20478897.45425     15102.56025       138.38925        32.80025
G16  20552180.52115   -234752.92015     -2557.73315        30.60015
G08  22963454.43114    163338.50914      1740.42014        24.60014
C27  24856113.47125 -31174401.62825      1313.23525        34.10025
C33  25415976.18625 -31072146.22025      1815.19125        33.70025
C37  23574028.83925   -237560.38925     -2583.73225        32.50025
R15  19941064.68814   -209370.25514     -2299.27514        26.90014
> 2025 05 07 10 58 02.0000001  0 9                      
G10  22082082.89226    120743.45126      1257.46926        36.10026
G26  22120392.47126   -392882.23626     -4202.61026        36.00026
G27  20478741.56225     15246.80025       138.21525        32.80025
G16  20552543.27015   -237307.90615     -2561.99615        30.40015
G08  22962989.45314    165086.36414      1742.59114        24.60014
C27  24855730.63625 -31173082.51625      1313.25025        34.10025
C33  25415500.11525 -31070325.07225      1815.31225        33.80025
C37  23574394.88625   -240138.23125     -2583.84825        32.40025
R15  19941348.59214   -211576.03514     -2293.19414        26.90014
> 2025 05 07 10 58 02.9999998  0 9                      
G10  22081515.68526    122006.63826      1257.11126        36.10026
G26  22120860.44726   -397079.18226     -4202.99926        35.90026
G27  20478388.40725     15390.40525       137.44225        32.80025
G16  20552710.85415   -239863.34415     -2561.50615        30.20015
G08  22962334.40714    166833.12914      1740.37314        24.60014
C27  24855154.13525 -31171763.56425      1313.07925        34.10025
C33  25414822.88425 -31068504.24925      1814.86625        33.80025
C37  23574560.37125   -242716.80625     -2584.73125        32.40025
R15  19941468.50914   -213963.83114     -2294.48614        26.90014
> 2025 05 07 10 58 03.9999998  0 9                      
G10  22081061.49926    123269.34026      1256.59626        36.30026
G26  22121460.63126   -401276.41626     -4203.23926        35.90026
G27  20478151.57125     15533.70825       137.28925        32.90025
G16  20552983.66515   -242420.88615     -2564.45615        30.00015
G08  22961802.87514    168579.99614      1741.05414        24.60014
C27  24854692.45425 -31170444.78025      1312.89025        34.10025
C33  25414266.46925 -31066683.64325      1814.68625        33.90025
C37  23574849.97125   -245295.78225     -2584.98525        32.30025
R15  19941669.96914   -216147.47714     -2306.10214        26.80014
> 2025 05 07 10 58 04.9999999  0 9                      
G10  22080582.73126    124531.55926      1256.11326        36.50026
G26  22122017.64626   -405474.16626     -4203.86826        35.90026
G27  20477890.75125     15676.42525       136.56025        33.00025
G16  20553236.39115   -244980.46315     -2566.45515        29.80015
G08  22961246.76014    170329.08814      1744.33914        24.60014
C27  24854202.29425 -31169126.29225      1312.52825        34.10025
C33  25413676.77825 -31064863.20725      1814.54125        34.00025
C37  23575106.89325   -247875.25825     -2585.53425        32.20025
R15  19941859.43814   -218426.70314     -2310.01414        26.80014
> 2025 05 07 10 58 05.9999999  0 9                      
G10  22080128.54526    125793.40526      1255.74026        36.50026
G26  22122598.04426   -409672.14326     -4204.00626        35.80026
G27  20477641.62425     15818.94325       136.50125        33.10025
G16  20553498.40915   -247537.78415     -2562.11015        29.70015
G08  22960691.24414    172078.97314      1744.36314        24.50014
C33  25413110.47025 -31063042.84825      1814.45425        34.10025
C27  24853731.62025 -31167807.60825      1312.91825        34.10025
C37  23575382.40225   -250455.29425     -2586.17825        32.10025
R15  19942090.27814   -220828.21714     -2303.69314        26.70014
> 2025 05 07 10 58 06.9999999  0 9                      
G10  22079650.97626    127054.57026      1254.97926        36.50026
G26  22123161.35426   -413870.73726     -4204.74326        35.80026
G27  20477382.90325     15960.85025       135.75525        33.10025
G16  20553749.03615   -250097.04915     -2566.08015        29.50015
G08  22960123.13814    173825.89614      1739.59414        24.50014
C33  25412520.47825 -31061222.83625      1814.04625        34.10025
C27  24853244.45725 -31166489.28925      1312.34225        34.10025
C37  23575645.32025   -253035.98225     -2586.80325        32.00025
R15  19942263.55814   -223021.03714     -2299.27514        26.70014
> 2025 05 07 10 58 07.9999999  0 9                      
G10  22079177.00426    128315.17426      1254.45926        36.50026
G26  22123723.16526   -418069.74526     -4205.07626        35.80026
G27  20477117.58625     16102.26525       135.30625        33.10025
G16  20554001.76114   -252655.71214     -2564.22214        29.40014
G08  22959545.13814    175570.56314      1737.67414        24.40014
C33  25411932.58525 -31059403.16825      1813.68425        34.30025
C27  24852751.59825 -31165171.28025      1312.04425        34.10025
C37  23575898.34515   -255617.14415     -2587.20715        31.90015
R15  19942456.62514   -225319.37514     -2301.97614        26.70014
> 2025 05 07 10 58 08.9999999  0 10                      
G10  22078694.03826    129575.31926      1254.05226        36.50026
G26  22124287.07526   -422269.20126     -4205.53926        35.70026
G27  20476853.17025     16243.26025       134.92225        33.10025
G16  20554253.88614   -255211.97214     -2560.92014        29.30014
G08  22958978.83014    177316.88614      1741.28614        24.30014
G23  21288707.33513     -5314.08913     -1338.24113        23.30013
C33  25411353.98625 -31057583.62025      1813.67625        34.40025
C27  24852262.03725 -31163853.27325      1312.19525        34.00025
C37  23576164.26115   -258195.24415     -2582.37715        31.80015
R15  19942644.29514   -227589.42014     -2305.15014        26.80014
> 2025 05 07 10 58 10.0000000  0 10                      
G10  22078246.74826    130834.91626      1253.45926        36.50026
G26  22124873.46926   -426469.09026     -4205.96626        35.70026
G27  20476619.33125     16383.68425       134.27525        33.00025
G16  20554531.19414   -257768.49414     -2562.51414        29.20014
G23  21288749.60514     -6647.37314     -1339.14714        23.60014
G08  22958435.90614    179062.72814      1739.73714        24.20014
C33  25410794.57325 -31055764.31925      1813.36725        34.40025
C27  24851803.35525 -31162535.59525      1311.70325        34.00025
C37  23576449.06415   -260777.10815     -2589.55515        31.80015
R15  19942876.03414   -229935.16114     -2305.81714        27.10014
> 2025 05 07 10 58 10.9999999  0 10                      
G10  22077755.38826    132094.07526      1253.02026        36.60026
G26  22125427.48526   -430669.13526     -4206.03826        35.80026
G27  20476343.22325     16523.99125       134.33025        33.10025
G16  20554772.82714   -260329.73114     -2569.51014        29.20014
G23  21288757.10014     -7980.56414     -1339.06114        23.80014
G08  22957854.00814    180806.28714      1736.49914        24.00014
C33  25410195.88725 -31053944.97025      1813.50725        34.40025
C27  24851300.30325 -31161217.72425      1312.10225        33.90025
C37  23576697.29215   -263360.68715     -2590.29815        31.70015
R15  19943056.80914   -232230.40414     -2309.00714        27.20014
> 2025 05 07 10 58 11.9999999  0 10                      
G10  22077277.51926    133352.66826      1252.46526        36.60026
G26  22125992.59426   -434869.92126     -4206.99826        35.80026
G27  20476080.00525     16663.63125       133.46225        33.10025
G16  20555021.35514   -262891.24914     -2567.50214        29.10014
G23  21288787.37914     -9310.67714     -1334.41714        23.80014
G08  22957287.10114    182549.49714      1737.18814        23.80014
C33  25409610.39325 -31052126.16325      1812.74225        34.40025
C27  24850808.04425 -31159900.38825      1311.27625        33.90025
C37  23576961.70915   -265944.93715     -2590.37615        31.70015
R15  19943248.07714   -234518.03114     -2310.14814        27.40014
> 2025 05 07 10 58 13.0000000  0 10                      
G10  22076836.22426    134610.76826      1251.98926        36.60026
G26  22126580.78726   -439070.99126     -4207.07126        35.80026
G27  20475849.16525     16802.86425       133.16525        33.20025
G16  20555303.46014   -265452.78014     -2567.40014        29.00014
G23  21288834.74614    -10642.65214     -1338.76914        23.90014
G08  22956747.17514    184291.33114      1735.28214        23.70014
C33  25409055.77725 -31050307.42825      1812.88825        34.30025
C27  24850349.96125 -31158583.14425      1311.38725        33.90025
C37  23577248.01115   -268528.55315     -2589.10715        31.60015
R15  19943491.50814   -236927.99914     -2306.07614        27.60014
> 2025 05 07 10 58 14.0000000  0 10                      
G10  22076352.95926    135868.11626      1251.10826        36.60026
G26  22127145.59626   -443272.62526     -4207.77726        35.80026
G27  20475578.75225     16941.37525       132.28725        33.20025
G16  20555551.08814   -268014.15814     -2567.16314        28.90014
G23  21288860.22914    -11979.32314     -1344.88014        24.00014
G08  22956172.77214    186036.61414      1741.14214        23.70014
C27  24849859.80025 -31157266.04525      1311.21525        33.90025
C33  25408463.98625 -31048489.01225      1812.44525        34.30025
C37  23577503.43415   -271113.33215     -2591.16815        31.60015
R15  19943690.27114   -239256.15414     -2313.00714        27.70014
> 2025 05 07 10 58 15.0000000  0 10                      
G10  22075887.38126    137125.22726      1251.07426        36.70026
G26  22127719.39926   -447474.57426     -4208.02126        35.80026
G27  20475342.21625     17079.66225       132.25625        33.20025
G16  20555823.89914   -270576.03214     -2568.03814        28.80014
G23  21288904.89814    -13316.75014     -1343.72214        24.00014
G08  22955632.24614    187784.50014      1743.26914        23.90014
C33  25407896.17925 -31046670.79825      1812.24825        34.30025
C27  24849386.72825 -31155949.11225      1310.98525        34.10025
C37  23577781.64115   -273698.77715     -2591.64115        31.60015
R15  19943898.62614   -241539.16114     -2310.55414        27.90014
> 2025 05 07 10 58 16.0000000  0 11                      
G10  22075415.20826    138381.76026      1250.39826        36.70026
G26  22128283.90826   -451677.01026     -4208.52226        35.70026
G27  20475079.29825     17217.44025       131.68025        33.20025
G16  20556073.32714   -273136.05114     -2564.93414        28.80014
G23  21288927.98214    -14654.63514     -1343.95814        24.00014
G08  22955068.93614    189530.05114      1738.53614        23.90014
C28  21940202.81415 -31223174.73215      -181.19015        34.90015
C27  24848894.76825 -31154632.39125      1310.82225        34.30025
C33  25407313.68325 -31044852.74825      1812.17425        34.20025
C37  23578042.46115   -276282.80215     -2589.10515        31.60015
R15  19944090.79314   -243832.90814     -2310.27814        28.10014
> 2025 05 07 10 58 17.0000000  0 11                      
G10  22074940.03726    139637.51926      1249.50826        36.80026
G26  22128849.61626   -455879.98126     -4209.09726        35.70026
G27  20474817.57925     17354.63525       131.04025        33.10025
G16  20556310.46214   -275695.72214     -2565.35914        28.60014
G23  21288943.57114    -15993.14314     -1344.68314        24.20014
G08  22954497.23214    191275.00014      1738.78314        23.90014
C28  21940000.45425 -31223349.62925      -180.70725        34.90025
C27  24848411.20325 -31153315.91025      1310.55025        34.40025
C33  25406724.59125 -31043035.14825      1811.56425        34.20025
C37  23578304.77915   -278870.07615     -2594.70615        31.60015
R15  19944271.26814   -246063.19514     -2314.53814        28.30014
> 2025 05 07 10 58 18.0000000  0 11                      
G10  22074463.66726    140892.78726      1249.15826        36.90026
G26  22129411.42726   -460083.58326     -4209.77926        35.60026
G27  20474548.96525     17491.31525       130.55925        33.10025
G16  20556552.09514   -278261.89214     -2575.28114        28.50014
G23  21288951.96514    -17328.10414     -1339.04814        24.40014
G08  22953925.22814    193022.82614      1743.40114        23.80014
C28  21939797.79425 -31223525.00725      -181.42825        34.80025
C27  24847917.74425 -31151999.82025      1310.08325        34.40025
C33  25406136.69825 -31041217.80025      1811.41125        34.20025
C37  23578562.00115   -281455.99115     -2591.04415        31.60015
R15  19944463.13514   -248356.18014     -2314.35814        28.60014
> 2025 05 07 10 58 19.0000001  0 11                      
G10  22074020.57426    142147.50826      1248.58426        37.00026
G26  22129999.62026   -464287.34726     -4209.70426        35.50026
G27  20474319.02425     17627.50425       130.08025        33.00025
G16  20556841.69514   -280828.15814     -2572.17514        28.30014
G23  21289005.32814    -18666.79914     -1346.42514        24.70014
G08  22953382.90414    194768.17414      1738.24414        23.70014
C28  21939624.21425 -31223700.54025      -181.42025        34.80025
C27  24847454.26525 -31150683.75425      1310.24225        34.40025
C33  25405583.88025 -31039400.61525      1811.29125        34.20025
C37  23578847.70315   -284043.11515     -2593.53715        31.60015
R15  19944701.47014   -250736.32614     -2313.33314        28.80014
> 2025 05 07 10 58 20.0000000  0 11                      
G10  22073530.41326    143401.79326      1248.14626        37.00026
G26  22130552.43725   -468491.57025     -4210.36825        35.40025
G27  20474040.51725     17763.31325       129.70025        33.00025
G16  20557087.52414   -283396.64414     -2575.51314        28.10014
G23  21289008.92614    -20007.94914     -1348.29514        24.90014
G08  22952786.31714    196514.07014      1740.25014        23.60014
C27  24846956.61025 -31149367.81725      1310.00825        34.60025
C28  21939410.46225 -31223876.35925      -181.82725        34.70025
C33  25404980.99825 -31037583.56825      1811.11325        34.20025
C37  23579100.12915   -286629.13615     -2591.33115        31.70015
R15  19944882.54514   -253033.86014     -2313.61614        29.10014
> 2025 05 07 10 58 21.0000001  0 11                      
G10  22073083.72226    144655.56926      1247.67726        37.10026
G26  22131154.42125   -472696.28825     -4210.80825        35.30025
G27  20473811.47525     17898.73125       129.37725        33.00025
G16  20557375.92514   -285963.26514     -2571.53014        27.80014
G23  21289061.68914    -21351.43714     -1350.50014        24.90014
G08  22952245.19113    198260.24313      1740.46513        23.40013
C27  24846497.32825 -31148052.12925      1309.77025        34.70025
C28  21939237.18225 -31224052.63525      -182.29625        34.70025
C33  25404426.08225 -31035766.87325      1810.72525        34.20025
C37  23579393.92515   -289218.06915     -2596.18015        31.70015
R15  19945105.89114   -255332.96014     -2317.76914        29.20014
> 2025 05 07 10 58 21.9999998  0 11                      
G10  22072519.51326    145908.72726      1246.98426        37.10026
G26  22131618.49925   -476901.49225     -4211.30625        35.20025
G27  20473458.91925     18033.48825       128.56425        32.90025
G16  20557547.10614   -288527.69514     -2569.19714        27.60014
G23  21288988.24014    -22693.41314     -1347.08214        24.90014
G08  22951599.73813    200005.12313      1738.37013        23.30013
C28  21938946.38325 -31224229.39725      -182.81525        34.80025
C27  24845919.02825 -31146736.60425      1309.63325        34.70025
C33  25403754.24725 -31033950.41225      1810.53425        34.20025
C37  23579561.20915   -291807.32915     -2595.23015        31.60015
R15  19945207.82014   -257625.94414     -2316.93614        29.40014
> 2025 05 07 10 58 22.9999999  0 11                      
G10  22072076.12026    147161.17426      1246.22726        37.20026
G26  22132213.88725   -481107.32125     -4212.00225        35.10025
G27  20473225.68125     18167.74725       128.14625        32.90025
G16  20557828.61114   -291092.91314     -2571.47414        27.40014
G23  21289024.81514    -24033.62914     -1345.19914        24.90014
G08  22951067.60713    201750.02013      1739.04113        23.30013
C28  21938770.70525 -31224406.43925      -182.99225        34.80025
C27  24845456.74825 -31145421.44725      1309.16125        34.70025
C33  25403195.13425 -31032134.27525      1810.16325        34.20025
C37  23579854.40615   -294396.22615     -2594.52515        31.60015
R15  19945436.86115   -259955.62915     -2319.98215        29.60015
> 2025 05 07 10 58 23.9999999  0 11                      
G10  22071594.65326    148413.18326      1245.92626        37.20026
G26  22132783.49325   -485313.51725     -4212.23925        35.10025
G27  20472962.16325     18301.47525       127.59925        33.00025
G16  20558091.23014   -293663.47614     -2579.09614        27.20014
G23  21289032.31014    -25371.76114     -1342.95114        25.00014
G08  22950497.10113    203494.37213      1738.21413        23.20013
C28  21938569.84425 -31224583.86525      -183.42725        34.90025
C27  24844967.78725 -31144106.49525      1309.03925        34.70025
C33  25402612.03825 -31030318.42325      1809.89825        34.20025
C37  23580115.52615   -296987.09115     -2597.65615        31.50015
R15  19945632.62615   -262268.49215     -2318.51215        29.80015
> 2025 05 07 10 58 24.9999999  0 11                      
G10  22071144.96426    149664.70026      1245.35326        37.30026
G26  22133365.09025   -489520.01625     -4212.56525        35.00025
G27  20472721.13025     18434.88425       127.33125        33.00025
G16  20558355.34714   -296237.10414     -2581.07714        27.00014
G23  21289073.98114    -26713.21414     -1349.03114        25.00014
G08  22949955.67613    205239.59313      1739.73713        23.20013
C28  21938385.17225 -31224761.49925      -183.60325        35.00025
C27  24844495.91325 -31142791.50725      1309.14125        34.60025
C33  25402044.23125 -31028502.61925      1809.91425        34.20025
C37  23580392.53415   -299578.97215     -2598.25115        31.50015
R15  19945844.57915   -264570.61315     -2323.84415        29.90015
> 2025 05 07 10 58 25.9999999  0 11                      
G10  22070670.09326    150915.92626      1245.23326        37.40026
G26  22133922.40425   -493726.84925     -4212.84325        34.90025
G27  20472462.70925     18568.06825       127.22625        33.00025
G16  20558614.06814   -298806.40014     -2572.97314        26.90014
G23  21289093.76714    -28054.28214     -1346.71914        25.00014
G08  22949396.56313    206981.22413      1733.98913        23.30013
C28  21938181.91325 -31224939.30725      -183.68625        35.10025
C27  24844009.95025 -31141476.57625      1309.10925        34.60025
C33  25401461.73425 -31026686.90725      1809.87325        34.20025
C37  23580652.75415   -302171.41015     -2598.50615        31.50015
R15  19946045.44015   -266911.00115     -2318.27515        30.00015
> 2025 05 07 10 58 26.9999999  0 11                      
G10  22070190.72526    152166.64026      1244.59426        37.50026
G26  22134486.61425   -497933.98325     -4213.14425        34.90025
G27  20472200.69025     18700.75025       126.56925        33.00025
G16  20558860.49714   -301376.50614     -2576.37314        26.70014
G23  21289102.16114    -29393.71314     -1344.47614        25.00014
G08  22948835.35213    208722.48713      1735.21413        23.30013
C28  21937977.15425 -31225117.35825      -183.98225        35.10025
C27  24843519.19025 -31140161.70725      1309.02825        34.50025
C33  25400869.94425 -31024871.39925      1809.59425        34.20025
C37  23580914.77215   -304763.15915     -2597.21315        31.40015
R15  19946246.30115   -269251.38915     -2324.12815        30.00015
> 2025 05 07 10 58 27.9999999  0 11                      
G10  22069717.95226    153416.90226      1244.17226        37.50026
G26  22135050.22425   -502141.48225     -4213.54125        34.80025
G27  20471937.77225     18833.10825       126.33125        33.00025
G16  20559108.12614   -303950.07014     -2581.15414        26.50014
G23  21289121.04814    -30734.89414     -1347.91614        25.00014
G08  22948262.44813    210461.26213      1731.66713        23.30013
C28  21937776.89325 -31225295.69925      -184.29525        35.10025
C27  24843029.02925 -31138847.06925      1308.71125        34.40025
C33  25400287.14725 -31023056.01225      1809.51625        34.10025
C37  23581172.29415   -307353.83715     -2595.95115        31.40015
R15  19946428.57515   -271490.85115     -2321.68015        30.10015
> 2025 05 07 10 58 29.0000000  0 11                      
G10  22069276.65826    154666.55126      1243.47926        37.50026
G26  22135640.51525   -506349.44325     -4214.05325        34.70025
G27  20471706.03325     18964.78425       125.47325        32.90025
G16  20559388.43214   -306528.24214     -2586.33714        26.40014
G23  21289171.71314    -32078.53814     -1350.73914        25.00014
G08  22947717.12613    212199.71313      1732.42413        23.30013
C28  21937601.81425 -31225474.37525      -184.65425        35.10025
C33  25399728.33425 -31021240.98125      1809.04225        34.10025
C27  24842570.04725 -31137532.68725      1308.44325        34.30025
C37  23581467.88915   -309947.03815     -2600.27015        31.40015
R15  19946666.91015   -273871.00115     -2327.21815        30.10015
> 2025 05 07 10 58 29.9999999  0 11                      
G10  22068792.79326    155915.46526      1242.62726        37.50026
G26  22136188.83525   -510558.20525     -4215.07725        34.60025
G27  20471427.82525     19095.94325       124.98225        32.90025
G16  20559630.66414   -309102.93714     -2578.87314        26.30014
G23  21289172.31314    -33424.03514     -1352.33914        25.00014
G08  22947130.43213    213938.77613      1733.45013        23.20013
C28  21937386.86325 -31225653.64125      -185.42525        35.00025
C33  25399132.04725 -31019426.35625      1808.55725        34.10025
C27  24842071.49225 -31136218.59625      1308.08025        34.30025
C37  23581720.01515   -312542.44815     -2602.37815        31.50015
R15  19946832.69515   -276086.72215     -2324.27215        30.10015
> 2025 05 07 10 58 30.9999999  0 11                      
G10  22068321.51926    157163.58726      1241.87926        37.50026
G26  22136756.34225   -514767.45525     -4215.33525        34.40025
G27  20471167.30625     19226.22725       124.00125        32.90025
G16  20559866.00114   -311674.94114     -2576.50114        26.20014
G23  21289186.40314    -34772.20614     -1355.35314        24.90014
G08  22946554.83113    215682.86813      1740.76013        23.20013
C28  21937184.50325 -31225833.48425      -185.92425        35.00025
C33  25398543.85425 -31017612.22825      1808.08625        34.00025
C27  24841580.73225 -31134905.03625      1307.50125        34.10025
C37  23581977.53715   -315136.98515     -2599.88915        32.00015
R15  19947043.14915   -278477.57615     -2326.06315        30.10015
> 2025 05 07 10 58 32.0000000  0 11                      
G10  22067875.12826    158411.19326      1241.48526        37.40026
G26  22137352.03025   -518977.36125     -4216.09425        34.30025
G27  20470933.76725     19356.11125       123.82225        32.80025
G16  20560144.20814   -314246.44014     -2577.10914        26.20014
G23  21289238.86714    -36119.60214     -1352.87114        25.00014
G08  22946002.91313    217426.69113      1737.82313        23.40013
C28  21937009.12525 -31226013.73925      -186.27025        34.90025
C27  24841118.75125 -31133591.54025      1307.65325        34.10025
C33  25397988.93825 -31015798.35125      1807.94025        34.00025
C37  23582273.13215   -317732.41915     -2601.69115        32.20015
R15  19947269.19315   -280792.72915     -2331.99815        30.00015
> 2025 05 07 10 58 33.0000000  0 11                      
G10  22067402.05526    159657.91926      1240.42126        37.40026
G26  22137910.24425   -523187.95325     -4216.79525        34.20025
G27  20470671.44925     19485.18625       122.80625        32.80025
G16  20560394.23514   -316822.86514     -2584.74814        26.20014
G23  21289266.74714    -37465.62914     -1351.20414        25.00014
G08  22945447.69714    219167.43314      1733.33814        23.50014
C28  21936817.25725 -31226194.61825      -187.00025        34.90025
C33  25397407.34125 -31013985.02725      1807.23625        34.00025
C27  24840627.09225 -31132278.59325      1306.86225        34.00025
C37  23582532.15325   -320328.61725     -2602.38725        32.50025
R15  19947473.05215   -283148.41115     -2327.34315        30.00015
> 2025 05 07 10 58 34.0000000  0 11                      
G10  22066931.68126    160903.86126      1239.68626        37.40026
G26  22138477.75125   -527399.18225     -4217.40725        34.10025
G27  20470409.43025     19613.56125       122.16225        32.80025
G16  20560655.95414   -319403.27714     -2588.26714        26.20014
G23  21289279.33914    -38814.58714     -1356.28614        25.00014
G08  22944880.49014    220907.08214      1733.23814        23.50014
C28  21936608.60225 -31226376.17425      -187.70525        34.90025
C33  25396820.04725 -31012172.13125      1806.87125        34.10025
C27  24840138.73025 -31130966.13725      1306.39925        34.00025
C37  23582789.07525   -322925.81925     -2603.51325        32.60025
R15  19947673.61315   -285488.03415     -2331.44615        29.90015
> 2025 05 07 10 58 35.0000000  0 11                      
G10  22066472.09926    162148.77726      1238.48326        37.40026
G26  22139057.54925   -531611.37625     -4218.59325        34.00025
G27  20470161.20225     19740.96325       120.99725        32.80025
G16  20560921.87014   -321983.08014     -2585.41514        26.10014
G23  21289310.51714    -40164.67414     -1356.56914        25.00014
G08  22944330.37113    222647.78713      1735.31313        23.40013
C28  21936427.22725 -31226558.42125      -188.45725        34.80025
C33  25396253.44025 -31010360.11325      1805.71425        34.10025
C27  24839670.75425 -31129654.37925      1305.54325        33.90025
C37  23583074.77715   -325522.91415     -2602.90315        32.60015
R15  19947884.96715   -287785.56615     -2328.63115        29.90015
> 2025 05 07 10 58 36.0000000  0 11                      
G10  22066001.12526    163392.86026      1237.82126        37.50026
G26  22139626.25625   -535824.32625     -4219.16925        33.90025
G27  20469897.68525     19867.55325       120.33925        32.80025
G16  20561177.29314   -324560.30814     -2581.78314        26.10014
G23  21289334.20114    -41517.55714     -1360.12514        24.90014
G08  22943761.96413    224390.03813      1737.17813        23.30013
C28  21936224.56825 -31226741.35925      -189.07425        34.80025
C33  25395666.74625 -31008548.47525      1805.65525        34.10025
C27  24839185.39025 -31128343.01625      1305.37325        33.80025
C37  23583333.79815   -328122.03315     -2605.92215        32.50015
R15  19948079.53215   -290092.31615     -2332.69615        30.10015
> 2025 05 07 10 58 37.0000000  0 11                      
G10  22065525.95426    164636.17626      1237.06726        37.50026
G26  22140192.26425   -540037.97725     -4219.86125        33.90025
G27  20469649.75625     19993.51925       119.79125        32.70025
G16  20561444.40814   -327135.59514     -2580.17914        26.10014
G23  21289353.38714    -42874.12314     -1364.26914        24.80014
G08  22943193.55813    226129.42413      1732.08813        23.20013
C28  21936021.90825 -31226924.75525      -189.43625        34.80025
C33  25395081.55125 -31006737.28025      1805.16225        34.20025
C27  24838697.02825 -31127032.08025      1304.91225        33.70025
C37  23583597.31525   -330721.90225     -2606.05125        32.40025
R15  19948287.58815   -292470.93415     -2338.49415        30.30015
> 2025 05 07 10 58 38.0000001  0 11                      
G10  22065083.76026    165878.67826      1236.23226        37.50026
G26  22140787.65225   -544252.25625     -4220.45425        33.90025
G27  20469411.72125     20118.74825       118.99725        32.60025
G16  20561722.61614   -329712.50314     -2583.57914        26.10014
G23  21289407.05014    -44227.66114     -1357.88814        24.70014
G08  22942649.43413    227869.17113      1734.06313        23.00013
C28  21935851.02625 -31227108.93225      -190.37825        34.70025
C33  25394528.13425 -31004926.73225      1804.41325        34.30025
C27  24838229.95125 -31125721.56425      1304.49525        33.60025
C37  23583892.61125   -333322.65225     -2607.00025        32.30025
R15  19948516.33015   -294802.14715     -2335.62415        30.40015
> 2025 05 07 10 58 38.9999998  0 11                      
G10  22064520.75026    167120.51826      1235.64426        37.70026
G26  22141261.62425   -548467.16725     -4221.08725        33.90025
G27  20469060.06525     20243.29725       118.34625        32.60025
G16  20561882.40514   -332294.38214     -2590.22514        26.00014
G23  21289351.88814    -45580.55514     -1358.43314        24.60014
G08  22942000.98313    229605.96113      1729.44713        22.90013
C28  21935557.53025 -31227293.42325      -190.45825        34.70025
C33  25393852.40225 -31003116.49125      1804.27625        34.40025
C27  24837657.64725 -31124411.51625      1304.00325        33.40025
C37  23584064.69225   -335924.06125     -2607.54625        32.30025
R15  19948632.94915   -297172.35415     -2337.73115        30.70015
> 2025 05 07 10 58 39.9999999  0 11                      
G10  22064079.15626    168361.45126      1234.61526        37.70026
G26  22141858.51025   -552682.82525     -4221.89125        33.90025
G27  20468827.72525     20367.06625       117.51625        32.50025
G16  20562160.01314   -334879.16614     -2592.09814        26.00014
G23  21289397.15714    -46932.57714     -1357.44914        24.60014
G08  22941450.86413    231340.61213      1727.71713        22.70013
C28  21935389.64625 -31227478.71725      -191.50425        34.70025
C33  25393300.18425 -31001306.86325      1803.51125        34.40025
C27  24837202.26325 -31123101.98125      1303.46825        33.30025
C37  23584356.98925   -338526.50825     -2608.77425        32.50025
R15  19948844.00315   -299406.46515     -2337.12815        31.00015
> 2025 05 07 10 58 40.9999998  0 11                      
G10  22063593.79226    169601.86826      1234.23926        37.80026
G26  22142412.82725   -556899.03825     -4222.40525        33.90025
G27  20468550.71715     20490.10815       116.75915        32.40015
G16  20562402.54514   -337463.47014     -2589.98014        25.90014
G23  21289402.85314    -48285.46914     -1359.24414        24.70014
G08  22940884.55613    233075.41113      1728.95313        22.50013
C28  21935175.89425 -31227664.42125      -191.77425        34.60025
C33  25392706.89525 -30999497.45425      1803.43325        34.40025
C37  23584604.61825   -341129.44825     -2609.04925        32.80025
C27  24836700.71025 -31121792.56825      1303.48625        33.20025
R15  19949031.67315   -301738.40415     -2340.30915        31.20015
> 2025 05 07 10 58 41.9999999  0 11                      
G10  22063154.89626    170841.42126      1233.27626        37.80026
G26  22143014.21025   -561116.04525     -4223.24725        33.90025
G27  20468325.87315     20612.81015       116.68715        32.30015
G16  20562701.13814   -340049.71814     -2593.06414        25.90014
G23  21289466.70914    -49643.41314     -1366.31414        24.70014
G08  22940351.82513    234810.71213      1729.70713        22.40013
C28  21935006.51125 -31227850.62325      -192.24425        34.60025
C33  25392151.37925 -30997688.67725      1802.66825        34.40025
C37  23584898.11525   -343733.40825     -2610.26125        33.00025
C27  24836235.43225 -31120483.75925      1302.71525        33.00025
R15  19949257.11715   -304049.73815     -2340.53315        31.30015
> 2025 05 07 10 58 42.9999999  0 11                      
G10  22062679.42526    172080.13326      1232.42826        37.90026
G26  22143583.51625   -565333.63025     -4223.73325        34.00025
G27  20468073.14815     20733.73515       114.17315        32.20015
G16  20562959.26014   -342635.92314     -2592.04514        25.80014
G23  21289496.68814    -51005.43814     -1369.92814        24.70014
G08  22939790.31413    236551.31713      1737.39113        22.20013
C33  25391570.38225 -30995880.35525      1802.28225        34.60025
C28  21934800.85325 -31228037.41125      -192.89025        34.60025
C37  23585162.23225   -346338.06525     -2610.81225        33.10025
C27  24835747.07025 -31119175.35225      1302.39425        32.90025
R15  19949471.46815   -306461.99715     -2342.21215        31.50015
> 2025 05 07 10 58 43.9999999  0 11                      
G10  22062208.75126    173318.44426      1232.24526        38.10026
G26  22144141.73025   -569551.49625     -4223.86625        34.00025
G27  20467801.23615     20853.15815       112.80915        32.10015
G16  20563215.88214   -345222.48514     -2592.60114        25.90014
G23  21289517.07414    -52364.84514     -1363.95914        24.70014
G08  22939209.91513    238294.72313      1738.94213        22.00013
C28  21934602.09125 -31228224.63925      -193.25725        34.60025
C33  25390980.09025 -30994072.12225      1802.37725        34.60025
C37  23585426.04925   -348943.35825     -2611.42025        33.30025
C27  24835263.20525 -31117866.99825      1302.51825        32.70025
R15  19949660.03815   -308736.63115     -2342.44115        31.90015
> 2025 05 07 10 58 44.9999999  0 11                      
G10  22061740.47526    174556.01126      1231.33126        38.20026
G26  22144705.63925   -573770.15725     -4224.91925        34.10025
G27  20467542.21515     20973.44915       114.86115        32.00015
G16  20563462.91114   -347807.98514     -2590.83014        25.90014
G23  21289540.15814    -53722.88714     -1363.22314        24.80014
G08  22938636.11313    240037.46913      1736.55213        21.80013
C28  21934404.22825 -31228412.16225      -193.48125        34.60025
C33  25390396.39425 -30992264.26825      1801.85425        34.60025
C37  23585689.26725   -351549.25125     -2612.00125        33.30025
C27  24834776.94225 -31116558.97525      1302.04625        32.60025
R15  19949872.29115   -311137.42315     -2343.91515        32.00015
> 2025 05 07 10 58 46.0000000  0 11                      
G10  22061294.68326    175793.20426      1231.14226        38.40026
G26  22145301.92625   -577989.04325     -4224.85825        34.20025
G27  20467315.27215     21092.84715       113.08915        31.90015
G16  20563741.11814   -350391.57314     -2588.49414        25.90014
G23  21289585.42714    -55082.29214     -1365.94814        25.00014
G08  22938096.48613    241774.84013      1728.82013        21.60013
C33  25389847.47425 -30990456.60625      1801.75425        34.70025
C28  21934230.34825 -31228600.05325      -193.88425        34.60025
C37  23585982.46425   -354155.63725     -2612.44025        33.50025
C27  24834317.66025 -31115251.16525      1301.89325        32.50025
R15  19950095.93615   -313438.81715     -2344.46015        32.10015
> 2025 05 07 10 58 47.0000000  0 10                      
G10  22060824.30926    177029.68926      1230.26726        38.50026
G26  22145868.83425   -582208.48225     -4225.57525        34.20025
G27  20467058.05115     21212.50815       113.92715        31.80015
G16  20563992.34414   -352972.79114     -2585.89414        25.90014
G23  21289603.11414    -56442.88214     -1367.04514        25.00014
C33  25389258.68225 -30988649.32425      1801.28025        34.70025
C28  21934030.08725 -31228788.37725      -194.35125        34.60025
C37  23586248.68025   -356762.72725     -2613.25125        33.80025
C27  24833828.09925 -31113943.45925      1301.84225        32.40025
R15  19950284.20625   -315711.92125     -2345.94825        32.20025
> 2025 05 07 10 58 48.0000000  0 10                      
G10  22060370.42326    178265.69926      1229.85326        38.50026
G26  22146454.92825   -586428.39425     -4226.06525        34.20025
G27  20466816.41815     21333.17215       115.24815        31.70015
G16  20564265.75514   -355556.62314     -2591.05414        25.80014
G23  21289648.38314    -57804.11214     -1367.46614        25.00014
C28  21933848.41325 -31228976.94425      -194.55225        34.60025
C33  25388692.97425 -30986842.26525      1801.08425        34.70025
C37  23586529.28625   -359370.34225     -2613.74025        34.00025
C27  24833356.82525 -31112636.05325      1301.39125        32.40025
R15  19950522.54125   -318154.72725     -2346.37925        32.20025
> 2025 05 07 10 58 49.0000000  0 10                      
G10  22059897.65126    179501.01726      1229.12526        38.60026
G26  22147027.23225   -590648.85125     -4226.57025        34.20025
G27  20466547.80415     21451.36915       111.11915        31.60015
G16  20564523.87614   -358146.08614     -2598.12214        25.70014
G23  21289659.17614    -59166.86114     -1369.35214        25.00014
C28  21933647.85225 -31229166.11225      -195.26025        34.60025
C33  25388108.97825 -30985035.49625      1800.82925        34.60025
C37  23586793.70325   -361978.74125     -2614.58125        34.20025
R15  19950707.51325   -320410.24625     -2347.95225        32.20025
C27  24832867.86325 -31111328.95525      1301.15125        32.40025
> 2025 05 07 10 58 50.0000000  0 10                      
G10  22059426.67726    180735.75026      1228.57826        38.60026
G26  22147594.43925   -594869.59225     -4226.74325        34.20025
G27  20466302.27415     21569.10815       111.64615        31.50015
G16  20564778.40014   -360739.61814     -2601.42814        25.70014
G23  21289687.65614    -60532.58914     -1373.08114        25.20014
C37  23587060.51825   -364587.79225     -2615.18425        34.40025
C28  21933443.39325 -31229355.43525      -195.21025        34.60025
C33  25387526.48125 -30983228.98425      1800.57325        34.60025
R15  19950925.46225   -322841.62125     -2348.67525        32.30025
C27  24832383.69825 -31110021.95025      1301.14825        32.40025
> 2025 05 07 10 58 51.0000000  0 10                      
G10  22058955.40326    181970.06126      1228.23626        38.70026
G26  22148159.84825   -599091.03925     -4227.66025        34.10025
G27  20466045.35215     21687.46915       112.80915        31.40015
G16  20565031.12514   -363331.41714     -2596.79414        25.90014
G23  21289709.84114    -61896.69914     -1369.16314        25.20014
C37  23587323.43625   -367197.30425     -2615.55125        34.60025
C28  21933243.73125 -31229545.32125      -195.97825        34.50025
C33  25386943.98425 -30981422.80225      1800.20625        34.50025
R15  19951128.42125   -325193.47825     -2349.87225        32.30025
C27  24831896.23625 -31108715.28725      1300.68025        32.30025
> 2025 05 07 10 58 52.0000001  0 10                      
G10  22058513.80926    183203.76526      1227.53626        38.80026
G26  22148754.03725   -603312.73925     -4227.68825        34.10025
G27  20465815.41115     21802.73015       107.84815        31.40015
G16  20565316.52814   -365921.53714     -2595.14114        26.00014
G23  21289774.29614    -63257.71014     -1365.32314        25.20014
C37  23587617.23225   -369807.45525     -2616.27925        34.60025
C28  21933075.24825 -31229735.40025      -195.98525        34.50025
C33  25386389.66825 -30979616.84525      1800.03325        34.40025
R15  19951353.56525   -327503.28225     -2350.69925        32.30025
C27  24831438.75325 -31107408.74925      1300.66525        32.30025
> 2025 05 07 10 58 52.9999998  0 10                      
G10  22057952.29726    184436.88626      1226.96526        38.80026
G26  22149227.70925   -607534.93425     -4228.30125        34.10025
G27  20465458.65815     21915.73215       106.00915        31.40015
G16  20565476.91714   -368514.62714     -2600.43614        26.10014
G23  21289691.25314    -64616.94614     -1364.21114        25.10014
C37  23587787.81425   -372418.21025     -2616.86425        34.60025
C28  21932779.65325 -31229925.87925      -196.49025        34.40025
C33  25385716.33425 -30977811.12225      1799.79425        34.30025
R15  19951468.98525   -329866.60825     -2351.88325        32.40025
C27  24830861.35225 -31106102.33725      1300.53725        32.30025
> 2025 05 07 10 58 53.9999999  0 11                      
G10  22057508.90426    185669.58726      1226.62726        38.90026
G26  22149822.49725   -611757.49525     -4228.60525        34.00025
G27  20465224.52015     22031.40315       111.14115        31.30015
G16  20565775.51014   -371106.86314     -2597.67214        26.20014
G23  21289731.42614    -65984.21614     -1377.14814        25.10014
G08  22933554.33113      5201.90713      1723.26413        21.80013
C37  23588083.41025   -375029.33425     -2617.11625        34.50025
C28  21932609.37025 -31230116.54725      -196.57125        34.40025
C33  25385164.71625 -30976005.52225      1799.72825        34.20025
R15  19951696.82825   -332190.94025     -2352.65625        32.40025
C27  24830402.67025 -31104796.01225      1300.47225        32.30025
> 2025 05 07 10 58 54.9999999  0 11                      
G10  22057037.63126    186901.74226      1226.01726        38.90026
G26  22150392.40225   -615980.60725     -4229.24725        34.00025
G27  20464964.00015     22149.80815       113.91015        31.20015
G16  20566038.12814   -373701.67514     -2601.96014        26.50014
G23  21289765.30214    -67356.25214     -1380.28214        25.00014
G08  22932987.12313      6927.86513      1720.09413        22.00013
C37  23588346.92725   -377641.18925     -2618.02925        34.70025
C28  21932413.30625 -31230307.54225      -196.96825        34.60025
C33  25384585.21725 -30974200.16125      1799.43025        34.10025
R15  19951903.98425   -334564.20625     -2353.47725        32.50025
C27  24829916.40725 -31103489.97725      1300.07825        32.30025
> 2025 05 07 10 58 55.9999998  0 11                      
G10  22056555.86426    188133.61026      1225.80426        38.90026
G26  22150941.92225   -620203.85225     -4229.22625        33.90025
G27  20464676.19915     22268.50515       112.92415        31.10015
G16  20566282.75914   -376296.41614     -2600.62314        26.70014
G23  21289776.09514    -68726.67814     -1375.53714        25.10014
G08  22932401.92813      8652.12913      1717.49613        22.00013
C37  23588598.75325   -380253.34225     -2618.16425        34.90025
C28  21932200.75325 -31230498.84125      -197.31625        34.80025
C33  25383988.63025 -30972394.85425      1799.41325        34.00025
R15  19952084.75925   -336859.44625     -2354.22325        32.50025
C27  24829419.65025 -31102183.84925      1300.30925        32.30025
> 2025 05 07 10 58 56.9999999  0 11                      
G10  22056115.46926    189364.99326      1225.29526        38.90026
G26  22151540.60825   -624427.32425     -4229.42825        33.80025
G27  20464450.15615     22384.30115       108.50115        30.90015
G16  20566568.46114   -378889.11114     -2597.51314        26.80014
G23  21289830.65714    -70092.80014     -1369.81414        25.30014
G08  22931860.80313     10375.47013      1717.03413        21.90013
C37  23588894.94825   -382866.00125     -2618.70325        35.10025
C28  21932026.57425 -31230690.28325      -197.30525        34.80025
C33  25383432.81525 -30970589.65425      1799.35525        34.00025
R15  19952326.69225   -339259.47325     -2355.37825        32.60025
C27  24828956.77125 -31100878.03025      1299.87325        32.30025
> 2025 05 07 10 58 57.9999999  0 11                      
G10  22055642.09726    190595.93326      1224.85526        38.90026
G26  22152116.80925   -628651.30825     -4230.10125        33.70025
G27  20464194.13315     22499.14615       108.50515        30.70015
G16  20566821.78614   -381483.02814     -2600.39014        26.90014
G23  21289852.54214    -71460.54914     -1374.42614        25.50014
G08  22931288.79913     12099.76613      1718.90813        21.80013
C37  23589159.96425   -385479.12725     -2619.16625        35.10025
C28  21931826.61225 -31230881.92525      -197.55225        34.80025
C33  25382847.02125 -30968784.65925      1799.07925        33.90025
R15  19952522.75625   -341574.62925     -2355.92125        32.70025
C27  24828473.50525 -31099571.93425      1300.42225        32.20025
> 2025 05 07 10 58 58.9999999  0 11                      
G10  22055172.92226    191826.44926      1224.43926        38.90026
G26  22152677.72025   -632875.52225     -4230.18825        33.60025
G27  20463936.01215     22614.52515       109.78415        30.50015
G16  20567083.50414   -384076.37614     -2598.92514        27.00014
G23  21289875.32614    -72832.26914     -1379.56714        25.50014
G08  22930717.09513     13822.80013      1716.53813        21.60013
C37  23589428.87825   -388092.70225     -2619.60925        35.10025
C28  21931631.74725 -31231073.79225      -197.78925        34.90025
C33  25382268.72125 -30966979.72525      1799.09425        33.90025
R15  19952722.41825   -343908.13725     -2357.10425        32.70025
C27  24827983.94425 -31098266.06525      1299.94625        32.20025
> 2025 05 07 10 58 59.9999999  0 11                      
G10  22054696.55126    193056.72326      1224.28926        39.00026
G26  22153238.93225   -637099.98625     -4230.44925        33.60025
G27  20463676.09215     22727.14915       105.38215        30.30015
G16  20567339.22714   -386672.63514     -2603.57614        27.00014
G23  21289895.41214    -74204.02014     -1377.62914        25.50014
G08  22930165.17713     15547.08413      1719.04413        21.40013
C37  23589690.89725   -390706.69325     -2620.00725        35.10025
C28  21931429.08825 -31231265.74125      -197.80025        35.00025
C33  25381680.82825 -30965174.89225      1798.97025        33.90025
R15  19952931.97325   -346295.92925     -2357.64125        32.90025
C27  24827492.58515 -31096960.19915      1300.05315        32.10015
> 2025 05 07 10 59 01.0000000  0 11                      
G10  22054256.45626    194286.30626      1223.37326        39.00026
G26  22153839.71625   -641324.96025     -4231.09025        33.50025
G27  20463464.13915     22840.24615       107.47015        30.10015
G16  20567633.62414   -389271.65414     -2606.26114        27.10014
G23  21289937.68314    -75573.36214     -1374.00014        25.60014
G08  22929622.55313     17272.61313      1720.28913        21.30013
C28  21931259.10525 -31231458.07825      -198.34125        35.00025
C37  23589983.79425   -393321.20425     -2620.57825        35.10025
C33  25381126.21225 -30963370.29925      1798.66225        33.90025
R15  19953165.51125   -348650.84425     -2358.77525        33.00025
C27  24827030.90415 -31095654.52215      1299.77115        32.00015
> 2025 05 07 10 59 02.0000000  0 11                      
G10  22053788.48026    195515.74926      1223.51026        39.10026
G26  22154405.42425   -645549.96125     -4230.87425        33.40025
G27  20463200.32115     22953.42215       107.35115        29.90015
G16  20567874.35714   -391873.16414     -2608.61614        27.10014
G23  21289976.05614    -76946.89114     -1381.48614        25.60014
G08  22929053.24713     19002.65113      1726.42613        21.20013
C28  21931060.04325 -31231650.56125      -198.36525        35.20025
C37  23590252.70825   -395936.10025     -2620.89625        35.10025
C33  25380546.11425 -30961565.47325      1799.13125        33.90025
R15  19953366.67225   -350991.99825     -2359.45025        33.10025
C27  24826544.04115 -31094349.26515      1299.23715        31.90015
> 2025 05 07 10 59 03.0000000  0 11                      
G10  22053331.59626    196744.95126      1223.16326        39.20026
G26  22154993.31725   -649775.16725     -4231.22425        33.30025
G27  20462966.48315     23068.67115       110.36915        29.70015
G16  20568148.96714   -394472.50614     -2604.17514        27.10014
G23  21290010.53214    -78318.68814     -1376.84814        25.60014
G08  22928498.93013     20736.79213      1730.27413        21.20013
C28  21930879.86825 -31231842.98125      -198.25325        35.40025
C37  23590532.71425   -398551.22725     -2621.10625        35.10025
C33  25379982.20425 -30959760.83525      1798.67825        33.90025
R15  19953589.71725   -353352.99325     -2359.99825        33.20025
C27  24826073.36715 -31093045.53515      1297.10015        31.90015
> 2025 05 07 10 59 04.0000000  0 11                      
G10  22052863.62026    197973.64026      1222.58526        39.20026
G26  22155547.03425   -654000.73225     -4231.58525        33.20025
G27  20462717.95515     23178.72715       101.61315        29.60015
G16  20568417.88114   -397071.87314     -2605.22114        27.10014
G23  21290033.31714    -79690.93914     -1378.32114        25.70014
G08  22927939.81813     22472.57613      1730.75913        21.30013
C28  21930677.50825 -31232035.69125      -198.64725        35.40025
C37  23590801.62825   -401166.84025     -2621.64525        35.00025
C33  25379394.61125 -30957956.33025      1798.64525        34.00025
R15  19953791.17825   -355696.43825     -2360.74425        33.20025
C27  24825592.80015 -31091740.79715      1299.45015        31.80015
> 2025 05 07 10 59 05.0000000  0 11                      
G10  22052389.94826    199202.07226      1222.43926        39.20026
G26  22156126.53325   -658226.69925     -4232.02925        33.10025
G27  20462461.93214     23290.10114       106.17114        29.40014
G16  20568677.50114   -399670.66514     -2604.36614        27.40014
G23  21290057.00014    -81062.83814     -1377.58614        25.70014
G08  22927377.70713     24208.61013      1730.29513        21.30013
C28  21930479.04525 -31232228.49625      -198.66225        35.40025
C37  23591065.14525   -403782.71025     -2621.80725        35.00025
C33  25378811.81425 -30956151.63725      1798.97525        34.00025
R15  19954001.63225   -358088.05525     -2361.63425        33.20025
C27  24825101.44015 -31090435.79315      1299.32615        31.70015
> 2025 05 07 10 59 06.0000000  0 11                      
G10  22051918.67426    200430.28526      1222.24026        39.20026
G26  22156695.83915   -662454.02415     -4233.86315        33.00015
G27  20462206.20914     23403.63914       108.75514        29.30014
G16  20568941.61814   -402272.34914     -2608.99214        27.40014
G23  21290098.67114    -82437.08314     -1381.28114        25.90014
G08  22926831.18513     25941.83013      1725.94813        21.30013
C28  21930282.38125 -31232421.25225      -198.54225        35.30025
C37  23591330.16225   -406399.03325     -2622.35725        35.10025
C33  25378230.51725 -30954347.10825      1798.63625        34.00025
R15  19954191.40125   -360369.56925     -2362.44325        33.30025
C27  24824616.97515 -31089131.21115      1298.56015        31.70015
> 2025 05 07 10 59 07.0000001  0 10                      
G10  22051476.18126    201658.15926      1221.84026        39.20026
G27  20461973.27114     23515.52214       105.19314        29.20014
G16  20569230.01814   -404872.86314     -2605.79014        27.50014
G23  21290164.02614    -83809.67514     -1377.62714        25.90014
G08  22926295.75613     27673.74113      1725.39313        21.50013
C28  21930105.20425 -31232614.35825      -199.09125        35.30025
C37  23591627.25625   -409015.60625     -2622.50625        35.10025
C33  25377674.10225 -30952542.38425      1799.01025        33.90025
R15  19954447.72325   -362844.52625     -2363.16325        33.30025
C27  24824151.99715 -31087823.83115      1302.96715        31.60015
> 2025 05 07 10 59 07.9999998  0 11                      
G10  22050916.16826    202885.59326      1221.35126        39.10026
G27  20461619.51614     23626.71814       104.98814        29.10014
G16  20569402.69914   -407474.23114     -2607.65614        27.50014
G26  22157773.89215   -670908.63415     -4232.05515        32.00015
G23  21290091.77614    -85182.72414     -1379.13914        26.10014
G08  22925628.71713     29404.43213      1724.21513        21.60013
C28  21929817.70325 -31232807.47025      -198.92525        35.20025
C37  23591803.23425   -411632.63525     -2623.06325        35.00025
C33  25377000.16825 -30950737.93425      1798.50225        33.90025
R15  19954549.95325   -365138.27425     -2363.86325        33.30025
C27  24823574.89715 -31086518.67915      1298.22815        31.50015
> 2025 05 07 10 59 08.9999999  0 11                      
G10  22050470.97726    204112.99326      1221.51826        39.10026
G26  22158354.59015   -675134.18615     -4231.41215        30.90015
G27  20461395.57114     23739.52514       107.75014        29.10014
G16  20569697.69514   -410074.54914     -2605.65414        27.70014
G23  21290148.73714    -86555.63214     -1378.70114        26.30014
G08  22925084.59413     31135.58913      1725.52513        21.70013
C37  23592097.63125   -414249.95125     -2623.26825        35.00025
C28  21929651.31825 -31233000.57825      -198.91525        35.20025
C33  25376448.85025 -30948933.18525      1799.08625        33.80025
R15  19954777.79525   -367463.37025     -2364.55025        33.30025
C27  24823124.60815 -31085211.66715      1302.13115        31.50015
> 2025 05 07 10 59 09.9999998  0 11                      
G10  22049989.51026    205339.92026      1220.77226        39.00026
G26  22158908.30715   -679358.76615     -4230.00815        30.40015
G27  20461115.26514     23854.78714       110.57114        29.00014
G16  20569943.22514   -412675.01614     -2606.45714        27.70014
G23  21290164.02614    -87928.59914     -1378.91214        26.50014
G08  22924514.98913     32870.42913      1730.76213        22.00013
C37  23592350.35625   -416867.55425     -2623.60925        35.20025
C28  21929439.36525 -31233193.80825      -199.15725        35.10025
C33  25375853.76225 -30947128.63425      1798.58725        33.80025
R15  19954983.45225   -369891.64925     -2365.38325        33.20025
C27  24822627.55315 -31083904.89815      1300.78315        31.40015
> 2025 05 07 10 59 10.9999999  0 11                      
G10  22049552.41326    206566.60126      1220.71226        38.90026
G26  22159511.48915   -683586.69715     -4235.44915        30.20015
G27  20460890.72014     23967.43114       105.49014        29.00014
G16  20570217.83514   -415273.98614     -2604.06514        27.70014
G23  21290230.58014    -89306.12414     -1385.64914        26.70014
G08  22923980.15913     34604.97413      1728.55113        22.40013
C37  23592645.65126   -419485.59126     -2624.04426        35.60026
C28  21929271.18125 -31233387.18725      -199.24525        35.00025
C33  25375305.44225 -30945324.14225      1798.66925        33.70025
R15  19955211.89425   -372219.03925     -2366.15625        33.20025
C27  24822172.46815 -31082601.76315      1295.52515        31.40015
> 2025 05 07 10 59 11.9999999  0 10                      
G10  22049075.14326    207793.04826      1220.46626        38.80026
G26  22160079.89615   -687813.83115     -4232.59615        30.10015
G27  20460635.29714     24078.57614       104.53214        29.00014
G16  20570484.65014   -417877.98014     -2612.36614        27.70014
G23  21290254.86314    -90683.68214     -1383.43614        26.80014
G08  22923407.55513     36340.88613      1730.73113        22.80013
C37  23592913.66626   -422103.73526     -2624.00526        35.70026
C28  21929066.12325 -31233580.66525      -199.33725        34.90025
R15  19955408.25825   -374534.96125     -2366.52925        33.10025
C33  25374718.14825 -30943519.43025      1799.01025        33.60025
> 2025 05 07 10 59 12.9999999  0 11                      
G10  22048606.86726    209019.03826      1219.89726        38.70026
G26  22160656.39715   -692040.99815     -4233.04215        30.10015
G27  20460376.27614     24187.07314       101.31014        28.90014
G16  20570740.67314   -420483.94314     -2612.80914        27.70014
G23  21290279.74614    -92063.76114     -1387.20214        26.90014
G08  22922833.45313     38074.79113      1727.03613        23.20013
C37  23593176.58426   -424722.50126     -2624.88526        35.70026
C28  21928871.55825 -31233774.24725      -199.44425        34.70025
R15  19955626.50725   -376967.09925     -2367.57325        33.20025
C33  25374132.35425 -30941715.02025      1798.44925        33.50025
C27  24821199.04115 -31079990.97615      1304.77215        29.90015
> 2025 05 07 10 59 13.9999999  0 11                      
G10  22048134.69426    210244.75026      1219.70826        38.60026
G26  22161208.31515   -696271.19715     -4237.57615        30.10015
G27  20460117.85514     24295.21714       102.10414        28.90014
G16  20570992.79814   -423087.46214     -2608.15814        27.80014
G23  21290298.63314    -93444.29714     -1386.62714        27.00014
G08  22922280.33614     39808.49914      1727.74514        23.70014
C37  23593443.69926   -427341.49026     -2624.90826        35.70026
R15  19955829.46725   -379319.72125     -2368.36225        33.40025
C28  21928669.19825 -31233968.00425      -199.65425        34.50025
C33  25373545.66025 -30939910.38625      1798.93525        33.40025
C27  24820706.78214 -31078681.67614      1303.49014        28.30014
> 2025 05 07 10 59 15.0000000  0 11                      
G10  22047695.19826    211470.05826      1219.24226        38.50026
G26  22161804.00215   -700500.08815     -4234.09615        30.10015
G27  20459884.31714     24407.97114       109.19514        28.90014
G16  20571281.49814   -425689.44714     -2607.07914        27.80014
G23  21290353.19514    -94822.57714     -1383.01414        27.00014
G08  22921743.40714     41542.31714      1728.00814        24.40014
C37  23593738.39526   -429960.91626     -2625.45326        35.90026
R15  19956056.70925   -381640.23025     -2369.28925        33.50025
C28  21928498.31725 -31234161.83325      -199.67425        34.20025
C33  25372989.24525 -30938105.83225      1798.70325        33.30025
C27  24820250.79814 -31077375.61714      1298.62714        27.40014
> 2025 05 07 10 59 15.9999999  0 11                      
G10  22047212.83226    212695.34926      1219.36226        38.40026
G26  22162361.61615   -704728.71615     -4234.41115        30.20015
G27  20459621.69914     24520.94414       107.16414        28.90014
G16  20571524.93014   -428293.56214     -2611.09714        27.80014
G23  21290363.98814    -96200.18314     -1383.18514        27.00014
G08  22921168.70514     43277.15514      1729.42814        25.00014
C37  23593995.01726   -432580.46426     -2625.47226        36.10026
R15  19956251.57525   -384011.16525     -2369.59525        33.50025
C28  21928288.16225 -31234355.68525      -199.72825        34.00025
C33  25372396.85525 -30936301.21025      1798.79025        33.20025
C27  24819738.45314 -31076072.53314      1295.73014        26.70014
> 2025 05 07 10 59 17.0000000  0 11                      
G10  22046773.93626    213920.16026      1218.72626        38.40026
G26  22162960.90115   -708957.94315     -4235.36915        30.20015
G27  20459393.55714     24629.63414       100.70414        28.80014
G16  20571813.33014   -430900.43014     -2614.08714        27.80014
G23  21290427.24414    -97579.47214     -1385.97514        27.10014
G08  22920634.47514     45010.77414      1727.16314        25.30014
C37  23594290.91226   -435200.58626     -2626.19726        36.30026
R15  19956488.11125   -386380.60725     -2370.61225        33.50025
C28  21928122.37725 -31234549.76025      -199.97825        33.90025
C33  25371844.03825 -30934496.62825      1798.76925        33.10025
C27  24819273.47514 -31074766.77514      1301.30314        26.20014
> 2025 05 07 10 59 18.0000000  0 11                      
G10  22046303.26226    215144.55226      1218.31826        38.30026
G26  22163529.00815   -713188.00715     -4236.34215        30.30015
G27  20459140.53214     24737.45714       101.52614        28.90014
G16  20572078.04714   -433505.63014     -2610.22714        27.80014
G23  21290453.02614    -98962.55214     -1390.83714        27.20014
G08  22920066.36814     46743.25114      1726.04214        25.50014
C37  23594553.23126   -437821.02026     -2626.39926        36.30026
R15  19956697.36625   -388766.10625     -2371.18425        33.50025
C28  21927923.01525 -31234743.83625      -199.88625        33.70025
C33  25371267.53725 -30932692.27825      1798.42325        32.90025
C27  24818793.20714 -31073458.53514      1303.66914        25.90014
> 2025 05 07 10 59 19.0000000  0 11                      
G10  22045829.89026    216368.74426      1218.22926        38.20026
G26  22164102.51115   -717416.45915     -4233.50615        30.50015
G27  20458884.50914     24843.73014        99.63514        29.00014
G16  20572340.36514   -436110.06014     -2609.90714        27.80014
G23  21290485.40414   -100348.47814     -1393.21214        27.40014
G08  22919500.06014     48471.76714      1720.67114        25.60014
C37  23594821.54526   -440441.90226     -2626.91426        36.30026
R15  19956891.63125   -391071.32325     -2372.34125        33.50025
C28  21927718.85625 -31234938.17225      -200.27625        33.50025
C33  25370678.14525 -30930887.80825      1798.71825        32.80025
C27  24818303.94614 -31072151.75014      1300.24714        25.60014
> 2025 05 07 10 59 20.0000000  0 11                      
G10  22045364.01226    217592.39726      1217.51826        38.10026
G26  22164667.32015   -721645.47915     -4235.16315        30.80015
G27  20458628.48614     24951.37614       102.46914        29.20014
G16  20572597.28714   -438716.79114     -2613.74314        28.00014
G23  21290506.08914   -101731.54114     -1387.49414        27.60014
G08  22918918.76314     50204.17914      1728.49514        25.70014
C37  23595088.06026   -443063.12026     -2627.19326        36.20026
R15  19957113.77825   -393524.10725     -2372.76425        33.40025
C28  21927519.49425 -31235132.70625      -200.44325        33.40025
C33  25370090.85225 -30929083.60825      1798.25425        32.70025
C27  24817826.07714 -31070851.14914      1291.69714        25.50014
> 2025 05 07 10 59 21.0000001  0 11                      
G10  22044927.21426    218815.73226      1217.31226        38.00026
G26  22165272.00115   -725875.33915     -4236.14115        31.00015
G27  20458389.55214     25060.71914       104.32814        29.30014
G16  20572884.48814   -441324.01814     -2613.33614        28.30014
G23  21290554.95614   -103111.88714     -1384.84914        27.80014
G08  22918384.83214     51934.58414      1723.53714        25.70014
C37  23595386.05426   -445684.92426     -2627.90626        36.20026
C28  21927350.41125 -31235327.62425      -200.92025        33.20025
R15  19957338.02225   -395830.08825     -2374.08825        33.30025
C33  25369545.22915 -30927278.32615      1800.01315        32.60015
C27  24817364.39614 -31069545.93714      1301.70814        25.50014
> 2025 05 07 10 59 22.0000000  0 11                      
G10  22044449.34526    220038.58026      1216.68726        38.00026
G26  22165835.61115   -730105.61415     -4236.39615        31.20015
G27  20458127.23315     25171.06715       104.93315        29.50015
G16  20573123.12314   -443930.64314     -2612.24014        28.40014
G23  21290567.24714   -104494.94614     -1390.33214        28.00014
G08  22917806.83214     53666.21214      1726.32114        25.70014
C37  23595640.87826   -448307.09526     -2628.21626        36.10026
C28  21927142.95525 -31235522.48825      -200.70225        33.20025
R15  19957535.28625   -398212.49225     -2374.72125        33.20025
C33  25368948.04315 -30925473.89615      1798.13715        32.60015
C27  24816861.94414 -31068240.90214      1299.08114        26.20014
> 2025 05 07 10 59 23.0000001  0 11                      
G10  22044008.95026    221261.07926      1216.47826        38.00026
G26  22166425.90315   -734335.03015     -4234.83015        31.40015
G27  20457906.88615     25278.57115       100.23815        29.50015
G16  20573426.51314   -446538.12114     -2613.74614        28.50014
G23  21290618.51214   -105877.55014     -1388.22114        28.00014
G08  22917262.70914     55395.19814      1721.81814        25.60014
C37  23595939.47126   -450929.56626     -2628.41226        36.00026
C28  21926969.97525 -31235717.54825      -200.94925        33.10025
C33  25368396.12525 -30923669.87025      1798.03225        32.50025
R15  19957764.32725   -400543.70425     -2375.48125        33.00025
C27  24816407.75814 -31066933.04614      1303.47414        26.70014
> 2025 05 07 10 59 24.0000001  0 11                      
G10  22043542.77326    222483.21426      1216.08826        37.90026
G26  22166991.31115   -738565.98215     -4237.57815        31.60015
G27  20457647.86515     25386.42015       102.15715        29.50015
G16  20573685.83414   -449145.00114     -2612.44414        28.70014
G23  21290649.09014   -107258.42014     -1385.86614        28.10014
G08  22916694.30314     57126.05014      1725.92014        25.50014
C37  23596203.88826   -453552.60626     -2629.13226        36.00026
C28  21926767.91425 -31235912.95625      -201.39225        33.20025
C33  25367816.02625 -30921866.03125      1797.93325        32.50025
R15  19957988.27225   -403008.72125     -2376.34425        32.90025
C27  24815927.49114 -31065624.62914      1302.88614        27.30014
> 2025 05 07 10 59 24.9999998  0 11                      
G10  22042980.36226    223705.16626      1215.99726        37.80026
G26  22167474.27715   -742798.47615     -4239.12615        31.60015
G27  20457288.71415     25494.81515       102.80415        29.70015
G16  20573856.71514   -451757.37814     -2620.98614        28.70014
G23  21290585.23514   -108641.09614     -1389.44114        28.10014
G08  22916023.96714     58864.82314      1736.86914        25.40014
C37  23596383.46426   -456175.85726     -2629.16326        36.00026
C28  21926481.61325 -31236108.21125      -200.98825        33.40025
C33  25367142.09325 -30920061.83025      1798.57025        32.60025
R15  19958114.78525   -405431.68625     -2376.93925        32.80025
C27  24815341.09714 -31064317.76614      1300.27414        27.80014
> 2025 05 07 10 59 25.9999999  0 11                      
G10  22042541.76626    224926.83026      1215.65626        37.70026
G26  22168068.46615   -747029.75215     -4236.52715        31.60015
G27  20457065.06915     25601.75815       100.35415        30.00015
G16  20574151.11214   -454368.98914     -2617.08914        28.70014
G23  21290640.09714   -110027.06114     -1393.47114        28.10014
G08  22915484.04114     60608.11514      1739.68714        25.30014
C37  23596678.45926   -458799.51426     -2629.66926        36.20026
C28  21926311.33125 -31236303.63125      -201.31225        33.60025
C33  25366585.07925 -30918257.98325      1797.86025        32.70025
R15  19958350.42225   -407798.07025     -2377.63425        32.70025
C27  24814878.21714 -31063012.92914      1298.01414        27.90014
> 2025 05 07 10 59 26.9999999  0 11                      
G10  22042071.69126    226148.10026      1215.20926        37.60026
G26  22168627.27915   -751261.38015     -4237.66515        31.60015
G27  20456803.05015     25709.27015       101.93215        30.10015
G16  20574404.43614   -456981.05114     -2618.14914        28.70014
G23  21290670.07614   -111413.01214     -1391.80714        28.10014
G08  22914926.72614     62351.33114      1737.31314        25.10014
C37  23596945.27526   -461423.45626     -2629.89126        36.20026
C28  21926108.97125 -31236499.15525      -201.38725        33.70025
C33  25366000.48325 -30916454.02325      1798.20325        32.80025
R15  19958540.49025   -410081.11425     -2378.43125        32.60025
C27  24814388.95614 -31061706.07514      1302.05114        28.00014
> 2025 05 07 10 59 27.9999999  0 11                      
G10  22041620.20426    227368.95926      1214.73326        37.40026
G26  22169220.56815   -755493.44515     -4238.19815        31.60015
G27  20456568.31215     25816.43015       101.06615        30.20015
G16  20574678.14714   -459592.72114     -2617.38914        28.70014
G23  21290716.84314   -112797.87714     -1390.23914        28.00014
G08  22914383.50214     64093.84014      1736.23714        25.00014
C37  23597230.37726   -464047.83426     -2630.46026        36.20026
C28  21925928.49625 -31236694.97125      -201.82625        33.80025
C33  25365433.27625 -30914650.13425      1797.98925        32.80025
R15  19958771.03015   -412481.86915     -2383.02115        32.50015
C27  24813917.68214 -31060400.48014      1299.09914        28.30014
> 2025 05 07 10 59 28.9999999  0 11                      
G10  22041153.72726    228589.41226      1214.40526        37.30026
G26  22169790.77315   -759724.76815     -4236.79315        31.60015
G27  20456310.49115     25923.14515       100.64815        30.20015
G16  20574926.67514   -462203.40714     -2616.03814        28.60014
G23  21290744.12514   -114185.38714     -1394.67714        28.00014
G08  22913821.99114     65833.27914      1732.05714        24.80014
C37  23597496.59326   -466672.79526     -2631.04226        36.20026
C28  21925726.73525 -31236890.98225      -201.90025        33.80025
C33  25364855.87625 -30912846.50025      1797.71325        32.80025
R15  19958971.89115   -414822.25615     -2385.09015        32.30015
C27  24813426.92214 -31059094.87014      1299.82514        28.70014
> 2025 05 07 10 59 29.9999999  0 11                      
G10  22040682.45326    229809.41726      1213.91626        37.20026
G26  22170354.68315   -763955.26515     -4235.94315        31.50015
G27  20456051.17015     26027.45315        97.24115        30.10015
G16  20575204.88214   -464814.18114     -2616.67914        28.60014
G23  21290764.51014   -115570.47214     -1389.73414        28.00014
G08  22913252.98514     67569.58414      1728.87414        24.60014
C37  23597764.00826   -469298.12826     -2631.32726        36.20026
C28  21925531.57025 -31237087.20325      -202.13625        33.90025
C33  25364265.58425 -30911042.85425      1797.84025        32.70025
R15  19959178.44815   -417192.46215     -2378.16315        32.20015
C27  24812948.45314 -31057790.14514      1298.47114        29.10014
> 2025 05 07 10 59 30.9999999  0 11                      
G10  22040213.57826    231028.96626      1213.45826        37.20026
G26  22170925.18815   -768188.23815     -4240.07115        31.50015
G27  20455796.34715     26130.28115        96.22515        30.10015
G16  20575463.30314   -467426.78214     -2619.37614        28.60014
G23  21290791.19214   -116959.82714     -1397.35314        28.00014
G08  22912694.17214     69303.12614      1726.29614        24.40014
C37  23598028.72526   -471923.96326     -2631.89326        36.20026
C28  21925328.61125 -31237283.62425      -202.33025        33.90025
C33  25363687.58425 -30909239.45025      1797.47325        32.70025
R15  19959390.10215   -419590.19415     -2380.54715        32.00015
C27  24812459.19214 -31056483.26814      1302.14214        29.30014
> 2025 05 07 10 59 32.0000000  0 11                      
G10  22039773.78226    232248.39626      1213.50626        37.10026
G26  22171520.87515   -772420.59015     -4237.90215        31.60015
G27  20455568.50515     26235.27215       100.20815        30.10015
G16  20575752.60314   -470042.62314     -2623.32314        28.60014
G23  21290845.15514   -118349.37514     -1395.50614        28.00014
G08  22912165.93814     71027.47914      1713.89414        24.10014
C37  23598327.91826   -474550.00726     -2631.95826        36.20026
C28  21925161.32725 -31237480.04525      -202.23125        34.10025
C33  25363136.56625 -30907435.91525      1797.78825        32.70025
R15  19959605.95215   -421849.53815     -2383.43315        31.90015
C27  24811999.61015 -31055176.99615      1300.15915        29.60015
> 2025 05 07 10 59 33.0000000  0 11                      
G10  22039304.90726    233467.42826      1212.96926        37.10026
G26  22172090.48115   -776653.58715     -4239.18015        31.60015
G27  20455313.68115     26340.29115        99.17015        30.10015
G16  20576007.72614   -472657.18014     -2619.77514        28.50014
G23  21290879.63114   -119737.37214     -1393.08414        28.00014
G08  22911602.62814     72748.02414      1712.77714        23.90014
C37  23598595.93226   -477176.47526     -2632.48626        36.30026
C28  21924962.86425 -31237676.64625      -202.50225        34.40025
C33  25362551.07125 -30905632.45525      1797.61125        32.70025
R15  19959834.69415   -424339.78515     -2387.23115        31.70015
C27  24811516.94415 -31053869.91215      1301.67915        29.60015
> 2025 05 07 10 59 34.0000000  0 11                      
G10  22038858.81626    234686.08526      1212.55126        37.10026
G26  22172667.28215   -780886.89515     -4239.37815        31.60015
G27  20455073.24715     26444.81815        98.36415        30.40015
G16  20576287.43314   -475271.12514     -2619.55614        28.50014
G23  21290918.60414   -121126.84214     -1396.12414        28.00014
G08  22911055.50614     74468.80114      1714.97314        23.70014
C37  23598883.43326   -479803.28526     -2632.84426        36.30026
C28  21924782.38925 -31237873.40625      -202.70325        34.50025
C33  25361983.26425 -30903828.96125      1797.64625        32.70025
R15  19960061.63715   -426720.65815     -2380.90015        31.60015
C27  24811046.27015 -31052560.99615      1303.96715        29.60015
> 2025 05 07 10 59 35.0000000  0 11                      
G10  22038387.54226    235904.26526      1212.09526        37.00026
G26  22173240.78515   -785118.96215     -4237.28815        31.80015
G27  20454819.02315     26550.15215        99.89115        30.60015
G16  20576547.05314   -477884.01614     -2618.20714        28.50014
G23  21290953.67914   -122518.21214     -1398.16314        28.00014
G08  22910487.69913     76189.79413      1715.25513        23.40013
C37  23599149.64926   -482430.68726     -2633.48726        36.50026
C28  21924582.12825 -31238070.41925      -202.93125        34.60025
C33  25361402.86625 -30902025.76725      1797.25025        32.70025
R15  19960284.68215   -429179.55915     -2384.65915        31.50015
C27  24810558.80815 -31051254.80415      1299.03515        29.50015
> 2025 05 07 10 59 36.0000000  0 11                      
G10  22037923.46326    237122.16526      1211.89626        36.90026
G26  22173819.38415   -789351.65415     -4238.86415        32.00015
G27  20454560.00315     26655.01315        98.76315        30.80015
G16  20576818.66514   -480500.10314     -2623.54614        28.60014
G23  21290977.96314   -123909.86914     -1397.66314        28.00014
G08  22909922.59113     77911.39713      1716.04313        23.20013
C37  23599419.46226   -485058.49126     -2633.81426        36.80026
C28  21924389.06125 -31238267.64425      -203.14025        34.70025
C33  25360819.47025 -30900222.64225      1797.28025        32.70025
R15  19960482.24615   -431501.59815     -2384.68015        31.40015
C27  24810071.04515 -31049947.38115      1302.22915        29.50015
> 2025 05 07 10 59 37.0000000  0 11                      
G10  22037452.48926    238339.68826      1211.47026        36.90026
G26  22174382.39525   -793584.90425     -4239.39025        32.10025
G27  20454309.97615     26756.24415        93.55215        31.00015
G16  20577073.48814   -483115.46314     -2620.85714        28.60014
G23  21291005.84314   -125303.80814     -1400.94114        28.00014
G08  22909366.17613     79640.07213      1726.34713        22.90013
C37  23599685.67826   -487686.57326     -2634.02726        37.00026
C28  21924186.70125 -31238464.90025      -203.08125        34.80025
C33  25360236.67325 -30898419.45125      1797.41225        32.60025
R15  19960697.49715   -433919.20715     -2385.70115        31.30015
C27  24809586.28115 -31048644.60315      1294.64315        29.50015
> 2025 05 07 10 59 38.0000001  0 11                      
G10  22037014.49226    239556.80326      1211.04826        36.80026
G26  22174984.97725   -797818.59325     -4239.76725        32.20025
G27  20454084.23215     26861.47215       101.36215        31.20015
G16  20577362.18914   -485731.24814     -2621.85914        28.60014
G23  21291061.00514   -126695.08614     -1395.81114        28.00014
G08  22908819.35413     81375.10213      1732.34213        22.70013
C37  23599985.17026   -490315.12526     -2634.59626        37.30026
C28  21924014.62125 -31238662.43125      -203.47825        34.80025
C33  25359679.95925 -30896616.42825      1797.12825        32.60025
R15  19960919.64315   -436212.95615     -2388.00015        31.20015
C27  24809124.60014 -31047338.18814      1302.42414        29.40014
> 2025 05 07 10 59 39.0000000  0 11                      
G10  22036535.42426    240773.80226      1211.02126        36.80026
G26  22175540.79325   -802052.24225     -4239.54525        32.40025
G27  20453822.51315     26967.14215        99.97415        31.20015
G16  20577609.81714   -488345.36514     -2619.19914        28.60014
G23  21291088.58614   -128089.22914     -1401.49114        28.10014
G08  22908253.94613     83114.48013      1735.63313        22.40013
C37  23600240.29426   -492943.93026     -2634.79326        37.50026
C28  21923804.16625 -31238859.90525      -203.31025        34.80025
C33  25359091.16625 -30894813.28325      1797.34225        32.50025
R15  19961124.10115   -438634.35515     -2390.14015        31.20015
C27  24808623.64714 -31046029.05814      1304.62114        29.40014
> 2025 05 07 10 59 40.0000001  0 11                      
G10  22036096.52826    241990.22326      1210.28726        36.70026
G26  22176137.97925   -806286.41125     -4240.27125        32.50025
G27  20453598.26915     27073.02615       100.14515        31.20015
G16  20577901.51514   -490961.85914     -2623.52514        28.70014
G23  21291151.24314   -129483.42014     -1400.06114        28.10014
G08  22907717.91713     84860.82113      1743.97613        22.10013
C37  23600537.98826   -495573.23626     -2635.34726        37.60026
C28  21923638.68125 -31239057.76925      -203.85025        34.90025
C33  25358536.85025 -30893010.37725      1796.99125        32.50025
R15  19961377.72615   -441096.31415     -2389.46415        31.10015
C27  24808164.66514 -31044723.83114      1297.48214        29.30014
> 2025 05 07 10 59 40.9999998  0 11                      
G10  22035539.51326    243206.16026      1209.83026        36.70026
G26  22176616.14825   -810520.81625     -4240.38125        32.70025
G27  20453245.11315     27177.83915        98.41415        31.20015
G16  20578074.79514   -493579.52714     -2624.11614        28.70014
G23  21291093.08314   -130881.16614     -1405.38414        28.10014
G08  22907053.27713     86611.54513      1747.05013        21.80013
C37  23600717.86326   -498203.07126     -2635.90726        37.70026
C28  21923349.08125 -31239255.82925      -203.96725        34.90025
C33  25357857.52125 -30891207.45925      1797.11325        32.40025
R15  19961495.84415   -443474.92815     -2386.14315        31.00015
C27  24807595.35914 -31043421.01914      1295.79414        29.30014
> 2025 05 07 10 59 41.9999999  0 11                      
G10  22035106.01426    244421.75026      1209.55326        36.70026
G26  22177216.03325   -814755.54025     -4240.74425        32.80025
G27  20453019.96915     27281.48615        97.20115        31.10015
G16  20578363.49514   -496196.50414     -2622.49314        28.70014
G23  21291144.94714   -132276.92514     -1400.62914        28.00014
G08  22906515.44913     88355.88613      1735.28513        21.60013
C37  23601014.35826   -500833.28826     -2636.21626        37.70026
C28  21923179.09925 -31239454.00525      -204.04425        34.90025
C33  25357313.09725 -30889404.87625      1796.60525        32.40025
R15  19961735.67815   -445864.25315     -2387.07415        30.90015
C27  24807134.87814 -31042114.83014      1302.06714        29.30014
> 2025 05 07 10 59 42.9999999  0 11                      
G10  22034636.53926    245637.10426      1209.37226        36.70026
G26  22177786.23825   -818990.94525     -4240.85625        32.90025
G27  20452763.64615     27385.07515        97.69715        31.10015
G16  20578616.52014   -498816.06714     -2626.71714        28.70014
G23  21291164.13414   -133671.40714     -1399.70614        28.00014
G08  22905947.34313     90088.40613      1720.74513        21.50013
C37  23601281.77326   -503463.84926     -2636.54126        37.70026
C28  21922978.23825 -31239652.32425      -204.20025        34.80025
C33  25356721.90725 -30887602.15625      1796.97825        32.40025
R15  19961938.03815   -448212.28715     -2394.90315        30.80015
C27  24806647.11614 -31040808.92114      1299.95714        29.30014
> 2025 05 07 10 59 43.9999999  0 11                      
G10  22034163.16626    246851.96726      1208.75226        36.70026
G26  22178352.84625   -823226.22525     -4241.32625        33.10025
G27  20452498.63015     27489.00715        98.24015        31.00015
G16  20578875.84114   -501433.46214     -2622.17314        28.60014
G23  21291192.91414   -135066.91014     -1401.87514        27.90014
G08  22905366.34513     91814.11713      1716.44113        21.50013
C37  23601547.38926   -506094.89826     -2637.10126        37.70026
C28  21922776.17825 -31239850.97125      -204.62125        34.80025
C33  25356138.81025 -30885799.61725      1796.63625        32.40025
R15  19962149.39215   -450608.49015     -2390.14115        30.60015
C27  24806159.95314 -31039503.82414      1298.88014        29.30014
> 2025 05 07 10 59 44.9999999  0 11                      
G10  22033719.77326    248066.44126      1208.36126        36.70026
G26  22178940.13925   -827461.70525     -4241.49725        33.20025
G27  20452262.69315     27590.47115        94.31115        30.90015
G16  20579162.44214   -504052.22014     -2625.35614        28.60014
G23  21291245.07814   -136465.63514     -1406.25414        27.80014
G08  22904822.22213     93536.45513      1714.73413        21.40013
C37  23601835.18926   -508726.32426     -2637.47626        37.60026
C28  21922600.79925 -31240049.55925      -204.42325        34.80025
C33  25355574.30125 -30883997.09925      1796.64125        32.40025
R15  19962352.05115   -452860.14915     -2391.49315        30.40015
C27  24805684.78214 -31038196.49914      1302.57414        29.30014
> 2025 05 07 10 59 45.9999999  0 11                      
G10  22033250.29826    249280.52226      1208.03926        36.60026
G26  22179509.44525   -831697.63825     -4241.99925        33.20025
G27  20452003.67215     27690.71515        93.78815        30.80015
G16  20579427.15914   -506674.87414     -2630.44514        28.50014
G23  21291275.95614   -137864.39114     -1404.61514        27.70014
G08  22904258.61213     95252.74213      1707.41313        21.40013
C37  23602105.00326   -511358.23626     -2637.94526        37.60026
C28  21922404.73525 -31240248.61225      -205.07825        34.70025
C33  25354993.60325 -30882194.81025      1796.38125        32.30025
R15  19962593.98415   -455419.21015     -2396.04315        30.20015
C27  24805204.51414 -31036888.00614      1303.28414        29.20014
> 2025 05 07 10 59 46.9999999  0 11                      
G10  22032779.62426    250494.34326      1207.82626        36.60026
G26  22180078.15125   -835933.59425     -4241.82825        33.30025
G27  20451739.85515     27792.24215        96.30615        30.70015
G16  20579690.37714   -509297.16714     -2627.97314        28.40014
G23  21291296.04214   -139256.20414     -1394.20314        27.70014
G08  22903696.80113     96968.25713      1709.26513        21.30013
C37  23602374.21626   -513990.51326     -2638.26626        37.60026
C28  21922202.97525 -31240447.63325      -204.81325        34.70025
C33  25354407.20925 -30880392.46025      1796.57025        32.30025
R15  19962778.65615   -457674.72915     -2396.07715        30.00015
C27  24804717.05214 -31035581.29614      1300.00714        29.20014
> 2025 05 07 10 59 47.9999999  0 11                      
G10  22032308.95026    251707.58626      1207.09026        36.60026
G26  22180638.16425   -840169.96325     -4242.43625        33.40025
G27  20451487.73015     27891.38915        92.09315        30.60015
G16  20579961.68914   -511918.28614     -2626.39314        28.30014
G23  21291326.62114   -140647.04314     -1396.21414        27.60014
G08  22903146.38213     98684.95813      1711.43013        21.10013
C37  23602643.43026   -516623.14526     -2638.61826        37.50026
C28  21922006.01125 -31240646.93225      -205.24825        34.70025
C33  25353826.21125 -30878590.23125      1796.35725        32.20025
R15  19962999.00315   -460119.10015     -2395.82115        29.90015
C27  24804231.68814 -31034274.11514      1301.60614        29.20014
> 2025 05 07 10 59 49.0000000  0 11                      
G10  22031870.05426    252920.55126      1206.96126        36.60026
G26  22181242.54525   -844406.63025     -4242.67625        33.50025
G27  20451258.98815     27991.39815        94.57615        30.50015
G16  20580250.08914   -514538.86914     -2626.17814        28.20014
G23  21291381.18414   -142042.73814     -1403.98514        27.50014
G08  22902607.65513    100403.98913      1714.33013        21.00013
C37  23602943.52226   -519256.38326     -2639.35026        37.40026
C28  21921835.42925 -31240846.41125      -205.38025        34.70025
C33  25353270.09625 -30876788.07625      1796.30725        32.20025
R15  19963246.63215   -462548.18415     -2400.31515        29.90015
C27  24803768.50814 -31032967.52214      1300.48814        29.10014
> 2025 05 07 10 59 49.9999999  0 11                      
G10  22031390.98526    254133.13726      1206.47926        36.60026
G26  22181805.25625   -848643.48125     -4242.85825        33.50025
G27  20450986.47715     28092.90815        96.34215        30.40015
G16  20580497.71814   -517161.56014     -2629.66014        28.20014
G23  21291398.27214   -143444.16414     -1410.20914        27.50014
G08  22902031.75313    102126.54013      1718.39213        20.90013
C37  23603197.74626   -521889.84526     -2639.43626        37.40026
C28  21921625.57425 -31241045.95025      -205.43325        34.70025
C33  25352679.20515 -30874985.50315      1796.91615        32.10015
R15  19963426.50715   -464839.60015     -2400.36415        29.80015
C27  24803275.35014 -31031661.75514      1299.48814        29.10014
> 2025 05 07 10 59 51.0000000  0 11                      
G10  22030953.58826    255345.19726      1205.95026        36.60026
G26  22182401.54325   -852880.67125     -4243.20225        33.70025
G27  20450762.83115     28193.22515        93.87615        30.40015
G16  20580789.11614   -519787.00314     -2632.66314        28.40014
G23  21291465.42514   -144845.40414     -1406.99014        27.30014
G08  22901493.02613    103852.89713      1722.41413        20.80013
C37  23603496.93926   -524523.93526     -2640.19326        37.40026
C28  21921453.19425 -31241245.97725      -206.06225        34.60025
C33  25352123.09015 -30873185.94615      1792.25515        32.00015
R15  19963675.33515   -467276.32415     -2397.24715        29.80015
C27  24802813.66914 -31030354.74514      1301.83914        29.00014
> 2025 05 07 10 59 52.0000000  0 11                      
G10  22030487.11126    256556.83126      1205.55826        36.60026
G26  22182974.44625   -857118.35425     -4243.78925        33.80025
G27  20450507.10915     28290.35615        89.67415        30.50015
G16  20581051.73414   -522411.31014     -2629.59814        28.50014
G23  21291483.41314   -146247.68714     -1408.66614        27.20014
G08  22900910.53013    105582.72413      1725.69813        20.70013
C37  23603761.65626   -527158.48726     -2640.59226        37.40026
C28  21921257.42925 -31241446.13125      -206.02725        34.60025
C33  25351544.19115 -30871383.08915      1798.69615        31.90015
R15  19963886.98915   -469673.29415     -2397.63015        29.90015
C27  24802318.71214 -31029046.09014      1303.66714        28.90014
> 2025 05 07 10 59 53.0000000  0 11                      
G10  22030022.13326    257768.05226      1205.15026        36.60026
G26  22183536.85725   -861356.28125     -4243.90925        33.80025
G27  20450249.28715     28389.37115        94.09415        30.70015
G16  20581319.14914   -525032.84414     -2626.00914        28.50014
G23  21291507.39614   -147650.17314     -1408.45114        27.10014
G08  22900333.12913    107315.86713      1728.93513        21.10013
C37  23604035.36626   -529793.62226     -2641.23426        37.30026
C28  21921059.26625 -31241646.45725      -206.22125        34.60025
C33  25350957.79715 -30869582.10615      1794.23415        31.80015
R15  19964101.34015   -472085.55415     -2402.25015        30.00015
C27  24801834.84714 -31027739.99914      1298.99814        28.90014
> 2025 05 07 10 59 54.0000000  0 11                      
G10  22029559.85326    258979.06126      1205.03826        36.60026
G26  22184112.75825   -865594.30925     -4243.93925        33.80025
G27  20449989.36715     28489.09315        94.21315        30.70015
G16  20581580.86814   -527655.84614     -2629.59714        28.70014
G23  21291541.57214   -149053.17814     -1409.12514        27.00014
G08  22899769.81913    109047.46513      1724.96213        22.10013
C37  23604303.38126   -532428.81826     -2641.03426        37.20026
C28  21920861.10425 -31241846.92525      -206.34925        34.50025
C33  25350381.89615 -30867780.29115      1796.42015        31.80015
R15  19964314.79215   -474492.46115     -2397.96315        30.30015
C27  24801347.68414 -31026432.99414      1301.65114        28.80014
> 2025 05 07 10 59 55.0000000  0 11                      
G10  22029105.96726    260189.49726      1204.23026        36.70026
G26  22184703.34925   -869832.74025     -4244.54725        33.80025
G27  20449753.43015     28585.85415        89.36115        30.80015
G16  20581856.97714   -530284.74114     -2637.75814        28.80014
G23  21291594.93614   -150456.95714     -1410.08314        26.90014
G08  22899205.01013    110779.65513      1726.56613        22.50013
C37  23604591.78126   -535064.63026     -2641.98426        37.20026
C28  21920678.53025 -31242047.55125      -206.57025        34.60025
C33  25349811.09115 -30865975.84315      1799.89815        31.90015
R15  19964549.23015   -476915.38815     -2402.77315        30.30015
C27  24800877.90914 -31025129.00014      1296.62314        28.80014
> 2025 05 07 10 59 56.0000000  0 11                      
G10  22028635.89326    261399.69826      1204.23826        36.80026
G26  22185272.65525   -874071.47025     -4244.72225        34.00025
G27  20449504.90215     28681.76515        89.64215        30.80015
G16  20582125.29114   -532912.68314     -2633.30914        29.10014
G23  21291625.81414   -151863.31714     -1413.49514        26.70014
G08  22898642.89913    112516.14813      1732.79713        22.60013
C37  23604861.89426   -537700.83626     -2642.19226        37.10026
C28  21920481.56625 -31242248.47225      -206.85925        34.60025
C33  25349230.09315 -30864175.44615      1792.58015        31.90015
R15  19964765.08115   -479335.29415     -2404.16215        30.30015
C27  24800381.15314 -31023828.19214      1293.42214        28.80014
> 2025 05 07 10 59 57.0000001  0 11                      
G10  22028205.39126    262609.53926      1203.79726        36.90026
G26  22185871.64125   -878310.36125     -4244.83125        34.30025
G27  20449282.15715     28780.73115        94.63015        30.70015
G16  20582414.29114   -535538.10414     -2630.02214        29.20014
G23  21291690.86914   -153273.78714     -1418.38814        26.50014
G08  22898120.36113    114252.99813      1731.16513        22.90013
C37  23605160.78726   -540337.43126     -2642.59726        37.00026
C28  21920311.88425 -31242449.41725      -206.76625        34.70025
C33  25348677.27615 -30862374.03715      1796.10315        31.90015
R15  19964993.82215   -481664.21215     -2401.98815        30.40015
C27  24799925.16914 -31022527.32814      1295.08214        28.70014
> 2025 05 07 10 59 57.9999998  0 11                      
G10  22027645.07926    263818.77626      1203.07026        36.90026
G26  22186356.40525   -882549.74325     -4245.48725        34.60025
G27  20448935.59615     28877.90215        90.41015        30.70015
G16  20582578.27814   -538165.39914     -2634.09314        29.40014
G23  21291624.91514   -154685.48114     -1418.16814        26.20014
G08  22897458.12013    115989.20713      1730.02313        22.90013
C37  23605341.86226   -542974.59326     -2643.25426        36.90026
C28  21920024.38325 -31242650.81425      -207.43325        34.80025
C33  25348003.64215 -30860574.69715      1792.49315        31.90015
R15  19965114.63915   -484057.35915     -2405.05015        30.40015
C27  24799349.26814 -31021227.81214      1293.03114        28.70014
> 2025 05 07 10 59 58.9999999  0 11                      
G10  22027207.98126    265027.57926      1202.72226        37.00026
G26  22186951.19325   -886789.32925     -4245.54925        34.70025
G27  20448710.15315     28971.59815        86.09615        30.70015
G16  20582874.47314   -540795.16614     -2636.86414        29.40014
G23  21291678.57814   -156095.77614     -1415.45914        26.00014
G08  22896931.98413    117721.88713      1725.05213        22.90013
C37  23605639.85626   -545612.18826     -2643.61926        36.80026
C28  21919857.39825 -31242852.36625      -207.44025        34.90025
C33  25347446.32815 -30858772.49415      1797.82415        31.80015
R15  19965353.87315   -486442.09315     -2407.83915        30.40015
C27  24798888.78714 -31019923.14414      1301.43214        28.60014
> 2025 05 07 10 59 59.9999998  0 11                      
G10  22026728.91326    266235.97826      1202.27726        37.10026
G26  22187506.70925   -891029.39225     -4246.21625        34.90025
G27  20448442.43815     29067.07915        90.45615        30.70015
G16  20583134.09314   -543424.16514     -2634.53114        29.40014
G23  21291686.37214   -157501.18014     -1408.87514        25.80014
G08  22896351.58613    119448.15813      1717.14613        23.20013
C37  23605898.87626   -548250.20326     -2644.08726        36.60026
C28  21919650.54225 -31243054.21125      -207.85425        35.10025
C33  25346853.33915 -30856970.93515      1795.37215        31.80015
R15  19965561.33015   -488880.31015     -2405.01415        30.30015
C27  24798389.93214 -31018615.65114      1303.04014        28.50014
> 2025 05 07 11 00 00.9999998  0 11                      
G10  22026296.01326    267444.12026      1202.16826        37.10026
G26  22188108.99225   -895269.48225     -4245.94525        35.10025
G27  20448214.59615     29163.54415        91.11115        30.60015
G16  20583419.79514   -546052.17914     -2633.36514        29.30014
G23  21291744.53214   -158905.42714     -1409.51314        25.60014
G08  22895809.56114    121177.03714      1724.33714        24.10014
C37  23606195.97126   -550888.62026     -2644.40926        36.40026
C28  21919480.55925 -31243256.12125      -207.73425        35.30025
C33  25346299.32215 -30855171.85715      1792.04415        31.80015
R15  19965802.36315   -491274.22015     -2404.85115        30.30015
C27  24797934.84714 -31017308.70514      1300.88114        28.40014
> 2025 05 07 11 00 01.9999999  0 11                      
G10  22025824.13926    268651.64926      1201.35826        37.10026
G26  22188680.69625   -899510.06325     -4246.68625        35.40025
G27  20447959.47215     29259.02715        89.13015        30.60015
G16  20583689.90814   -548683.68414     -2639.11214        29.20014
G23  21291792.49914   -160308.97914     -1409.06714        25.50014
G08  22895240.85514    122908.64414      1727.10714        24.50014
C37  23606464.58526   -553527.56126     -2645.01026        36.30026
C28  21919281.49725 -31243458.21925      -208.00325        35.30025
C33  25345715.02715 -30853370.83015      1796.19015        31.80015
R15  19966001.12515   -493603.90515     -2407.41715        30.20015
C27  24797450.68214 -31016003.26714      1298.87214        28.30014
> 2025 05 07 11 00 02.9999998  0 11                      
G10  22025356.16326    269858.95326      1201.32726        37.10026
G26  22189250.30226   -903750.78426     -4246.65126        35.60026
G27  20447698.05315     29354.90115        90.20615        30.60015
G16  20583957.62314   -551315.62314     -2638.01614        29.10014
G08  22894680.24314    124638.92114      1723.74614        24.80014
G23  21291819.18014   -161712.95214     -1410.04514        25.30014
C37  23606732.00026   -556166.77826     -2645.16326        36.10026
C28  21919084.23426 -31243660.40626      -208.04026        35.50026
C33  25345129.83215 -30851569.61715      1795.49415        31.80015
R15  19966221.17315   -496046.75015     -2410.23515        30.10015
C27  24796963.22014 -31014696.67214      1301.36114        28.30014
> 2025 05 07 11 00 03.9999998  0 11                      
G10  22024891.48526    271065.87726      1200.86926        37.10026
G26  22189819.60826   -907991.78726     -4247.00326        35.70026
G27  20447451.92415     29449.56915        88.20115        30.50015
G16  20584221.14014   -553943.48614     -2631.68714        29.00014
G08  22894115.73314    126368.91114      1723.98314        25.10014
G23  21291845.56214   -163120.19414     -1414.73814        25.20014
C28  21918887.57026 -31243862.97026      -208.56426        35.70026
C37  23607002.41226   -558806.43226     -2645.68226        36.00026
C33  25344555.72915 -30849768.68715      1794.97715        31.90015
R15  19966444.81815   -498508.70615     -2407.48815        30.10015
C27  24796479.35514 -31013394.31714      1294.42414        28.20014
> 2025 05 07 11 00 04.9999999  0 11                      
G10  22024439.69826    272272.45126      1200.48126        37.30026
G26  22190408.40026   -912233.00226     -4247.23826        35.80026
G27  20447209.39115     29543.30815        87.35715        30.40015
G16  20584490.65414   -556575.86714     -2640.55614        28.90014
G08  22893565.01514    128099.50814      1724.98014        25.40014
G23  21291897.72614   -164532.03114     -1420.05314        25.10014
C28  21918704.69626 -31244065.52226      -208.40926        36.00026
C37  23607292.91126   -561446.48926     -2646.12026        35.90026
C33  25343987.02315 -30847968.23115      1794.35415        32.20015
R15  19966672.66015   -500894.16715     -2409.13115        30.10015
C27  24796006.28214 -31012092.11014      1296.26914        28.00014
> 2025 05 07 11 00 05.9999999  0 11                      
G10  22023975.01926    273478.75726      1200.32526        37.40026
G26  22190973.20926   -916474.52126     -4247.51226        35.90026
G27  20446962.36315     29637.09815        87.97115        30.30015
G16  20584748.77514   -559213.20014     -2645.65214        28.70014
G08  22893002.90414    129825.87614      1718.40714        25.70014
G23  21291934.60014   -165946.73914     -1421.98614        24.90014
C28  21918508.63226 -31244268.21626      -208.55826        36.20026
C37  23607566.62226   -564086.87226     -2646.33626        35.90026
C33  25343404.52625 -30846167.72825      1794.73325        32.20025
R15  19966895.10615   -503350.01115     -2407.37415        30.00015
C27  24795514.62214 -31010790.43714      1295.61214        27.90014
> 2025 05 07 11 00 06.9999999  0 11                      
G10  22023506.14426    274684.55726      1199.68426        37.40026
G26  22191552.40826   -920716.38326     -4247.89326        35.90026
G27  20446710.53715     29731.23615        88.44715        30.30015
G16  20585016.78914   -561847.80414     -2639.10114        28.50014
G08  22892433.89814    131555.38414      1725.21414        25.80014
G23  21291975.67214   -167359.90914     -1418.26414        24.90014
C28  21918311.06926 -31244471.22326      -208.97226        36.20026
C37  23607830.73926   -566727.80826     -2647.02026        35.80026
C33  25342823.52825 -30844367.55025      1794.20425        32.20025
R15  19967101.66315   -505720.21715     -2411.74715        30.00015
C27  24795032.85614 -31009487.56614      1297.65814        27.70014
> 2025 05 07 11 00 08.0000000  0 11                      
G10  22023071.44526    275890.05526      1199.48226        37.40026
G26  22192148.69526   -924958.40026     -4247.95426        35.90026
G27  20446488.99015     29826.19015        89.49915        30.20015
G16  20585317.78114   -564479.65314     -2636.33314        28.40014
G08  22891893.67214    133287.44814      1727.47714        25.90014
G23  21292024.23814   -168767.94914     -1411.33714        24.80014
C28  21918142.88526 -31244674.39426      -209.06426        36.20026
C37  23608133.52926   -569369.15526     -2647.36126        35.80026
C33  25342270.11125 -30842567.27825      1794.50825        32.50025
R15  19967340.59815   -508103.42315     -2413.92515        29.90015
C27  24794571.47514 -31008182.23914      1300.74514        27.50014
> 2025 05 07 11 00 09.0000000  0 11                      
G10  22022602.27026    277094.82226      1198.53826        37.30026
G26  22192713.80426   -929201.04826     -4248.82426        36.00026
G27  20446235.66615     29918.51915        85.15315        30.30015
G16  20585587.29414   -567113.33714     -2640.46114        28.30014
G08  22891330.06214    135018.37714      1724.49814        26.20014
G23  21292056.31614   -170177.16814     -1415.67014        24.70014
C28  21917945.02226 -31244877.84726      -209.40326        36.20026
C37  23608404.24226   -572011.08226     -2648.02526        35.80026
C33  25341691.81225 -30840767.36825      1793.91725        32.50025
R15  19967542.35815   -510448.39915     -2411.47615        29.90015
C27  24794086.71114 -31006873.39314      1304.79514        27.20014
> 2025 05 07 11 00 10.0000000  0 11                      
G10  22022151.08226    278299.61126      1198.88026        37.30026
G26  22193305.59426   -933443.30026     -4247.96926        36.00026
G27  20445998.23015     30011.94715        88.06015        30.30015
G16  20585868.20014   -569748.15414     -2641.30014        28.30014
G08  22890775.74614    136748.99714      1724.54514        26.50014
G23  21292104.58314   -171586.88714     -1415.88714        24.70014
C28  21917766.04626 -31245081.23026      -209.21226        36.10026
C37  23608690.54426   -574653.02726     -2647.81726        35.70026
C33  25341127.60225 -30838967.16425      1794.48625        32.60025
R15  19967793.58415   -512960.01715     -2412.12015        29.90015
C27  24793615.73714 -31005564.79114      1302.61314        26.70014
> 2025 05 07 11 00 11.0000000  0 11                      
G10  22021690.00126    279503.97126      1198.30026        37.20026
G26  22193879.69726   -937686.15426     -4248.99726        36.00026
G27  20445734.41315     30104.86415        86.81615        30.40015
G16  20586130.21914   -572381.73814     -2638.81114        28.50014
G08  22890218.13214    138476.07814      1719.46514        26.60014
G23  21292139.05914   -172999.09714     -1419.29914        24.70014
C28  21917566.38526 -31245284.85626      -209.53926        36.10026
C37  23608960.35726   -577295.63826     -2648.73326        35.70026
C33  25340547.20425 -30837167.23925      1793.99325        32.80025
R15  19968003.43915   -515349.34015     -2417.40815        29.80015
C27  24793130.07314 -31004259.79914      1297.39514        26.20014
> 2025 05 07 11 00 12.0000000  0 11                      
G10  22021224.12426    280708.07126      1198.10626        37.10026
G26  22194446.60426   -941929.03626     -4248.75626        35.90026
G27  20445475.69215     30197.32615        86.37015        30.40015
G16  20586396.43414   -575016.12014     -2640.64214        28.90014
G08  22889659.91814    140204.38414      1723.05414        26.80014
G23  21292171.13714   -174412.16714     -1419.36114        24.70014
C28  21917370.32026 -31245488.34326      -209.22726        36.00026
C37  23609234.96726   -579938.34726     -2648.56526        35.60026
C33  25339965.60725 -30835367.09225      1794.44625        33.00025
R15  19968224.08615   -517796.00515     -2416.16715        29.80015
C27  24792641.71114 -31002954.75114      1299.26514        25.80014
> 2025 05 07 11 00 13.0000000  0 11                      
G10  22020751.65126    281911.73926      1197.58726        36.90026
G26  22195019.80826   -946172.49926     -4249.61226        35.80026
G27  20445224.76515     30288.15615        84.15215        30.40015
G16  20586660.85114   -577651.23314     -2641.33914        29.10014
G08  22889094.51014    141931.64214      1720.86914        27.10014
G23  21292206.81214   -175828.10214     -1423.23014        24.60014
C28  21917171.25826 -31245692.33826      -210.05926        35.90026
C37  23609502.38226   -582581.55426     -2649.26526        35.50026
C33  25339378.61325 -30833567.18825      1793.97125        33.10025
R15  19968433.64115   -520183.03415     -2413.45115        29.80015
C27  24792155.44814 -31001652.62714      1294.85114        25.50014
> 2025 05 07 11 00 14.0000001  0 11                      
G10  22020317.25226    283115.06526      1197.29226        36.80026
G26  22195624.78926   -950415.92926     -4249.27426        35.80026
G27  20445001.12015     30379.63915        85.94515        30.40015
G16  20586961.54314   -580286.76314     -2641.60114        29.20014
G08  22888553.68414    143661.20914      1724.85714        27.20014
G23  21292277.26314   -177243.81514     -1421.46514        24.50014
C28  21917000.37626 -31245896.36126      -209.84726        35.80026
C37  23609804.57225   -585225.22825     -2649.71525        35.40025
C33  25338825.19625 -30831767.28425      1794.09325        33.20025
R15  19968678.27215   -522596.05915     -2420.09615        29.70015
C27  24791688.37114 -31000349.40314      1297.96414        25.30014
> 2025 05 07 11 00 15.0000000  0 11                      
G10  22019839.98226    284317.87926      1196.63826        36.70026
G26  22196184.80126   -954659.70726     -4249.86726        35.70026
G27  20444731.00715     30470.08315        84.00715        30.30015
G16  20587207.97214   -582925.00814     -2645.51814        29.30014
G08  22887970.28814    145387.23114      1718.33014        27.30014
G23  21292297.94914   -178661.32714     -1424.32814        24.40014
C28  21916791.72126 -31246100.54426      -210.12726        35.80026
C37  23610067.49025   -587869.20325     -2649.98825        35.40025
C33  25338227.71025 -30829967.63625      1793.65425        33.20025
R15  19968880.03215   -525004.45615     -2415.98215        29.60015
C27  24791190.71614 -30999043.09414      1301.98514        25.10014
> 2025 05 07 11 00 16.0000001  0 11                      
G10  22019399.28726    285520.34626      1196.44826        36.50026
G26  22196790.08226   -958903.89326     -4250.23326        35.60026
G27  20444508.26115     30561.11115        85.47515        30.30015
G16  20587518.55715   -585563.43815     -2644.36615        29.50015
G08  22887433.95914    147115.91014      1724.16214        27.40014
G23  21292344.11714   -180078.29714     -1422.54314        24.30014
C28  21916624.43726 -31246305.07926      -210.50226        35.80026
C37  23610366.38325   -590513.85125     -2650.77525        35.30025
C33  25337674.89325 -30828167.98225      1793.86425        33.20025
R15  19969129.16015   -527441.94915     -2418.37315        29.60015
C27  24790736.83014 -30997736.80014      1300.49314        25.00014
> 2025 05 07 11 00 16.9999998  0 11                      
G10  22018843.77226    286722.46326      1196.07826        36.40026
G26  22197265.55326   -963148.41426     -4250.54626        35.60026
G27  20444167.69715     30651.04015        83.51715        30.20015
G16  20587693.33615   -588203.08815     -2646.12015        29.70015
G08  22886787.30714    148845.79214      1724.61814        27.60014
G23  21292285.05814   -181493.75214     -1420.55914        24.20014
C28  21916337.53526 -31246509.76826      -210.57726        35.90026
C37  23610546.85926   -593158.80626     -2650.91726        35.50026
C33  25337005.15625 -30826368.54725      1793.51425        33.20025
R15  19969242.48115   -529794.57015     -2421.39915        29.50015
C27  24790152.23514 -30996430.61714      1300.31614        24.90014
> 2025 05 07 11 00 17.9999999  0 11                      
G26  22197861.54026   -967393.19926     -4250.77926        35.60026
G10  22018408.77326    287924.01826      1195.40926        36.30026
G27  20443941.05415     30741.14315        84.32715        30.20015
G16  20587985.93415   -590842.44215     -2645.06715        29.80015
G08  22886249.77914    150573.40914      1720.62014        27.90014
G23  21292344.11714   -182907.94714     -1419.42714        24.10014
C37  23610848.15026   -595804.25026     -2651.49626        36.10026
C28  21916169.95126 -31246714.70726      -210.87326        36.00026
C33  25336451.73925 -30824569.18825      1793.51025        33.10025
R15  19969488.31115   -532215.24215     -2421.55515        29.60015
C27  24789705.84414 -30995123.47614      1301.81014        24.80014
> 2025 05 07 11 00 19.0000001  0 11                      
G26  22198515.38826   -971638.14826     -4250.94626        35.80026
G10  22018019.04326    289125.33526      1195.27926        36.10026
G27  20443770.47215     30830.30415        82.77115        30.10015
G16  20588334.89215   -593481.76415     -2645.22315        29.90015
G08  22885756.92014    152304.59814      1727.05514        28.10014
G23  21292455.64014   -184323.40214     -1422.00314        24.10014
C37  23611198.30826   -598449.97526     -2651.72826        36.50026
C28  21916052.73226 -31246919.63526      -210.78726        36.00026
C33  25335945.39025 -30822769.83625      1793.48325        33.10025
R15  19969772.81415   -534583.88215     -2424.38915        29.60015
C27  24789292.73014 -30993815.11214      1303.11014        24.80014
> 2025 05 07 11 00 19.9999998  0 11                      
G26  22198997.15426   -975883.36326     -4251.18926        36.00026
G10  22017465.92626    290326.19026      1194.77726        36.00026
G16  20588511.17015   -596120.09415     -2643.67615        30.00015
G27  20443434.10515     30919.28215        83.04115        30.10015
G08  22885109.96814    154031.75514      1719.29514        28.30014
G23  21292408.87214   -185742.98414     -1427.48814        24.00014
C37  23611380.88126   -601096.27626     -2652.37926        36.80026
C28  21915762.53326 -31247124.99526      -211.36826        36.00026
C33  25335274.45425 -30820970.63125      1793.33825        33.10025
R15  19969906.52115   -537045.84015     -2422.04915        29.70015
C27  24788713.53114 -30992507.86114      1300.90114        24.70014
> 2025 05 07 11 00 20.9999999  0 11                      
G26  22199597.63826   -980128.82826     -4251.44926        36.30026
G10  22017034.82426    291526.73026      1194.51926        35.80026
G16  20588804.36715   -598760.40915     -2647.16915        30.10015
G27  20443194.27115     31007.09215        81.36315        30.10015
G08  22884572.14014    155759.99414      1722.91514        28.50014
G23  21292483.82014   -187164.92714     -1428.98614        24.00014
C37  23611683.07226   -603742.88726     -2652.57426        36.90026
C28  21915596.74826 -31247330.33826      -211.14326        36.00026
C33  25334722.83625 -30819171.57825      1793.16625        33.10025
R15  19970152.65115   -539468.03815     -2419.31015        29.70015
C27  24788255.44814 -30991204.30114      1295.90414        24.80014
> 2025 05 07 11 00 21.9999999  0 11                      
G26  22200167.54426   -984374.61426     -4251.80726        36.50026
G10  22016559.95326    292726.85326      1194.05126        35.60026
G16  20589063.38815   -601400.17615     -2645.35315        30.10015
G27  20442942.14615     31097.19015        85.37815        30.10015
G08  22884002.53514    157489.45514      1724.20714        28.80014
G23  21292514.39914   -188585.60114     -1425.90114        23.90014
C37  23611954.08426   -606389.93526     -2653.07526        36.90026
C28  21915397.08626 -31247535.84626      -211.40226        36.00026
C33  25334140.93925 -30817372.44325      1793.36425        33.10025
R15  19970390.68615   -542006.45515     -2420.30915        29.60015
C27  24787767.68614 -30989899.17314      1300.10014        25.00014
> 2025 05 07 11 00 22.9999999  0 10                      
G26  22200737.74926   -988620.63626     -4252.00026        36.80026
G10  22016097.67326    293926.62326      1193.72926        35.50026
G27  20442688.22115     31188.95715        86.73815        30.00015
G16  20589329.00415   -604040.02615     -2645.75315        30.10015
G08  22883425.13414    159218.04914      1722.29614        29.10014
G23  21292538.38214   -190008.86714     -1430.42514        24.00014
C37  23612224.49726   -609037.32026     -2653.36126        36.90026
C28  21915203.42026 -31247741.55826      -211.62326        36.00026
C33  25333555.44525 -30815573.35725      1793.25125        33.10025
R15  19970597.84315   -544379.72315     -2425.81815        29.60015
> 2025 05 07 11 00 23.9999999  0 11                      
G26  22201326.84126   -992866.85226     -4252.22926        37.00026
G10  22015647.68425    295126.01125      1193.27725        35.20025
G27  20442455.28315     31282.25615        88.14715        30.00015
G16  20589612.90815   -606679.52715     -2645.24315        30.00015
G08  22882877.71314    160946.22514      1722.04614        29.40014
G23  21292595.04314   -191432.72714     -1430.07414        24.00014
C37  23612512.29826   -611685.17826     -2653.95826        36.80026
C28  21915027.14226 -31247947.43426      -211.82326        36.00026
C33  25332990.03625 -30813774.48225      1792.90325        33.20025
R15  19970810.39615   -546685.66815     -2429.79915        29.50015
C27  24786819.14224                      1296.90524        24.70024
> 2025 05 07 11 00 24.9999999  0 11                      
G26  22201897.64626   -997113.45326     -4252.63426        37.20026
G10  22015183.90515    296325.04415      1193.01015        35.00015
G16  20589884.52015   -609320.76415     -2647.94715        30.00015
G27  20442198.66015     31371.02215        80.65415        30.00015
G08  22882318.00115    162673.47415      1720.93915        29.60015
G23  21292625.32214   -192854.28914     -1426.25614        24.10014
C37  23612785.40926   -614333.48426     -2654.32026        36.70026
C28  21914828.38026 -31248153.50226      -211.95626        36.00026
C33  25332411.43625 -30811975.66425      1792.99725        33.20025
R15  19971037.63814   -549166.74014     -2429.35814        29.40014
C27  24786339.47414      1303.90914      1298.09814        25.30014
> 2025 05 07 11 00 25.9999999  0 11                      
G26  22202468.15126  -1001360.29926     -4252.83026        37.40026
G10  22014712.03215    297523.57615      1192.41715        34.70015
G16  20590150.43515   -611964.92615     -2651.48515        30.00015
G27  20441937.84115     31459.22415        82.05715        29.90015
G08  22881753.49215    164400.11415      1720.47115        29.70015
G23  21292669.39214   -194275.43614     -1426.80214        24.10014
C37  23613053.42326   -616982.11226     -2654.59526        36.60026
C28  21914629.61826 -31248359.75726      -212.15826        36.00026
C33  25331824.44325 -30810176.87225      1792.96725        33.20025
R15  19971254.68814   -551592.76214     -2424.81814        29.30014
C27  24785847.51514      2608.33114      1298.86714        26.00014
> 2025 05 07 11 00 27.0000000  0 11                      
G26  22203065.33826  -1005607.52626     -4253.27726        37.40026
G10  22014282.72925    298721.63025      1191.95225        34.50025
G16  20590443.63215   -614610.01215     -2651.41015        30.20015
G27  20441717.79315     31548.56915        84.05315        29.90015
G08  22881220.46115    166129.57415      1725.00615        29.70015
G23  21292735.64614   -195699.48614     -1431.36514        24.20014
C37  23613356.21426   -619631.42326     -2655.46226        36.50026
C28  21914459.63526 -31248566.35226      -212.57626        36.00026
C33  25331275.52325 -30808378.50725      1792.34125        33.10025
R15  19971504.71514   -554036.37014     -2427.31514        29.30014
C27  24785400.22414      3909.03114      1293.02914        26.20014
> 2025 05 07 11 00 27.9999999  0 11                      
G26  22203626.24926  -1009854.90326     -4253.36726        37.50026
G10  22013802.76125    299919.45525      1191.79125        34.30025
G16  20590702.65315   -617254.10715     -2649.51515        30.30015
G27  20441450.67815     31638.53115        84.35215        30.00015
G08  22880634.66615    167857.05115      1720.56515        29.70015
G23  21292760.52914   -197125.07814     -1432.27914        24.40014
C37  23613613.73526   -622280.97926     -2655.54126        36.40026
C28  21914250.38026 -31248772.99126      -212.52426        35.90026
C33  25330680.43525 -30806579.85625      1792.92825        33.10025
R15  19971709.47314   -556460.06114     -2427.54214        29.40014
C27  24784895.07414      5209.37614      1294.30214        26.20014
> 2025 05 07 11 00 29.0000000  0 11                      
G26  22204230.33126  -1014102.71626     -4253.87226        37.50026
G10  22013374.95815    301116.80715      1191.27015        34.00015
G16  20590998.24915   -619899.65515     -2652.11815        30.40015
G27  20441229.73115     31727.89215        83.21615        30.00015
G08  22880112.12815    169585.60015      1723.23915        29.80015
G23  21292817.78914   -198545.57014     -1423.78714        24.60014
C28  21914081.89726 -31248979.96226      -212.93026        35.90026
C37  23613918.32526   -624931.04826     -2656.11426        36.30026
C33  25330130.31625 -30804781.58625      1792.28625        33.10025
R15  19971948.70814   -558844.03114     -2426.75914        29.40014
C27  24784428.89714      6513.25914      1299.85914        26.10014
> 2025 05 07 11 00 30.0000000  0 11                      
G26  22204794.24126  -1018350.72926     -4253.97326        37.50026
G10  22012912.07825    302313.73025      1190.84425        33.80025
G16  20591261.16715   -622544.74815     -2650.72715        30.50015
G27  20440973.40915     31813.75615        78.25115        30.10015
G08  22879541.62315    171315.05715      1724.04715        29.80015
G23  21292832.17914   -199966.27314     -1426.67114        24.60014
C28  21913884.33426 -31249187.03626      -212.93526        35.90026
C37  23614192.03526   -627581.44626     -2656.37026        36.20026
C33  25329551.71625 -30802983.36325      1792.38825        33.00025
R15  19972167.85615   -561282.28815     -2430.80715        29.50015
C27  24783945.33214      7817.34714      1298.37914        26.10014
> 2025 05 07 11 00 31.0000000  0 11                      
G26  22205372.54026  -1022599.17026     -4254.51526        37.50026
G10  22012449.49825    303510.04025      1190.13925        33.60025
G16  20591532.47915   -625188.57515     -2649.05615        30.60015
G27  20440727.57915     31898.89915        78.92015        30.10015
G08  22878980.71115    173041.28315      1718.74415        29.90015
G23  21292877.44814   -201391.36914     -1433.15314        24.60014
C28  21913690.96726 -31249394.40926      -213.33226        35.80026
C37  23614464.24726   -630232.45526     -2657.12426        36.00026
C33  25328964.72325 -30801185.34025      1792.11225        33.00025
R15  19972383.10715   -563699.13715     -2434.28715        29.60015
C27  24783451.57314      9121.97514      1299.08714        26.00014
> 2025 05 07 11 00 32.0000000  0 11                      
G26  22205940.94726  -1026847.94226     -4254.79726        37.50026
G10  22011992.01525    304706.15925      1190.16025        33.50025
G16  20591795.99615   -627833.15515     -2650.81815        30.80015
G27  20440478.45115     31980.69815        74.26315        30.10015
G08  22878420.39915    174768.63515      1722.05115        29.90015
G23  21292902.93014   -202819.87714     -1436.07714        24.60014
C37  23614737.35826   -632884.10226     -2657.77326        35.90026
C28  21913490.40626 -31249602.17226      -213.76926        35.80026
C33  25328382.52625 -30799387.55825      1791.85025        33.00025
R15  19972595.06015   -566099.16015     -2432.97015        29.80015
C27  24782964.71114     10427.32514      1299.90014        25.90014
> 2025 05 07 11 00 33.0000000  0 11                      
G26  22206532.13826  -1031097.07626     -4255.23126        37.70026
G10  22011542.92615    305903.29615      1191.72815        33.30015
G16  20592081.99815   -630482.07415     -2657.00515        30.80015
G27  20440240.71615     32067.61415        83.55715        30.00015
G08  22877870.28015    176500.37115      1728.00815        29.80015
G23  21292969.48414   -204248.17814     -1434.11414        24.60014
C37  23615027.85626   -635535.86026     -2657.67626        35.80026
C28  21913311.43026 -31249809.97926      -213.69326        35.70026
C33  25327816.51725 -30797589.74225      1791.96725        33.00025
R15  19972869.07015   -568731.58715     -2432.95615        29.80015
C27  24782491.33814     11729.89214      1295.31114        25.90014
> 2025 05 07 11 00 34.0000000  0 11                      
G26  22207104.44226  -1035346.46526     -4255.35726        37.80026
G10  22011069.85325    307098.30425      1188.09625        33.20025
G16  20592337.12215   -633130.12115     -2653.45315        30.80015
G27  20439979.29715     32153.46115        79.46715        30.00015
G08  22877312.36615    178232.02615      1725.76915        29.70015
G23  21293002.16114   -205673.82414     -1430.16314        24.50014
C28  21913111.16926 -31250017.94226      -213.83226        35.60026
C37  23615297.96926   -638188.36926     -2658.67526        35.70026
C33  25327233.12125 -30795792.11325      1791.74225        32.90025
R15  19973061.53715   -571027.63015     -2439.19015        29.80015
C27  24782001.17814     13036.09814      1302.23214        26.10014
> 2025 05 07 11 00 35.0000001  0 11                      
G10  22010640.25125    308293.16225      1188.92025        34.20025
G26  22207704.32626  -1039595.97226     -4255.42726        37.80026
G16  20592624.62315   -635777.66715     -2653.15815        30.80015
G27  20439754.15315     32237.91815        77.89915        29.90015
G08  22876765.54515    179963.28015      1725.18815        29.60015
G23  21293063.31914   -207097.46314     -1428.49914        24.50014
C37  23615602.85826   -640841.07926     -2658.61926        35.60026
C28  21912944.48426 -31250226.26626      -214.31426        35.50026
C33  25326679.10525 -30793994.48025      1791.82325        32.90025
R15  19973307.96715   -573449.82715     -2433.60215        29.70015
C27  24781538.59814     14338.42914      1294.58314        26.10014
> 2025 05 07 11 00 35.9999998  0 11                      
G10  22010084.13626    309487.50726      1188.22326        39.50026
G26  22208183.09526  -1043846.04226     -4256.21126        37.80026
G16  20592804.79815   -638427.20515     -2656.39515        30.70015
G27  20439412.38915     32321.96415        77.97815        29.90015
G08  22876102.70414    181690.63514      1719.54114        29.40014
G23  21293010.85514   -208522.38714     -1431.42814        24.50014
C37  23615780.63525   -643494.31425     -2659.30425        35.40025
C28  21912659.38225 -31250434.71925      -214.32825        35.30025
C33  25326009.96825 -30792197.13925      1791.38425        32.90025
R15  19973431.48115   -575857.50015     -2431.12615        29.70015
C27  24780953.70314     15637.52814      1291.67114        26.00014
> 2025 05 07 11 00 37.0000000  0 10                      
G10  22009695.30526    310680.98526      1187.87626        39.40026
G26  22208834.84426  -1048096.24026     -4256.17726        37.70026
G16  20593153.45715   -641076.41915     -2654.96815        30.70015
G27  20439235.81115     32407.30515        80.07015        29.80015
G23  21293130.47314   -209952.04014     -1437.93414        24.50014
C37  23616135.59025   -646147.96525     -2659.72325        35.30025
C28  21912540.66425 -31250643.39725      -214.65425        35.10025
C33  25325500.62125 -30790399.81925      1791.44325        32.80025
R15  19973711.78715   -578204.73215     -2438.76315        29.60015
C27  24780553.18014     16938.07314      1295.40314        25.90014
> 2025 05 07 11 00 38.0000001  0 11                      
G10  22009260.60626    311874.30726      1187.14826        39.20026
G26  22209440.42426  -1052346.93526     -4256.78626        37.70026
G16  20593455.34815   -643728.14115     -2658.82015        30.70015
G27  20439022.65915     32491.63915        77.98515        29.90015
G23  21293204.52114   -211380.92414     -1434.34514        24.60014
G08  22875094.20214    185125.99614      1708.97614        28.20014
C37  23616435.98225   -648802.15925     -2660.25525        35.20025
C28  21912376.37725 -31250852.28425      -214.78325        35.00025
C33  25324952.00125 -30788602.75625      1791.14125        32.80025
R15  19973984.29815   -580767.61715     -2441.03915        29.60015
C27  24780110.08714     18241.43814      1298.98214        25.80014
> 2025 05 07 11 00 38.9999998  0 11                      
G10  22008708.38826    313067.31926      1186.99326        39.00026
G26  22209923.69026  -1056597.87026     -4256.91526        37.60026
G16  20593627.42815   -646379.07615     -2656.40115        30.60015
G27  20438678.49715     32575.46715        77.71315        29.90015
G23  21293148.46014   -212810.42814     -1435.67514        24.60014
G08  22874430.16214    186841.07014      1709.20914        26.90014
C37  23616623.65225   -651456.93725     -2660.87825        35.00025
C28  21912086.47825 -31251061.51225      -215.20825        34.90025
C33  25324278.36715 -30786805.76215      1791.14815        32.70015
R15  19974109.91115   -583186.75615     -2438.46615        29.50015
C27  24779530.28814     19547.75414      1301.98114        25.70014
> 2025 05 07 11 00 39.9999999  0 11                      
G10  22008276.98726    314259.75626      1186.28526        38.80026
G26  22210521.17626  -1060849.14926     -4257.31126        37.60026
G16  20593926.92115   -649029.80615     -2656.49015        30.60015
G27  20438462.64715     32656.71415        74.09315        29.90015
G23  21293206.32014   -214239.86714     -1435.26814        24.50014
G08  22873904.02614    188557.57414      1711.35614        25.70014
C37  23616926.44225   -654112.13525     -2661.21725        34.90025
C28  21911923.69125 -31251271.08125      -215.55025        34.80025
C33  25323726.74925 -30785009.05925      1790.74725        32.60025
R15  19974350.94515   -585582.96315     -2436.06715        29.50015
C27  24779070.70614     20854.38014      1300.97014        25.70014
> 2025 05 07 11 00 40.9999998  0 10                      
G10  22007796.12026    315451.96926      1186.18226        38.60026
G26  22211083.58726  -1065100.71126     -4257.61826        37.50026
G16  20594181.14515   -651678.71915     -2653.92015        30.50015
G27  20438189.53615     32736.08115        72.50915        29.80015
G23  21293246.49214   -215667.18714     -1432.17914        24.40014
G08  22873312.53514    190278.69314      1717.50614        24.80014
C37  23617190.55925   -656767.66325     -2661.55525        34.80025
C28  21911717.43425 -31251480.72325      -215.54325        34.60025
C33  25323136.45725 -30783212.36925      1790.81825        32.60025
C27  24778561.95914     22158.89114      1297.58714        25.80014
> 2025 05 07 11 00 41.9999999  0 10                      
G10  22007361.42126    316643.50726      1185.35326        38.40026
G26  22211686.46926  -1069352.86826     -4258.29726        37.40026
G16  20594477.64015   -654330.15915     -2658.54615        30.40015
G27  20437964.69115     32817.21815        76.17615        29.70015
G23  21293313.04614   -217096.35014     -1435.92814        24.40014
G08  22872771.41014    192005.29714      1723.50014        24.00014
C37  23617494.24925   -659423.82625     -2662.27125        34.80025
C28  21911546.55225 -31251690.62525      -215.82325        34.50025
C33  25322582.74125 -30781416.00525      1790.40725        32.50025
C27  24778116.46714     23461.80414      1296.32214        25.90014
> 2025 05 07 11 00 42.9999999  0 11                      
G10  22006895.84326    317834.64026      1185.06726        38.20026
G26  22212259.37326  -1073605.15026     -4258.20526        37.30026
G16  20594745.05515   -656984.61015     -2661.81815        30.40015
G27  20437716.46315     32899.04315        76.30615        29.60015
G23  21293356.21614   -218524.55814     -1433.59214        24.30014
G08  22872200.30513    193734.50213      1724.64213        23.40013
C37  23617766.46125   -662080.59025     -2662.87225        34.70025
C28  21911347.79025 -31251900.92225      -216.30425        34.30025
C33  25321998.74515 -30779619.71215      1790.44615        32.50015
C27  24777626.60614     24761.16014      1291.76614        26.10014
R15  19975018.88214   -592854.87314     -2439.23114        26.40014
> 2025 05 07 11 00 43.9999999  0 11                      
G10  22006435.96126    319025.28426      1184.53526        38.00026
G26  22212829.57826  -1077857.77526     -4258.65626        37.20026
G16  20595004.37515   -659639.58815     -2661.10215        30.30015
G27  20437465.53715     32979.55815        73.99615        29.60015
G23  21293397.88714   -219950.49814     -1430.66814        24.30014
G08  22871625.60313    195467.35713      1728.81513        22.90013
C37  23618039.27225   -664737.69125     -2663.07725        34.70025
C28  21911155.32325 -31252111.31325      -216.24825        34.20025
C33  25321417.14825 -30777823.60525      1790.20225        32.40025
C27  24777133.74714     26065.15614      1300.50614        26.20014
R15  19975230.83514   -595254.13414     -2439.81714        25.40014
> 2025 05 07 11 00 44.9999999  0 11                      
G10  22005969.48426    320215.44826      1184.06126        37.80026
G26  22213403.08126  -1082110.83526     -4259.13726        37.00026
G16  20595273.88915   -662292.61515     -2657.91215        30.30015
G27  20437216.70915     33059.74115        74.15415        29.60015
G23  21293432.36414   -221381.38414     -1439.22214        24.30014
G08  22871063.79213    197202.14113      1729.88313        22.50013
C37  23618312.08325   -667395.23725     -2663.57725        35.00025
C28  21910954.76225 -31252322.08025      -216.76425        34.10025
C33  25320835.85025 -30776027.62725      1790.10325        32.40025
C27  24776646.58414     27368.79014      1297.64214        26.30014
R15  19975465.87314   -597775.73214     -2442.17614        24.60014
> 2025 05 07 11 00 45.9999999  0 11                      
G10  22005526.39126    321405.47326      1184.03626        37.60026
G26  22213997.27026  -1086363.99026     -4259.11826        36.90026
G16  20595559.29115   -664947.38315     -2661.55615        30.20015
G27  20436975.67615     33139.14315        73.09315        29.60015
G23  21293485.42714   -222817.95214     -1445.32514        24.30014
G08  22870531.66013    198935.94713      1727.39913        22.10013
C37  23618600.78325   -670053.15525     -2663.96625        35.10025
C28  21910776.38525 -31252532.80725      -216.57025        34.00025
C33  25320271.34125 -30774231.57525      1790.22325        32.40025
C27  24776177.40914     28673.40014      1299.23214        26.30014
R15  19975709.90414   -600249.12214     -2443.49514        23.90014
> 2025 05 07 11 00 46.9999999  0 11                      
G26  22214566.87526  -1090617.76926     -4259.93226        36.80026
G10  22005067.10926    322594.73526      1183.03326        37.40026
G16  20595842.59515   -667603.34315     -2662.39815        30.10015
G27  20436732.24515     33221.33015        77.73415        29.60015
G23  21293514.80614   -224253.88514     -1441.46014        24.50014
G08  22869973.44713    200669.20313      1727.13313        21.80013
C37  23618873.89425   -672711.71825     -2664.67725        35.10025
C28  21910583.91825 -31252744.08025      -217.33925        33.90025
C33  25319690.64325 -30772435.99025      1789.55725        32.30025
C27  24775693.54414     29973.50014      1292.05114        26.50014
R15  19975948.83813   -602793.65513     -2445.79813        23.30013
> 2025 05 07 11 00 48.0000000  0 11                      
G26  22215170.35826  -1094871.69126     -4259.85326        36.70026
G10  22004634.20926    323783.71226      1182.97226        37.20026
G27  20436506.50115     33303.45415        76.22915        29.60015
G16  20596135.79215   -670259.32215     -2661.84915        30.00015
G23  21293570.56814   -225693.72114     -1447.64914        24.50014
G08  22869437.41813    202400.85113      1724.98113        21.50013
C37  23619177.88325   -675370.76325     -2665.09425        35.10025
C28  21910417.23425 -31252955.44325      -217.21825        33.80025
C33  25319135.72725 -30770640.40725      1789.77125        32.40025
C27  24775238.75914     31276.61114      1298.80614        26.70014
R15  19976154.49613   -604999.47613     -2444.51713        22.80013
> 2025 05 07 11 00 49.0000000  0 11                      
G26  22215741.76226  -1099126.10026     -4260.51326        36.80026
G10  22004168.03126    324972.16326      1182.32326        37.00026
G27  20436256.77415     33382.46315        71.58915        29.90015
G16  20596397.51115   -672917.00515     -2664.39615        29.90015
G23  21293599.04814   -227131.69614     -1442.90814        24.70014
G08  22868867.51213    204129.98813      1722.01613        21.30013
C37  23619455.79125   -678030.24825     -2665.51225        35.20025
C28  21910221.46925 -31253167.25925      -217.85125        34.10025
C33  25318555.92815 -30768845.23915      1789.14915        32.40015
C27  24774748.29914     32581.12514      1299.40414        26.80014
R15  19976382.93813   -607486.66513     -2444.48113        22.50013
> 2025 05 07 11 00 49.9999999  0 11                      
G26  22216297.57726  -1103380.69826     -4260.60826        36.90026
G10  22003698.55626    326160.20326      1181.91626        36.90026
G27  20435998.65315     33461.01115        72.39915        30.20015
G16  20596658.63015   -675574.12715     -2662.75715        29.90015
G23  21293616.73614   -228568.74414     -1442.50114        24.90014
G08  22868285.01613    205856.75713      1719.66713        21.00013
C37  23619717.21025   -680690.22325     -2666.08325        35.20025
C28  21910013.41325 -31253379.02625      -217.60825        34.40025
C33  25317964.73825 -30767049.90125      1789.55725        32.40025
C27  24774250.64314     33885.31614      1298.16414        27.00014
R15  19976597.88913   -609963.87813     -2442.81713        22.70013
> 2025 05 07 11 00 51.0000000  0 11                      
G26  22216905.85626  -1107635.59026     -4260.88026        37.00026
G10  22003264.45726    327347.77226      1181.48726        36.70026
G27  20435771.71015     33540.96715        74.81515        30.40015
G16  20596950.92815   -678231.38815     -2663.17415        29.90015
G23  21293675.49514   -230008.25814     -1446.59114        24.90014
G08  22867748.08713    207580.99213      1717.12213        20.70013
C37  23620017.90225   -683350.67325     -2666.47725        35.20025
C28  21909847.62825 -31253591.14925      -218.09125        34.60025
C33  25317411.92025 -30765254.72125      1789.30825        32.40025
C27  24773795.25814     35188.31814      1296.61514        27.10014
R15  19976863.20513   -612488.53513     -2454.72213        23.10013
> 2025 05 07 11 00 52.0000000  0 11                      
G26  22217478.46026  -1111890.94926     -4261.45326        37.20026
G10  22002802.17726    328534.95626      1181.12826        36.50026
G27  20435519.58415     33619.72515        72.29515        30.60015
G16  20597227.93615   -680890.22115     -2665.47915        30.00015
G23  21293706.37414   -231450.13114     -1448.91514        24.90014
G08  22867178.78213    209304.42913      1717.17313        20.50013
C28  21909653.96225 -31253803.50725      -218.28725        34.80025
C37  23620290.71325   -686011.51825     -2666.84925        35.10025
C33  25316832.42225 -30763459.86125      1788.89025        32.50025
C27  24773313.19214     36496.07314      1304.32014        27.10014
R15  19977070.06213   -614861.03513     -2455.06113        23.30013
> 2025 05 07 11 00 53.0000000  0 11                      
G26  22218049.26526  -1116146.48626     -4261.48626        37.40026
G10  22002341.99626    329721.51326      1180.37826        36.40026
G27  20435266.26015     33696.83415        70.42215        30.70015
G16  20597498.04915   -683549.33415     -2665.11315        30.10015
G23  21293733.95514   -232891.21414     -1446.55114        24.80014
G08  22866622.66713    211027.65313      1717.25313        20.30013
C28  21909456.69925 -31254016.09825      -218.51725        34.90025
C37  23620563.22425   -688672.95425     -2667.54125        35.00025
C33  25316247.82625 -30761665.16325      1788.80525        32.60025
C27  24772824.23114     37799.65214      1295.68014        27.00014
R15  19977294.60714   -617326.81514     -2450.91014        23.90014
> 2025 05 07 11 00 54.0000001  0 11                      
G26  22218649.44926  -1120402.45526     -4262.04426        37.50026
G10  22001908.19626    330907.67026      1180.09426        36.30026
G27  20435045.91215     33774.04215        71.39415        30.90015
G16  20597799.94015   -686208.11215     -2664.47215        30.10015
G23  21293805.00614   -234334.32714     -1449.98914        24.80014
G08  22866084.83913    212750.24413      1716.40913        20.20013
C28  21909291.21325 -31254228.95325      -218.79625        34.90025
C37  23620866.01525   -691334.82025     -2667.88825        35.00025
C33  25315695.90825 -30759870.47625      1788.87025        32.60025
R15  19977530.54315   -619693.96415     -2449.17915        29.50015
C27  24772374.84214     39097.99814      1289.91914        27.00014
> 2025 05 07 11 00 55.0000000  0 11                      
G26  22219215.45726  -1124658.53926     -4262.05626        37.70026
G10  22001439.32126    332093.54926      1179.82026        36.20026
G27  20434786.29215     33851.60415        71.82115        30.90015
G16  20598056.56215   -688868.64815     -2667.33015        30.10015
G23  21293819.09614   -235779.38514     -1451.94814        24.70014
G08  22865509.53713    214477.01013      1722.93413        21.40013
C28  21909081.95825 -31254441.78925      -218.69125        34.90025
C37  23621133.43025   -693996.92225     -2668.08325        34.90025
C33  25315103.21925 -30758075.88825      1788.67325        32.80025
R15  19977748.19315   -622186.46915     -2452.33515        31.90015
C27  24771878.68514     40395.41014      1291.07814        27.00014
> 2025 05 07 11 00 56.0000000  0 11                      
G26  22219786.56226  -1128915.19226     -4262.78026        37.90026
G10  22000977.64026    333278.85026      1179.16726        36.20026
G27  20434533.56715     33925.11315        65.63715        30.80015
G16  20598338.06715   -691531.07315     -2669.21315        30.10015
G08  22864942.03014    216204.99514      1722.74914        25.00014
G23  21293840.38114   -237227.36414     -1455.28414        24.60014
C37  23621407.14025   -696659.80225     -2669.05925        34.90025
C28  21908884.69525 -31254655.16725      -219.44125        34.80025
C33  25314526.41825 -30756281.60725      1788.33325        33.00025
R15  19977980.23225   -624693.53925     -2453.17325        31.90025
C27  24771390.32314     41695.04214      1294.95014        26.90014
> 2025 05 07 11 00 57.0000001  0 11                      
G26  22220392.44226  -1133172.20526     -4263.05326        38.00026
G10  22000544.14026    334463.65126      1178.68726        36.10026
G16  20598629.76515   -694191.74715     -2665.66015        30.10015
G27  20434313.21915     33998.58215        67.58515        30.80015
G08  22864406.90014    217927.34714      1713.67014        27.30014
G23  21293902.43814   -238672.77014     -1449.98114        24.60014
C37  23621708.43225   -699323.07425     -2669.27725        35.20025
C28  21908717.41125 -31254868.71925      -219.45025        34.70025
C33  25313973.60125 -30754487.47425      1788.24925        33.30025
R15  19978214.07025   -627049.21825     -2453.91525        31.90025
C27  24770933.73914     42998.12514      1298.99814        26.90014
> 2025 05 07 11 00 57.9999998  0 11                      
G26  22220873.31026  -1137429.58726     -4263.42626        38.10026
G10  21999994.02126    335647.99426      1178.24926        36.00026
G16  20598805.44415   -696853.25415     -2667.78415        30.20015
G27  20433968.15815     34076.87115        74.83715        30.60015
G08  22863755.75114    219653.96914      1722.89314        27.50014
G23  21293857.16914   -240116.14514     -1448.22214        24.50014
C37  23621894.00326   -701986.97426     -2670.02226        35.50026
C28  21908432.60825 -31255082.81325      -220.17325        34.60025
C33  25313304.16425 -30752693.57225      1787.97525        33.40025
R15  19978346.57825   -629505.05925     -2454.73625        31.80025
C27  24770358.73714     44302.01114      1298.47514        26.80014
> 2025 05 07 11 00 59.0000001  0 11                      
G26  22221556.23726  -1141687.24626     -4263.71426        38.30026
G10  21999633.67126    336831.95026      1177.84426        36.00026
G16  20599183.78215   -699515.58615     -2668.66215        30.30015
G27  20433821.85915     34151.18615        66.40915        30.50015
G08  22863291.37314    221378.36814      1717.36814        27.50014
G23  21294002.56914   -241558.18214     -1447.28514        24.40014
C37  23622277.13826   -704651.30726     -2670.41326        35.70026
C28  21908345.96825 -31255296.93125      -219.99625        34.50025
C33  25312828.69325 -30750899.77825      1787.87525        33.40025
R15  19978686.84325   -632012.85525     -2455.64925        31.80025
C27  24769985.19614     45599.00614      1287.68614        26.70014
> 2025 05 07 11 00 59.9999998  0 11                      
G26  22222038.30326  -1145945.29226     -4264.08026        38.40026
G10  21999078.75526    338015.32126      1177.23126        35.90026
G16  20599358.26115   -702180.04715     -2671.36715        30.30015
G27  20433472.90115     34225.82315        68.95315        30.30015
G08  22862638.72514    223102.54914      1718.22614        27.50014
G23  21293953.40314   -243000.40614     -1448.16114        24.30014
C37  23622463.30926   -707316.09626     -2670.80726        35.90026
C28  21908058.76725 -31255511.24525      -220.20225        34.40025
C33  25312157.15825 -30749106.33425      1787.47525        33.40025
R15  19978809.45815   -634414.41115     -2456.21115        31.80015
C27  24769401.80014     46897.82114      1293.93014        26.60014
> 2025 05 07 11 01 00.9999998  0 11                      
G26  22222635.78926  -1150203.71926     -4264.47826        38.40026
G10  21998642.55726    339198.26126      1176.86126        35.80026
G16  20599667.04715   -704844.20815     -2669.87315        30.40015
G27  20433250.75515     34303.26515        72.98215        30.10015
G08  22862102.99514    224825.36414      1716.26714        27.40014
G23  21294043.64014   -244446.25314     -1453.52214        24.20014
C37  23622769.09726   -709981.47326     -2671.47826        35.90026
C28  21907893.28125 -31255725.95025      -220.71225        34.30025
C33  25311602.84225 -30747312.92225      1787.58525        33.40025
R15  19979067.87915   -636902.36715     -2459.65815        31.80015
C27  24768932.62514     48200.46114      1298.74214        26.40014
> 2025 05 07 11 01 01.9999999  0 11                      
G26  22223212.29026  -1154462.39226     -4264.65626        38.50026
G10  21998177.87826    340380.82826      1176.51626        35.70026
G16  20599943.15615   -707509.76815     -2672.12015        30.40015
G27  20433010.92115     34377.79015        67.20315        29.90015
G08  22861538.18614    226550.86814      1720.98414        27.30014
G23  21294079.31614   -245890.75314     -1449.68814        24.10014
C37  23623046.40526   -712647.12826     -2671.60226        35.90026
C33  25311023.34325 -30745519.65125      1787.38825        33.60025
C28  21907693.32025 -31255940.89425      -220.87325        34.20025
R15  19979279.53315   -639300.09715     -2456.89715        31.70015
C27  24768452.35714     49500.34514      1292.69514        26.30014
> 2025 05 07 11 01 02.9999998  0 11                      
G26  22223804.98026  -1158721.48726     -4265.22026        38.50026
G10  21997738.98226    341562.75426      1175.68626        35.70026
G16  20600225.26115   -710175.86415     -2672.28115        30.60015
G27  20432767.48915     34451.70615        67.69215        29.70015
G08  22860994.96314    228276.61514      1719.95014        27.20014
G23  21294141.97214   -247330.32514     -1443.02514        24.10014
C37  23623340.50226   -715313.44826     -2672.51526        35.80026
C33  25310462.43125 -30743726.63525      1787.02425        34.20025
C28  21907521.83825 -31256156.05225      -221.12925        34.10025
R15  19979519.96615   -641754.37315     -2460.01515        31.70015
C27  24767989.77714     50796.84514      1288.94314        26.30014
> 2025 05 07 11 01 03.9999998  0 11                      
G26  22224378.78326  -1162980.95626     -4265.49926        38.60026
G10  21997276.10326    342744.38626      1175.64026        35.60026
G16  20600489.37815   -712840.59315     -2669.88815        30.70015
G27  20432511.76615     34525.89215        68.47715        29.50015
G08  22860438.84814    229999.12514      1715.04514        27.20014
G23  21294171.35214   -248769.28014     -1444.49214        24.00014
C37  23623609.11626   -717980.29826     -2672.90526        35.70026
C33  25309880.83425 -30741933.82825      1786.90825        34.60025
C28  21907321.87725 -31256371.61525      -221.55825        33.90025
R15  19979761.29915   -644310.37615     -2456.60215        31.60015
C27  24767506.81214     52091.24814      1287.56014        26.30014
> 2025 05 07 11 01 04.9999999  0 11                      
G26  22224954.68426  -1167240.87126     -4265.99826        38.60026
G10  21996821.61726    343925.39526      1174.83226        35.50026
G16  20600762.48915   -715504.41715     -2669.23315        30.80015
G27  20432258.74214     34596.92514        63.59214        29.20014
G08  22859865.04514    231720.60214      1715.09614        27.10014
G23  21294220.51814   -250210.10414     -1447.61914        24.10014
C33  25309295.63925 -30740141.01625      1787.00425        34.90025
C37  23623884.32526   -720647.62626     -2673.37526        35.60026
C28  21907127.91125 -31256587.17425      -221.36725        33.80025
R15  19979969.35515   -646689.75815     -2463.59915        31.40015
C27  24767028.34314     53380.33814      1280.62314        26.20014
> 2025 05 07 11 01 05.9999999  0 11                      
G26  22225528.48726  -1171500.94226     -4266.00826        38.60026
G10  21996356.63926    345105.85926      1174.32826        35.50026
G16  20601037.99815   -718171.19315     -2674.11315        30.90015
G27  20432021.30614     34668.46314        65.92714        29.00014
G08  22859308.03014    233442.98414      1716.96914        27.00014
G23  21294258.29214   -251655.73114     -1453.89114        24.40014
C33  25308716.14025 -30738348.59625      1786.41325        35.00025
C37  23624162.83226   -723315.30826     -2673.66726        35.50026
C28  21906932.74625 -31256803.19625      -222.06325        33.60025
R15  19980187.90415   -649123.42715     -2460.53415        31.30015
C27  24766529.18914     54668.66614      1282.13514        26.10014
> 2025 05 07 11 01 07.0000000  0 11                      
G26  22226126.27326  -1175761.45026     -4266.58726        38.60026
G10  21995925.83725    346285.97125      1174.07125        35.40025
G16  20601334.19315   -720838.72315     -2673.76715        31.00015
G27  20431802.45714     34741.37214        67.73214        28.80014
G08  22858776.19914    235165.39714      1716.56514        27.00014
G23  21294338.33614   -253106.57414     -1459.31414        24.60014
C33  25308168.42025 -30736556.25525      1786.48925        35.10025
C28  21906769.65925 -31257019.49025      -222.23925        33.50025
R15  19980439.13015   -651574.68215     -2462.80415        31.30015
C37  23624469.52015   -725985.46315     -2677.20115        34.70015
C27  24766075.30314     55957.70214      1283.58014        25.90014
> 2025 05 07 11 01 07.9999999  0 11                      
G26  22226690.18326  -1180022.21426     -4266.80626        38.50026
G10  21995450.96625    347465.61725      1173.49425        35.40025
G16  20601592.31415   -723506.64115     -2674.02915        31.10015
G27  20431529.64614     34816.38914        70.15314        28.60014
G08  22858199.99714    236885.90514      1713.63514        26.90014
G23  21294360.82114   -254560.89814     -1461.98014        24.70014
C33  25307573.93125 -30734764.03425      1786.29625        35.10025
C28  21906565.20025 -31257236.00125      -222.48425        33.50025
R15  19980644.48815   -653999.90115     -2463.34115        31.70015
C37  23624727.94115   -728654.71215     -2674.65815        33.00015
C27  24765574.64914     57253.81414      1293.78514        25.70014
> 2025 05 07 11 01 08.9999999  0 11                      
G26  22227267.28326  -1184283.32426     -4267.12526        38.50026
G10  21994988.08725    348644.91725      1173.28125        35.30025
G16  20601862.42715   -726174.91015     -2674.28715        31.20015
G27  20431269.72614     34889.63114        66.50914        28.40014
G08  22857621.39814    238606.94114      1715.45514        26.90014
G23  21294399.19414   -256012.12414     -1455.52214        25.00014
C33  25306993.83325 -30732971.93225      1786.24925        35.30025
C28  21906368.53725 -31257452.71825      -222.61125        33.60025
R15  19980869.03215   -656467.97615     -2464.67715        32.10015
C37  23625010.34615   -731320.40915     -2669.71015        31.40015
C27  24765089.28514     58554.34914      1296.95314        25.50014
> 2025 05 07 11 01 10.0000000  0 11                      
G26  22227865.36926  -1188544.78226     -4267.49226        38.40026
G10  21994556.08625    349823.60925      1172.52325        35.30025
G16  20602160.72115   -728844.31215     -2675.83015        31.20015
G27  20431052.67714     34963.88314        68.89414        28.20014
G08  22857092.56414    240327.96914      1715.15814        26.90014
G23  21294465.44814   -257460.89614     -1453.40714        25.40014
C33  25306438.61726 -30731180.03226      1785.98826        35.50026
C28  21906202.15225 -31257669.58625      -222.75425        33.60025
R15  19981123.25625   -658932.99325     -2465.66925        32.40025
C37  23625320.03115   -733986.81215     -2672.56415        30.20015
C27  24764633.30114     59856.73714      1297.50314        25.40014
> 2025 05 07 11 01 11.0000000  0 11                      
G26  22228446.96626  -1192806.63926     -4267.91626        38.30026
G10  21994091.10825    351001.90125      1172.22825        35.20025
G16  20602437.72915   -731512.09515     -2672.83415        31.20015
G27  20430798.75214     35040.42714        71.82714        28.10014
G08  22856522.95814    242051.47714      1718.88414        27.10014
G23  21294514.61414   -258910.69014     -1456.16714        25.80014
C33  25305862.41626 -30729388.32626      1785.79726        35.50026
C28  21906004.88825 -31257886.78725      -223.17725        33.80025
R15  19981351.99825   -661421.71225     -2466.46425        32.80025
C37  23625591.64314   -736658.61914     -2680.31814        29.20014
C27  24764132.04814     61159.47314      1297.09914        25.20014
> 2025 05 07 11 01 12.0000000  0 11                      
G26  22229036.35826  -1197068.81326     -4268.24726        38.20026
G10  21993649.51315    352180.51115      1172.10115        35.00015
G16  20602734.52415   -734180.98915     -2675.36615        31.20015
G27  20430563.71514     35115.58614        68.54914        27.90014
G08  22855982.13314    243774.42714      1716.75214        27.30014
G23  21294575.77214   -260363.31014     -1459.95014        26.20014
C33  25305302.10426 -30727596.84326      1785.50626        35.50026
C28  21905831.90825 -31258104.41725      -223.71025        33.90025
R15  19981593.33125   -663880.57425     -2467.27925        33.20025
C37  23625886.03914   -739328.26614     -2674.43014        28.50014
C27  24763664.67214     62464.97314      1301.01814        25.00014
> 2025 05 07 11 01 13.0000000  0 11                      
G26  22229609.26226  -1201331.32526     -4268.52426        38.10026
G10  21993199.82515    353358.09315      1171.47115        34.90015
G16  20603005.53615   -736852.55215     -2678.74115        31.20015
G27  20430316.38614     35186.86614        63.49414        27.80014
G08  22855409.82914    245496.06114      1715.13014        27.40014
G23  21294621.04114   -261814.80614     -1456.77914        26.70014
C33  25304719.60726 -30725805.46926      1785.52626        35.60026
C28  21905633.14625 -31258322.11525      -223.52325        33.90025
R15  19981818.47525   -666350.94325     -2468.41025        33.60025
C37  23626164.24714   -742002.74214     -2682.68014        28.00014
C27  24763173.91114     63770.67114      1300.00214        24.80014
> 2025 05 07 11 01 14.0000000  0 11                      
G26  22230184.86326  -1205594.29726     -4269.06126        37.90026
G10  21992730.64925    354534.95825      1170.64325        34.70025
G16  20603275.34915   -739524.31915     -2677.73115        31.10015
G08  22854845.32014    247215.51214      1712.49514        27.40014
G27  20430072.35514     35253.47514        58.41114        27.70014
G23  21294657.61514   -263266.13414     -1457.10614        26.80014
C33  25304138.90926 -30724014.40526      1785.09826        35.60026
R15  19982042.12025   -668812.90125     -2469.32025        33.90025
C28  21905437.38125 -31258540.19525      -224.08125        34.00025
C37  23626439.15714   -744675.75814     -2678.09414        27.60014
C27  24762687.64814     65072.03314      1293.38314        24.60014
> 2025 05 07 11 01 15.0000000  0 11                      
G26  22230756.56726  -1209857.46026     -4269.11926        37.70026
G10  21992265.07215    355710.47015      1168.97115        34.30015
G16  20603550.55915   -742195.70515     -2677.05615        31.10015
G08  22854284.70814    248936.92414      1716.52814        27.60014
G27  20429825.92614     35325.22014        68.45014        27.60014
G23  21294692.39114   -264717.79814     -1457.69314        27.00014
C33  25303558.51126 -30722223.40526      1785.15726        35.60026
R15  19982263.36725   -671261.09725     -2470.15425        34.00025
C28  21905244.61515 -31258756.26915      -220.88015        34.00015
C37  23626720.66214   -747347.55414     -2676.99314        27.30014
C27  24762206.18114     66371.09314      1292.09914        24.40014
> 2025 05 07 11 01 16.0000001  0 11                      
G26  22231358.85126  -1214121.11126     -4269.75526        37.50026
G10  21991839.36615    356885.46615      1168.87315        33.60015
G16  20603848.85215   -744868.89315     -2679.95015        31.00015
G08  22853751.07714    250659.71714      1717.61914        27.60014
G27  20429606.47814     35394.41514        62.05614        27.50014
G23  21294763.74214   -266172.26214     -1461.72714        27.00014
C33  25303008.09226 -30720432.60926      1784.88226        35.50026
R15  19982513.09425   -673702.41225     -2470.99825        34.10025
C28  21905075.83215 -31258975.93415      -227.27015        33.90015
C37  23627021.35314   -750020.43014     -2679.22514        27.10014
C27  24761748.99814     67671.10714      1294.67914        24.30014
> 2025 05 07 11 01 17.0000000  0 11                      
G10  21991370.19115    358060.39715      1168.98015        33.10015
G16  20604098.87915   -747541.70615     -2678.54215        30.90015
G26  22231927.25716  -1218385.76616     -4271.82216        36.50016
G08  22853169.78014    252380.66314      1714.10214        27.60014
G23  21294793.12114   -267626.40514     -1459.89914        27.00014
G27  20429347.45714     35461.57614        60.22614        27.40014
C33  25302415.10326 -30718641.95426      1784.71926        35.50026
R15  19982734.04125   -676212.50125     -2471.77625        34.30025
C28  21904869.57415 -31259197.16615      -227.88015        33.80015
C37  23627287.56914   -752693.81414     -2679.49914        27.20014
C27  24761259.73714     68969.86414      1292.26414        24.20014
> 2025 05 07 11 01 18.0000001  0 11                      
G26  22232528.64115  -1222650.41315     -4270.23615        34.80015
G10  21990930.99515    359237.29615      1172.03615        32.90015
G16  20604405.86715   -750214.21115     -2678.19415        30.80015
G08  22852632.25214    254102.84414      1716.95314        27.80014
G23  21294857.87714   -269081.52614     -1461.45414        27.00014
G27  20429128.00914     35528.68414        61.23714        27.30014
C33  25301865.88325 -30716851.50625      1784.55225        35.40025
R15  19982987.36625   -678672.16625     -2472.97425        34.50025
C28  21904704.38915 -31259416.82415      -224.66315        33.70015
C37  23627596.05614   -755369.34414     -2682.39314        27.20014
C27  24760799.25514     70269.62914      1294.47614        24.50014
> 2025 05 07 11 01 18.9999998  0 11                      
G26  22233017.00325  -1226914.80425     -4270.12125        34.30025
G10  21990385.37315    360411.71215      1167.31015        32.80015
G16  20604587.54115   -752888.85115     -2681.56815        30.70015
G08  22851979.30414    255822.14914      1712.00114        27.90014
G23  21294815.30614   -270540.73514     -1467.11614        27.10014
G27  20428786.24614     35598.42314        65.19014        27.20014
C33  25301194.34825 -30715061.20025      1784.42325        35.40025
R15  19983123.47125   -681147.12225     -2473.44525        34.50025
C28  21904421.08515 -31259636.25015      -225.11915        33.70015
C37  23627780.72814   -758043.03214     -2678.57514        27.40014
C27  24760213.76114     71573.05614      1299.44714        25.00014
> 2025 05 07 11 01 19.9999999  0 11                      
G26  22233618.68625  -1231179.73625     -4271.06325        34.90025
G10  21989950.07425    361585.83525      1168.11325        33.10025
G16  20604894.82815   -755563.83215     -2681.01315        30.60015
G08  22851428.58514    257538.47714      1708.97614        27.90014
G23  21294884.85814   -271997.36914     -1461.20814        27.10014
G27  20428574.89214     35665.34114        59.64514        27.10014
C33  25300641.83025 -30713270.98325      1784.36025        35.40025
R15  19983373.49825   -683590.73025     -2474.28125        34.60025
C28  21904259.19715 -31259855.66015      -225.21315        33.70015
C37  23628084.41814   -760717.40214     -2680.52014        27.40014
C27  24759752.08014     72873.88514      1293.71914        25.10014
> 2025 05 07 11 01 21.0000001  0 11                      
G26  22234273.73325  -1235444.99625     -4271.34025        35.20025
G10  21989573.53525    362759.48125      1167.48925        33.40025
G16  20605249.48315   -758239.92015     -2682.55815        30.60015
G08  22850948.31814    259261.14114      1719.91214        27.90014
G23  21295005.67414   -273454.48514     -1463.27414        27.10014
G27  20428411.50514     35734.39314        64.20114        26.90014
C33  25300138.77825 -30711480.92225      1784.11925        35.40025
R15  19983678.98725   -686071.76625     -2475.41125        34.70025
C28  21904137.78125 -31260075.51425      -225.94025        33.70025
C37  23628437.87314   -763391.15914     -2679.31214        27.40014
C27  24759343.46314     74171.81314      1290.61314        25.10014
> 2025 05 07 11 01 21.9999998  0 11                      
G26  22234756.09925  -1239710.51525     -4271.48925        35.20025
G10  21989026.41425    363932.76925      1167.26325        33.50025
G16  20605436.85315   -760918.45915     -2685.60615        30.70015
G08  22850301.66514    260982.52714      1714.90014        28.10014
G23  21294959.50614   -274912.50414     -1464.31514        27.20014
G27  20428070.64114     35802.94614        62.45814        26.70014
C33  25299470.24126 -30709691.06526      1783.96126        35.60026
R15  19983814.79325   -688545.19325     -2476.30225        34.90025
C28  21903856.57625 -31260295.47125      -225.80025        33.70025
C37  23628627.34214   -766067.30014     -2683.12414        27.60014
C27  24758770.26014     75471.87014      1295.32814        25.10014
> 2025 05 07 11 01 22.9999999  0 11                      
G26  22235361.97925  -1243976.37425     -4271.89125        35.20025
G10  21988591.41525    365105.39925      1166.43825        33.50025
G16  20605728.55115   -763595.55315     -2682.23415        30.80015
G08  22849772.23214    262703.30314      1714.60814        28.20014
G23  21295023.66214   -276372.18314     -1466.37014        27.30014
G27  20427843.09814     35871.66514        62.93814        26.50014
C33  25298918.32326 -30707901.26226      1783.96526        35.60026
R15  19984065.41925   -690991.09425     -2477.06625        35.10025
C28  21903693.78825 -31260515.68325      -226.14925        33.70025
C37  23628928.63314   -768744.47114     -2683.49414        28.20014
C27  24758311.87714     76770.38614      1291.93514        25.10014
> 2025 05 07 11 01 23.9999999  0 11                      
G26  22235939.37925  -1248242.50525     -4272.12625        35.30025
G10  21988129.43525    366277.83725      1166.47725        33.50025
G16  20605996.56515   -766273.12115     -2683.66615        30.80015
G08  22849203.22614    264422.26914      1712.19514        28.20014
G23  21295065.03314   -277832.42114     -1466.37914        27.30014
G27  20427590.37314     35939.93814        62.18614        26.40014
R15  19984289.96425   -693457.64025     -2477.88025        35.40025
C33  25298339.72426 -30706111.64426      1783.71526        35.50026
C28  21903497.72425 -31260736.09525      -226.32125        33.90025
C37  23629209.83814   -771419.98214     -2680.48914        28.50014
C27  24757827.11314     78068.18414      1291.62814        25.10014
> 2025 05 07 11 01 24.9999999  0 11                      
G26  22236528.47225  -1252508.96525     -4272.53925        35.30025
G10  21987692.63725    367449.24125      1165.71925        33.40025
G16  20606290.66215   -768951.47715     -2684.66615        30.90015
G08  22848655.80514    266143.91014      1717.06014        28.20014
G23  21295122.59314   -279293.37714     -1467.23314        27.30014
G27  20427367.92714     36001.78214        52.71314        26.30014
R15  19984535.79426   -695939.44026     -2478.88526        35.60026
C33  25297777.31326 -30704322.18826      1783.50826        35.50026
C28  21903319.04825 -31260956.67625      -226.53125        34.00025
C37  23629501.23714   -774094.96914     -2680.58814        28.80014
C27  24757356.73914     79363.02914      1287.50314        25.00014
> 2025 05 07 11 01 25.9999999  0 11                      
G26  22237105.27225  -1256775.87025     -4272.97025        35.40025
G10  21987235.15425    368620.84225      1165.60325        33.50025
G16  20606561.67415   -771629.40215     -2683.55315        31.00015
G08  22848087.39814    267867.04814      1718.04014        28.20014
G23  21295169.96114   -280754.26914     -1466.70414        27.30014
G27  20427111.60514     36063.40314        55.66414        26.30014
R15  19984762.43726   -698417.45526     -2479.53126        35.80026
C33  25297194.51725 -30702532.90725      1783.40125        35.40025
C28  21903128.68025 -31261177.63125      -226.93425        34.10025
C37  23629780.64314   -776771.33414     -2682.84314        28.90014
C27  24756878.27014     80660.01014      1292.25514        25.20014
> 2025 05 07 11 01 26.9999999  0 11                      
G26  22237683.57225  -1261042.97625     -4273.06625        35.40025
G10  21986776.77125    369791.73725      1164.67825        33.50025
G16  20606830.58815   -774309.10415     -2686.45115        31.00015
G08  22847527.68614    269587.89414      1713.83414        28.30014
G23  21295212.23114   -282215.36514     -1467.05914        27.40014
G27  20426867.27414     36128.80714        61.43114        26.40014
R15  19984988.48026   -700891.64726     -2480.58726        35.90026
C33  25296613.21926 -30700743.81626      1783.18426        35.60026
C28  21902933.21525 -31261398.82325      -227.12025        34.10025
C37  23630061.84914   -779449.45314     -2684.80314        29.00014
C27  24756390.80714     81959.97214      1295.64214        25.40014
> 2025 05 07 11 01 27.9999999  0 11                      
G26  22238257.37525  -1265310.29225     -4273.28025        35.40025
G10  21986318.68825    370962.30325      1164.53625        33.40025
G16  20607106.09715   -776991.57715     -2689.72015        30.90015
G08  22846958.68014    271307.27414      1712.78314        28.40014
G23  21295243.71014   -283678.78114     -1470.43914        27.40014
G27  20426611.25114     36194.04114        59.28614        26.40014
R15  19985212.72526   -703358.19326     -2481.31326        36.00026
C33  25296034.02026 -30698954.73126      1783.26926        35.70026
C28  21902735.65225 -31261620.07525      -227.09225        34.10025
C37  23630333.16114   -782129.17914     -2686.33814        29.00014
C27  24755905.14314     83258.31914      1291.72814        25.40014
> 2025 05 07 11 01 29.0000000  0 11                      
G26  22238861.15725  -1269577.90325     -4273.62025        35.40025
G10  21985887.28715    372132.95115      1164.07615        33.40015
G16  20607412.18515   -779672.31515     -2685.73215        30.80015
G08  22846428.94614    273025.40214      1711.63814        28.40014
G23  21295309.36414   -285139.55314     -1465.31214        27.40014
G27  20426393.30214     36258.17414        57.71914        26.80014
R15  19985471.44626   -705846.14626     -2482.01826        36.00026
C33  25295481.20326 -30697165.73026      1783.14926        35.90026
C28  21902571.06625 -31261841.61825      -227.49925        34.10025
C37  23630640.44814   -784807.22614     -2683.01414        29.00014
C27  24755454.55514     84556.88814      1292.87014        25.40014
> 2025 05 07 11 01 29.9999999  0 11                      
G26  22239422.66825  -1273846.05025     -4274.32925        35.40025
G10  21985411.51625    373302.75425      1163.71025        33.30025
G16  20607671.20615   -782352.02315     -2685.10915        30.70015
G08  22845857.84214    274746.08214      1716.03614        28.40014
G23  21295341.74214   -286600.91214     -1467.56814        27.40014
G27  20426137.27914     36314.83114        47.00014        26.80014
R15  19985689.69526   -708342.47426     -2483.38726        36.20026
C33  25294890.31226 -30695376.96926      1782.77526        35.90026
C28  21902367.20725 -31262063.47325      -227.87525        34.30025
C37  23630908.76214   -787488.05714     -2688.08614        29.20014
C27  24754961.09714     85853.41914      1289.64614        25.30014
> 2025 05 07 11 01 31.0000000  0 11                      
G26  22240027.05025  -1278114.54925     -4274.51825        35.30025
G10  21984982.81325    374471.36125      1162.91425        33.30025
G16  20607976.69515   -785031.51515     -2685.22615        30.60015
G08  22845322.71214    276465.71514      1713.26314        28.30014
G27  20425914.83314     36374.34914        55.10414        26.80014
G23  21295406.79714   -288060.74414     -1464.91314        27.30014
R15  19985943.02026   -710802.13926     -2483.97026        36.20026
C33  25294341.09226 -30693588.48726      1782.55026        36.00026
C28  21902200.22225 -31262285.56625      -228.00325        34.40025
C37  23631221.74614   -790167.78814     -2684.97114        29.20014
C27  24754498.51714     87148.97014      1289.26814        25.30014
> 2025 05 07 11 01 32.0000000  0 11                      
G26  22240604.45025  -1282383.44125     -4274.94825        35.30025
G10  21984532.22525    375640.00725      1162.55125        33.50025
G16  20608253.70315   -787711.22915     -2685.68715        30.40015
G08  22844757.30414    278186.97914      1716.21514        28.30014
G27  20425661.80914     36438.75814        60.99114        27.00014
G23  21295451.76614   -289517.65414     -1461.31114        27.20014
R15  19986172.06126   -713293.91626     -2485.14026        36.40026
C33  25293760.39426 -30691800.21026      1782.36426        36.00026
C28  21902008.65525 -31262508.04725      -228.48425        34.40025
C37  23631500.25314   -792847.88514     -2686.08814        29.10014
C27  24754007.75714     88447.63414      1294.40914        25.20014
> 2025 05 07 11 01 33.0000000  0 11                      
G26  22241180.65125  -1286652.50425     -4275.00725        35.20025
G10  21984070.24525    376808.25325      1162.18225        33.60025
G16  20608528.61315   -790398.49115     -2696.89615        30.30015
G08  22844197.59114    279905.85314      1711.81414        28.40014
G27  20425409.38314     36506.41614        63.41914        27.00014
G23  21295475.74914   -290978.94114     -1469.33814        27.00014
R15  19986394.20726   -715746.69926     -2485.76826        36.50026
C33  25293179.39626 -30690012.11526      1782.19226        36.00026
C28  21901815.28925 -31262730.55125      -228.32625        34.50025
C37  23631776.36215   -795530.07515     -2689.04415        29.50015
C27  24753523.59214     89746.82014      1293.63714        25.30014
> 2025 05 07 11 01 34.0000000  0 11                      
G26  22241769.44325  -1290921.93825     -4275.53625        35.10025
G10  21983625.05325    377976.01625      1161.60325        33.80025
G16  20608820.91015   -793081.15315     -2686.27915        30.10015
G08  22843646.57314    281625.02814      1713.40614        28.60014
G27  20425180.34214     36577.96914        67.58314        26.90014
G23  21295534.20814   -292442.51714     -1470.63714        26.70014
R15  19986638.23826   -718220.85326     -2486.76826        36.60026
C33  25292619.98426 -30688224.07526      1782.14826        35.90026
C28  21901637.81225 -31262953.47625      -229.00125        34.50025
C37  23632068.65915   -798210.04115     -2684.71615        30.00015
C27  24753058.91414     91044.83814      1291.56914        26.00014
> 2025 05 07 11 01 35.0000000  0 11                      
G26  22242349.84225  -1295191.57225     -4275.57425        35.10025
G10  21983172.06725    379143.51825      1161.52625        33.90025
G16  20609094.92015   -795762.52215     -2686.56615        30.00015
G08  22843085.36114    283344.60614      1713.93314        28.90014
G27  20424921.02114     36646.63514        61.37714        26.70014
G23  21295573.48114   -293910.19814     -1475.57714        26.50014
R15  19986866.38026   -720705.74926     -2487.31926        36.70026
C33  25292038.08626 -30686435.95526      1782.36626        35.90026
C28  21901440.54825 -31263176.58125      -228.98625        34.50025
C37  23632342.96915   -800890.61515     -2686.66815        30.00015
C27  24752569.65314     92343.22714      1292.78214        27.00014
> 2025 05 07 11 01 36.0000000  0 11                      
G26  22242923.94425  -1299461.66025     -4276.17525        35.10025
G10  21982710.98625    380310.40725      1160.71925        34.00025
G16  20609366.53215   -798448.85215     -2694.67115        29.90015
G08  22842524.15014    285063.85014      1713.21414        29.20014
G27  20424688.08314     36708.03014        51.89614        26.60014
G23  21295611.25514   -295381.50514     -1478.98214        26.30014
R15  19987097.52026   -723209.76026     -2488.28126        36.70026
C33  25291457.08926 -30684648.34726      1781.54026        35.80026
C28  21901248.68125 -31263399.72525      -228.97325        34.50025
C37  23632628.07215   -803572.36615     -2688.14715        30.00015
C27  24752086.68714     93642.16514      1293.40014        27.50014
> 2025 05 07 11 01 37.0000001  0 11                      
G26  22243530.72425  -1303731.95025     -4276.25225        35.10025
G10  21982285.28125    381476.93125      1160.47725        34.00025
G16  20609678.91615   -801134.07915     -2690.53715        29.80015
G08  22841990.51914    286780.78614      1709.91614        29.40014
G27  20424459.04114     36760.78914        42.57914        26.60014
G23  21295684.10514   -296853.12614     -1477.64014        26.10014
R15  19987354.74226   -725690.06926     -2489.37326        36.70026
C33  25290907.26926 -30682860.86226      1781.61226        35.60026
C28  21901083.19625 -31263623.35425      -229.68125        34.50025
C37  23632935.95915   -806256.54915     -2691.20615        30.00015
C27  24751629.50314     94940.33814      1291.98014        27.80014
> 2025 05 07 11 01 37.9999998  0 11                      
G26  22244025.38225  -1308002.76425     -4276.93525        35.10025
G10  21981737.26015    382641.41215      1156.84515        34.00015
G08  22841333.37414    288501.32914      1716.48314        29.40014
G16  20609865.08715   -803820.43915     -2692.78815        29.70015
G27  20424119.67614     36812.96914        46.02714        26.60014
G23  21295647.53014   -298322.14414     -1473.57814        25.90014
R15  19987495.04526   -728187.19826     -2490.24426        36.60026
C33  25290237.23325 -30681073.26425      1781.84325        35.40025
C28  21900802.59025 -31263847.14725      -229.68625        34.40025
C37  23633121.53015   -808940.64015     -2689.85315        29.90015
C27  24751049.40514     96239.01514      1293.11914        27.80014
> 2025 05 07 11 01 39.0000000  0 11                      
G26  22244669.63625  -1312273.72525     -4276.94925        35.00025
G10  21981355.92415    383803.32515      1154.96015        33.90015
G08  22840849.20915    290221.28215      1713.73715        29.70015
G16  20610209.24915   -806510.93615     -2698.48215        29.70015
G27  20423947.29614     36869.39014        52.62314        26.50014
G23  21295776.14114   -299790.44014     -1473.85214        25.80014
R15  19987796.33726   -730646.82526     -2491.05026        36.60026
C33  25289734.18125 -30679285.87425      1781.42025        35.20025
C28  21900678.77615 -31264071.04315      -229.81015        34.40015
C37  23633479.18315   -811622.35415     -2686.38915        29.90015
C27  24750638.68914     97535.02314      1288.80714        27.80014
> 2025 05 07 11 01 40.0000001  0 11                      
G26  22245276.11625  -1316545.03425     -4277.32625        35.00025
G10  21980914.33015    384970.26615      1163.61015        33.80015
G08  22840317.67715    291940.87715      1713.57015        29.80015
G16  20610512.63915   -809199.66115     -2693.68215        29.60015
G27  20423726.34814     36932.34314        60.37414        26.40014
G23  21295849.29014   -301260.04314     -1476.10114        25.60014
R15  19988058.95526   -733156.18826     -2491.90526        36.60026
C33  25289187.06025 -30677498.86425      1781.02725        35.00025
C28  21900521.08515 -31264296.37715      -231.84515        34.30015
C37  23633794.26515   -814307.33415     -2692.40315        30.50015
C27  24750173.41114     98835.46514      1296.86614        27.70014
> 2025 05 07 11 01 40.9999998  0 11                      
G26  22245764.47825  -1320816.57625     -4277.51725        34.90025
G10  21980373.20415    386135.24315      1158.13015        33.80015
G08  22839667.72715    293658.60715      1710.93215        29.80015
G16  20610694.01315   -811889.17115     -2695.76315        29.60015
G27  20423382.78614     36999.23914        63.00514        26.40014
G23  21295795.62714   -302729.37414     -1475.05714        25.60014
R15  19988198.35826   -735649.49526     -2492.53026        36.50026
C33  25288514.62625 -30675711.73225      1781.38025        34.90025
C28  21900236.88125 -31264520.64325      -229.54225        34.30025
C37  23633974.44015   -816990.73515     -2688.41815        30.80015
C27  24749597.81014    100136.99714      1296.26614        27.70014
> 2025 05 07 11 01 41.9999999  0 11                      
G26  22246366.46125  -1325088.43625     -4277.88025        35.00025
G10  21979946.00025    387299.58425      1158.15825        34.20025
G08  22839128.10115    295377.61915      1713.78915        29.80015
G16  20611003.09915   -814577.03215     -2692.89815        29.50015
G27  20423169.63414     37060.14214        52.04214        26.30014
G23  21295875.97214   -304201.61214     -1479.55314        25.60014
R15  19988455.28026   -738129.03926     -2493.48226        36.50026
C33  25287960.60925 -30673924.76225      1781.07925        35.10025
C28  21900072.89525 -31264745.26125      -230.60325        34.20025
C37  23634284.12615   -819675.86615     -2691.80415        31.20015
C27  24749152.01914    101434.20514      1289.23614        27.60014
> 2025 05 07 11 01 42.9999998  0 11                      
G26  22246927.37325  -1329360.42725     -4277.97125        35.30025
G10  21979479.22325    388463.26325      1158.18025        34.50025
G08  22838552.49915    297099.65715      1717.63115        29.80015
G16  20611253.42614   -817262.76314     -2690.58114        29.40014
G27  20422926.80214     37121.30114        55.36914        26.80014
G23  21295910.44814   -305674.64814     -1479.35314        25.80014
R15  19988681.62426   -740666.65326     -2493.93526        36.30026
C33  25287372.71625 -30672137.70625      1781.23325        35.10025
C28  21899867.83725 -31264969.87025      -230.46925        34.20025
C37  23634552.14015   -822360.67915     -2690.51615        32.00015
C27  24748658.86014    102733.38814      1294.30514        27.50014
> 2025 05 07 11 01 43.9999999  0 11                      
G26  22247537.45025  -1333632.73525     -4278.30825        35.40025
G10  21979052.01925    389626.84625      1157.43925        34.60025
G08  22838018.86915    298819.61815      1713.07615        29.70015
G16  20611553.81814   -819952.46814     -2697.53614        29.30014
G27  20422707.65414     37178.15014        48.85014        27.10014
G23  21295989.59314   -307146.15614     -1476.58714        26.10014
R15  19988946.04126   -743187.48526     -2495.11626        36.20026
C33  25286823.79625 -30670350.99025      1780.75225        35.10025
C28  21899703.85125 -31265194.78525      -230.86025        34.20025
C37  23634859.42715   -825046.19715     -2691.66115        32.80015
C27  24748211.57014    104031.56914      1291.88814        27.30014
> 2025 05 07 11 01 44.9999999  0 11                      
G26  22248114.25125  -1337905.62225     -4279.03525        35.40025
G10  21978598.43325    390789.86525      1156.87225        34.70025
G08  22837454.35915    300538.91115      1713.09415        29.60015
G16  20611832.02614   -822644.79814     -2699.50314        29.20014
G27  20422462.42314     37235.13314        51.18514        27.40014
G23  21296036.96014   -308621.29114     -1482.81014        26.10014
R15  19989176.28126   -745683.85026     -2496.13626        36.00026
C33  25286241.00025 -30668564.51025      1780.55125        35.00025
C28  21899509.88525 -31265420.12025      -231.35525        34.20025
C37  23635140.03325   -827732.39625     -2692.34725        33.00025
C27  24747715.71314    105328.73614      1290.84814        27.30014
> 2025 05 07 11 01 45.9999999  0 11                      
G26  22248691.65125  -1342178.58925     -4278.86725        35.40025
G10  21978134.65425    391952.65025      1156.80425        34.80025
G08  22836894.94715    302258.03315      1713.17215        29.60015
G16  20612109.03414   -825335.84814     -2696.27214        29.10014
G27  20422210.89814     37292.64814        51.91914        27.70014
G23  21296089.72414   -310094.78714     -1478.53914        26.30014
R15  19989397.22826   -748131.28126     -2496.84526        35.80026
C33  25285663.59925 -30666777.97925      1780.74525        34.90025
C28  21899315.91925 -31265645.52225      -231.24425        34.10025
C37  23635416.14225   -830418.76825     -2692.26625        33.10025
C27  24747236.34514    106627.48214      1293.72514        27.30014
> 2025 05 07 11 01 46.9999999  0 11                      
G26  22249269.05225  -1346452.03525     -4279.54625        35.40025
G10  21977677.77025    393114.78225      1155.94125        34.90025
G08  22836327.14015    303976.71915      1712.60415        29.60015
G16  20612386.34214   -828025.35814     -2694.60114        29.10014
G27  20421959.67214     37349.00414        49.91314        27.70014
G23  21296131.09514   -311569.48014     -1481.15414        26.30014
C33  25285083.20125 -30664991.74925      1780.26725        34.90025
C28  21899122.55325 -31265871.23925      -231.68625        34.10025
C37  23635697.64725   -833105.77925     -2693.13925        33.10025
R15  19989622.37226   -750600.88526     -2498.02326        35.50026
C27  24746756.37714    107923.97414      1289.55314        27.20014
> 2025 05 07 11 01 47.9999999  0 11                      
G26  22249860.54225  -1350725.53725     -4279.44625        35.40025
G10  21977234.37725    394276.80525      1156.05125        35.10025
G08  22835784.21615    305693.43615      1709.81215        29.50015
G16  20612677.14114   -830716.51314     -2697.89314        29.00014
G27  20421731.23014     37406.32014        51.87814        27.90014
G23  21296188.05614   -313045.81514     -1483.07314        26.60014
C33  25284514.79525 -30663205.37925      1780.57625        34.80025
C28  21898952.87015 -31266099.92715      -236.03715        34.10015
C37  23635999.23825   -835793.09625     -2693.33325        33.10025
R15  19989881.99315   -753158.38015     -2497.74215        34.90015
C27  24746280.30714    109225.22514      1297.76614        27.10014
> 2025 05 07 11 01 48.9999999  0 11                      
G26  22250431.34725  -1354999.33825     -4279.79225        35.40025
G10  21976775.99525    395438.25225      1155.31225        35.20025
G16  20612950.25114   -833407.99014     -2697.48114        29.10014
G08  22835221.50515    307407.28515      1706.56915        29.50015
G27  20421486.59914     37462.96414        50.46314        28.30014
G23  21296239.92014   -314521.57714     -1481.31914        26.80014
C33  25283941.59125 -30661419.34725      1780.06825        34.80025
C37  23636274.74725   -838480.84125     -2693.74825        33.20025
C28  21898752.00915 -31266326.55715      -231.39215        34.00015
R15  19990093.64615   -755555.34715     -2498.01815        34.00015
C27  24745787.14814    110525.26314      1293.63914        27.10014
> 2025 05 07 11 01 50.0000000  0 11                      
G26  22251042.02426  -1359273.33226     -4279.95126        35.60026
G10  21976348.19125    396599.43025      1155.17925        35.30025
G08  22834692.07214    309123.73814      1711.89114        29.40014
G16  20613251.54314   -836101.09914     -2699.78714        29.20014
G27  20421267.75114     37518.30414        48.82514        28.90014
G23  21296316.06714   -315997.53514     -1481.91914        26.90014
C33  25283392.07225 -30659633.09025      1780.55925        34.80025
C37  23636583.23425   -841168.93425     -2694.07625        34.00025
C28  21898584.72515 -31266552.56815      -231.51115        33.80015
R15  19990354.46615   -758056.30015     -2499.85915        33.20015
C27  24745326.66714    111825.86614      1295.07414        27.00014
> 2025 05 07 11 01 51.0000000  0 11                      
G26  22251623.32226  -1363547.68226     -4280.38726        35.60026
G10  21975893.40625    397760.24125      1154.76525        35.30025
G08  22834124.56514    310841.05314      1711.88014        29.40014
G27  20421021.32114     37575.42814        52.15214        29.20014
G16  20613533.34814   -838796.05214     -2701.73514        29.20014
G23  21296354.44114   -317476.18214     -1485.85214        27.00014
C37  23636861.74125   -843857.57125     -2694.71525        34.60025
C33  25282808.97625 -30657847.17025      1779.93925        34.80025
C28  21898394.95725 -31266779.00725      -232.46425        33.70025
R15  19990586.20515   -760561.07615     -2503.03615        32.70015
C27  24744850.29714    113121.60814      1287.50114        27.00014
> 2025 05 07 11 01 51.9999999  0 11                      
G26  22252192.62826  -1367822.33626     -4280.72126        35.60026
G10  21975424.83025    398920.51225      1154.08225        35.30025
G08  22833544.46615    312559.06915      1712.44815        29.70015
G27  20420757.50415     37632.49115        51.11515        29.60015
G16  20613807.65814   -841488.85214     -2697.64014        29.10014
G23  21296383.82014   -318955.41514     -1485.44414        27.30014
C37  23637129.75625   -846546.60225     -2695.09125        35.30025
C33  25282215.98625 -30656061.36425      1779.88325        34.80025
R15  19990799.65715   -763030.64215     -2501.57015        32.60015
C28  21898185.10225 -31267005.44325      -232.29825        33.50025
C27  24744356.83814    114417.56714      1290.20314        27.00014
> 2025 05 07 11 01 53.0000000  0 11                      
G26  22252799.10826  -1372097.39126     -4281.09826        35.60026
G10  21974996.42725    400080.42525      1153.88825        35.40025
G08  22833016.23215    314277.36915      1712.59515        29.90015
G27  20420545.55015     37687.06215        47.48015        29.80015
G16  20614107.75014   -844182.62914     -2700.10814        29.10014
G23  21296454.57114   -320432.58714     -1481.98514        27.30014
C37  23637435.54426   -849236.21626     -2695.69626        35.70026
C33  25281669.46425 -30654275.76625      1779.70225        34.70025
R15  19991064.07425   -765549.94425     -2502.50525        32.90025
C28  21898022.91425 -31267232.25825      -232.79625        33.30025
C27  24743897.25614    115712.67714      1288.89214        26.90014
> 2025 05 07 11 01 54.0000000  0 11                      
G26  22253370.51226  -1376372.64226     -4281.20926        35.60026
G10  21974538.64325    401239.80925      1153.25425        35.40025
G08  22832444.82715    315995.42315      1712.06515        30.00015
G27  20420293.72515     37743.67415        51.76815        29.90015
G16  20614384.15914   -846880.00414     -2705.03614        29.10014
G23  21296501.03914   -321911.29114     -1485.33314        27.30014
C37  23637718.24826   -851926.12526     -2695.86426        35.90026
C33  25281088.76625 -30652490.29425      1779.59725        34.70025
R15  19991292.51625   -768038.66325     -2503.36925        33.30025
C28  21897839.74125 -31267459.35025      -233.04025        33.10025
C27  24743407.39614    117008.14614      1289.83714        26.90014
> 2025 05 07 11 01 55.0000000  0 11                      
G10  21974083.55925    402398.83225      1152.98025        35.40025
G26  22253948.21226  -1380648.09026     -4281.40626        35.60026
G27  20420047.59515     37798.19515        47.61315        30.20015
G08  22831883.61615    317713.96615      1712.92315        30.10015
G16  20614659.06814   -849578.08114     -2704.28814        29.00014
G23  21296539.41314   -323389.56014     -1483.91314        27.20014
C37  23637998.85426   -854616.40926     -2696.27926        35.90026
C33  25280509.26825 -30650704.72125      1779.81125        34.60025
R15  19991515.26225   -770495.26925     -2504.14225        33.70025
C28  21897638.28025 -31267686.44925      -232.91325        32.90025
C27  24742921.73214    118305.06814      1291.83714        26.80014
> 2025 05 07 11 01 56.0000000  0 11                      
G10  21973637.46726    403557.40226      1152.42426        35.60026
G26  22254545.39926  -1384924.03726     -4282.11226        35.60026
G27  20419818.85415     37852.83615        48.78315        30.50015
G08  22831334.39615    319431.81915      1711.58915        30.10015
G16  20614950.76714   -852276.01014     -2703.77214        29.00014
G23  21296604.46814   -324864.04414     -1478.50914        27.20014
C37  23638295.94826   -857307.32026     -2697.08826        35.90026
C33  25279949.85525 -30648919.51025      1779.16525        34.50025
R15  19991773.98325   -773045.88325     -2505.46225        34.00025
C28  21897466.49925 -31267913.90025      -233.49125        32.80025
C27  24742453.15614    119601.95614      1291.00614        26.80014
> 2025 05 07 11 01 57.0000000  0 11                      
G10  21973175.18726    404715.38726      1151.84726        35.70026
G26  22255117.10326  -1389200.43426     -4282.46326        35.50026
G27  20419577.52115     37908.19215        49.86815        30.60015
G08  22830777.98115    321148.71815      1710.57515        30.10015
G16  20615228.37414   -854972.23214     -2701.21114        28.90014
G23  21296651.53514   -326345.40414     -1490.64114        27.20014
C37  23638575.05526   -859998.85626     -2697.63826        35.80026
R15  19992004.22325   -775543.77725     -2506.20225        34.30025
C33  25279367.35825 -30647134.60025      1778.96525        34.40025
C28  21897266.23815 -31268141.72915      -233.80915        32.60015
C27  24741964.79414    120899.61414      1292.25014        27.40014
> 2025 05 07 11 01 58.0000000  0 11                      
G10  21972721.60126    405873.00726      1151.57326        35.70026
G26  22255693.30426  -1393476.90626     -4282.36926        35.50026
G27  20419324.79615     37962.01915        47.20015        30.80015
G08  22830209.87515    322863.10215      1707.26215        30.00015
G16  20615508.68014   -857668.10314     -2701.55714        28.80014
G23  21296698.60214   -327828.32714     -1489.56814        27.10014
C37  23638856.56026   -862690.61226     -2697.67526        36.00026
R15  19992228.76825   -778011.08725     -2506.91325        34.40025
C33  25278789.95825 -30645349.61925      1779.20525        34.40025
C28  21897081.26615 -31268368.09915      -231.45215        32.50015
C27  24741475.23314    122194.97214      1288.39714        27.90014
> 2025 05 07 11 01 59.0000001  0 11                      
G10  21972295.29626    407030.05526      1150.89826        35.70026
G26  22256299.18526  -1397753.85126     -4283.04326        35.50026
G27  20419109.84415     38015.36015        47.23515        31.10015
G08  22829679.84215    324579.28415      1711.21715        30.10015
G16  20615806.37414   -860365.44814     -2703.94214        28.80014
G23  21296767.55514   -329311.69014     -1489.44414        27.10014
C37  23639166.24626   -865382.96926     -2698.46526        36.00026
R15  19992495.58325   -780543.38725     -2507.86025        34.50025
C33  25278239.83925 -30643564.99525      1778.63525        34.50025
C28  21896910.98415 -31268596.67215      -235.48315        32.30015
C27  24741023.44614    123489.61514      1288.47414        27.90014
> 2025 05 07 11 02 00.0000000  0 11                      
G10  21971824.32326    408186.70526      1150.53326        35.70026
G26  22256868.79025  -1402031.14025     -4283.37625        35.40025
G27  20418852.62215     38067.75715        46.00715        31.40015
G08  22829102.14115    326295.13215      1709.76115        30.30015
G16  20616067.49314   -863064.26114     -2705.46314        28.70014
G23  21296797.23414   -330795.54714     -1490.02214        27.00014
C37  23639431.56226   -868075.75426     -2698.86026        36.00026
R15  19992716.23125   -783051.94825     -2508.82125        34.70025
C33  25277649.24825 -30641780.45725      1778.62925        34.60025
C28  21896705.02715 -31268827.25815      -237.45715        32.20015
C27  24740518.89514    124784.73414      1289.49214        27.80014
> 2025 05 07 11 02 01.0000001  0 11                      
G10  21971398.91726    409342.94026      1150.18026        35.70026
G26  22257474.97125  -1406308.66525     -4283.48425        35.30025
G27  20418629.27715     38119.51715        45.59715        31.60015
G08  22828560.71615    328013.91715      1714.40715        30.40015
G16  20616383.47514   -865766.34514     -2709.56314        28.70014
G23  21296873.98114   -332277.85914     -1487.38414        26.90014
C37  23639744.24626   -870769.07826     -2699.38426        36.00026
R15  19992969.85525   -785513.90725     -2509.71825        34.70025
C33  25277096.13025 -30639996.04025      1778.56425        34.60025
C28  21896541.04015 -31269057.59515      -236.00515        32.00015
C27  24740066.50814    126078.14614      1286.76714        27.70014
> 2025 05 07 11 02 01.9999997  0 11                      
G10  21970846.40026    410498.67526      1149.62126        35.60026
G26  22257960.93425  -1410586.68925     -4284.13325        35.20025
G27  20418295.90815     38171.66415        46.47615        31.70015
G08  22827909.56715    329731.06915      1710.47015        30.50015
G16  20616574.44314   -868469.49414     -2709.54214        28.60014
G23  21296826.31414   -333762.77714     -1492.08214        26.90014
C37  23639935.21326   -873462.88226     -2699.85226        36.00026
R15  19993117.95225   -788052.32425     -2510.49225        34.80025
C33  25276428.79225 -30638211.94225      1778.12625        34.70025
C28  21896261.93315 -31269286.49815      -233.99515        31.80015
C27  24739481.31314    127372.57514      1289.12514        27.60014
> 2025 05 07 11 02 02.9999998  0 11                      
G10  21970417.99626    411653.85026      1149.03226        35.60026
G26  22258569.81325  -1414864.92025     -4284.19525        35.10025
G27  20418081.55615     38222.51015        44.33215        31.90015
G08  22827378.63515    331447.41315      1710.07515        30.60015
G16  20616866.44014   -871169.93114     -2704.94414        28.60014
G23  21296911.45514   -335246.98914     -1489.72214        26.90014
C37  23640248.19726   -876157.08526     -2700.21026        35.90026
R15  19993382.96925   -790576.97925     -2511.53725        34.90025
C33  25275877.47425 -30636427.89025      1778.21825        34.70025
C28  21896094.05015 -31269516.80315      -236.81615        31.60015
C27  24739028.02714    128664.61514      1285.03514        27.40014
> 2025 05 07 11 02 03.9999998  0 11                      
G10  21969952.11926    412808.58626      1148.59726        35.60026
G26  22259136.12125  -1419143.57525     -4284.78125        35.00025
G27  20417822.23615     38273.62315        45.32815        32.10015
G08  22826799.13615    333162.04615      1707.85915        30.70015
G16  20617138.95214   -873869.67714     -2705.31614        28.50014
G23  21296944.13214   -336730.74414     -1489.44314        26.80014
C37  23640511.71426   -878852.03526     -2701.18626        35.90026
R15  19993602.71725   -793078.65825     -2512.47025        35.00025
C33  25275288.38225 -30634644.19425      1777.65325        34.80025
C28  21895890.79015 -31269746.91315      -235.87615        31.40015
C27  24738534.86914    129958.20014      1288.49114        27.20014
> 2025 05 07 11 02 04.9999999  0 11                      
G10  21969524.91426    413962.91026      1148.27326        35.50026
G26  22259739.90325  -1423422.54725     -4284.97225        34.80025
G27  20417601.88825     38324.60125        45.06525        32.20025
G08  22826266.40515    334876.74015      1708.87815        30.80015
G16  20617450.13614   -876573.07314     -2711.06314        28.40014
G23  21297012.18514   -338213.35514     -1487.88314        26.80014
C37  23640824.99726   -881547.19226     -2701.04926        35.90026
R15  19993864.13625   -795582.66925     -2513.14025        35.10025
C33  25274738.56325 -30632860.50425      1777.89425        34.80025
C28  21895728.90215 -31269974.02315      -231.40215        31.30015
C27  24738078.28514    131250.27314      1285.52514        27.10014
> 2025 05 07 11 02 05.9999999  0 11                      
G10  21969070.72925    415116.65725      1147.59425        35.40025
G26  22260313.10625  -1427701.86825     -4285.35525        34.70025
G27  20417358.15725     38374.96525        44.19525        32.30025
G08  22825701.29615    336592.63615      1710.63315        30.80015
G16  20617734.93914   -879277.71614     -2711.12914        28.40014
G23  21297065.54814   -339704.16514     -1500.77114        26.70014
C37  23641103.80426   -884243.05326     -2702.02226        35.80026
R15  19994094.67625   -798082.09225     -2514.13425        35.20025
C33  25274157.56525 -30631077.13625      1777.39425        34.80025
C28  21895543.93015 -31270204.28515      -237.64815        31.10015
C27  24737591.12214    132543.18014      1287.51414        26.90014
> 2025 05 07 11 02 06.9999999  0 11                      
G10  21968609.64825    416269.70425      1146.83425        35.40025
G26  22260895.30325  -1431981.75725     -4286.03325        34.60025
G27  20417115.02525     38424.47525        43.96925        32.40025
G08  22825144.28115    338308.54815      1710.05415        30.90015
G16  20618012.54714   -881981.93114     -2709.86114        28.40014
G23  21297099.42514   -341196.25414     -1498.59114        26.70014
C37  23641384.71026   -886939.38426     -2702.37326        35.80026
R15  19994319.82025   -800552.46125     -2515.40625        35.30025
C33  25273578.66625 -30629294.06725      1777.10925        34.70025
C28  21895349.96515 -31270435.70315      -237.80515        31.00015
C27  24737114.15214    133836.79714      1288.15914        26.80014
> 2025 05 07 11 02 07.9999999  0 11                      
G10  21968153.66425    417422.41725      1146.68125        35.30025
G26  22261470.90415  -1436262.04615     -4286.34915        34.40015
G27  20416864.69925     38473.86225        43.21225        32.50025
G08  22824573.47715    340023.48715      1708.58815        30.90015
G16  20618292.25314   -884685.86314     -2709.65114        28.30014
G23  21297138.69814   -342682.28014     -1488.85714        26.60014
C37  23641665.31626   -889636.32726     -2703.05726        35.80026
R15  19994553.05925   -803065.64725     -2516.10825        35.40025
C33  25272999.76625 -30627511.11625      1777.08025        34.70025
C28  21895158.69715 -31270667.49715      -237.79215        30.80015
C27  24736633.58514    135129.46914      1286.39014        26.60014
> 2025 05 07 11 02 08.9999999  0 11                      
G10  21967715.96725    418574.91225      1146.46625        35.20025
G26  22262071.68815  -1440540.19115     -4282.98815        34.30015
G27  20416641.95325     38523.16025        43.33525        32.60025
G08  22824035.64915    341736.04915      1705.45515        30.90015
G16  20618586.05014   -887392.24514     -2713.52314        28.30014
G23  21297195.65814   -344165.93414     -1488.38414        26.60014
C37  23641965.10826   -892333.60126     -2703.30226        35.80026
R15  19994812.08025   -805617.78925     -2516.62725        35.40025
C33  25272437.65525 -30625728.15825      1777.09725        34.70025
C28  21894986.01715 -31270899.00615      -237.23115        30.70015
C27  24736157.51414    136426.33214      1293.09314        26.60014
> 2025 05 07 11 02 09.9999999  0 11                      
G10  21967255.18625    419726.89425      1145.88125        35.10025
G26  22262644.59215  -1444821.30015     -4288.43315        34.10015
G27  20416394.92425     38572.19225        43.05425        32.70025
G08  22823470.54015    343448.80015      1706.99815        30.80015
G16  20618869.05414   -890097.28314     -2710.21014        28.20014
G23  21297252.31914   -345652.49514     -1493.85914        26.50014
C37  23642248.11226   -895031.31526     -2703.72426        35.80026
R15  19995043.81925   -808123.32925     -2517.68425        35.40025
C33  25271861.15525 -30623945.40925      1776.85025        34.60025
C28  21894789.05315 -31271129.38415      -235.60415        30.60015
C27  24735678.14614    137723.30914      1291.24014        26.50014
> 2025 05 07 11 02 10.9999999  0 11                      
G10  21966797.10325    420878.25625      1145.18625        35.10025
G26  22263221.69215  -1449103.37315     -4288.41515        34.00015
G27  20416150.59325     38620.68825        42.36525        32.70025
G08  22822917.12315    345162.27115      1707.96715        30.80015
G16  20619139.46714   -892803.43314     -2712.56714        28.10014
G23  21297304.78314   -347142.84014     -1498.09914        26.40014
R15  19995274.95926   -810625.81126     -2518.57026        35.70026
C37  23642526.61926   -897729.55326     -2704.30726        35.70026
C33  25271283.75425 -30622162.85325      1776.64925        34.70025
C28  21894597.48615 -31271360.88415      -237.87115        30.50015
C27  24735187.38614    139017.18714      1286.51814        27.20014
> 2025 05 07 11 02 12.0000000  0 11                      
G10  21966375.29525    422029.35325      1145.10225        35.00025
G26  22263824.87515  -1453384.64015     -4286.72315        33.90015
G27  20415938.04025     38668.70325        41.91125        32.80025
G08  22822382.59315    346876.48715      1708.72415        30.70015
G16  20619438.66014   -895512.64214     -2716.60014        28.10014
G23  21297377.93214   -348634.29214     -1497.86714        26.40014
R15  19995531.88126   -813105.35426     -2519.37026        35.80026
C37  23642833.30726   -900428.14226     -2704.57226        35.70026
C33  25270730.03825 -30620380.43025      1776.54525        34.80025
C28  21894437.39615 -31271592.92115      -238.11615        30.40015
C27  24734730.50214    140312.77514      1290.63214        27.80014
> 2025 05 07 11 02 12.9999999  0 11                      
G10  21965901.02325    423179.74225      1144.11625        34.90025
G26  22264394.78025  -1457666.98425     -4288.04825        33.70025
G27  20415679.61925     38716.46725        41.71925        32.80025
G08  22821803.09415    348590.27215      1707.65015        30.70015
G16  20619709.67214   -898223.27514     -2717.26114        28.00014
G23  21297407.01214   -350129.99214     -1503.74114        26.30014
R15  19995758.52426   -815646.02826     -2520.40126        35.80026
C37  23643107.01826   -903127.28326     -2705.28026        35.60026
C33  25270140.34625 -30618598.25125      1776.19125        35.10025
C28  21894232.93815 -31271824.34915      -236.98815        30.30015
C27  24734230.44914    141608.20514      1289.48614        27.90014
> 2025 05 07 11 02 14.0000000  0 11                      
G10  21965479.81525    424329.71225      1143.91425        34.80025
G26  22265009.65515  -1461948.57415     -4288.05515        33.60015
G27  20415459.87125     38763.77325        41.23425        32.80025
G08  22821270.66315    350303.98315      1707.82715        30.60015
G16  20620018.45814   -900939.39414     -2724.70514        27.90014
G23  21297484.05914   -351628.57114     -1505.86214        26.30014
R15  19996013.34826   -818114.10326     -2521.21426        35.80026
C37  23643419.40126   -905827.04026     -2705.85426        35.60026
C33  25269587.22925 -30616816.24525      1776.12625        35.10025
C28  21894068.35215 -31272054.68815      -235.58515        30.30015
C27  24733777.46214    142904.10614      1290.34314        28.00014
> 2025 05 07 11 02 15.0000000  0 11                      
G10  21965022.63125    425479.36325      1143.62725        34.70025
G26  22265584.35715  -1466232.56815     -4290.80615        33.50015
G27  20415211.94325     38810.55625        40.65825        32.80025
G08  22820703.15615    352019.34815      1710.32815        30.60015
G16  20620309.85714   -903648.33014     -2711.20714        27.80014
G23  21297557.80814   -353124.26214     -1500.10914        26.30014
R15  19996254.68126   -820670.87126     -2522.28326        35.80026
C33  25269008.03025 -30615034.45625      1775.87025        35.10025
C37  23643703.00526   -908527.22126     -2706.20026        35.50026
C28  21893877.38415 -31272288.01115      -240.62515        30.30015
C27  24733294.49714    144198.11214      1287.24814        28.10014
> 2025 05 07 11 02 16.0000000  0 11                      
G10  21964570.24425    426628.33425      1142.76725        34.70025
G26  22266162.35715  -1470515.25515     -4287.89215        33.40015
G27  20414967.01225     38856.98025        40.38125        32.70025
G08  22820130.55215    353739.99815      1717.42915        30.50015
G16  20620580.56914   -906354.53314     -2710.69714        27.70014
G23  21297609.07214   -354618.64814     -1499.59514        26.50014
R15  19996483.42326   -823159.59026     -2523.18826        35.80026
C33  25268435.72625 -30613252.86625      1775.67825        35.10025
C37  23643982.41225   -911228.01125     -2706.90325        35.40025
C28  21893686.41615 -31272521.00315      -238.63715        30.40015
C27  24732810.63114    145490.61614      1285.94114        28.40014
> 2025 05 07 11 02 17.0000000  0 11                      
G10  21964135.84525    427776.75825      1142.23325        34.60025
G27  20414744.26725     38902.98325        39.87425        32.70025
G26  22266750.54925  -1474798.36625     -4289.24025        33.30025
G08  22819584.03115    355462.31515      1717.23015        30.40015
G16  20620857.57714   -909061.98714     -2713.99514        27.50014
G23  21297672.92814   -356111.97714     -1498.71814        26.60014
R15  19996739.74526   -825698.73426     -2524.01826        36.00026
C37  23644284.00325   -913929.17625     -2707.21525        35.40025
C33  25267875.41425 -30611471.46025      1775.44925        35.10025
C28  21893514.93515 -31272752.42515      -236.50115        30.50015
C27  24732344.75414    146782.12614      1285.14914        28.60014
> 2025 05 07 11 02 18.0000000  0 12                      
G10  21963678.66225    428924.83725      1142.06025        34.50025
G02  24418658.11525                      1791.76325        32.60025
G27  20414491.24225     38948.70725        39.73925        32.80025
G26  22267334.84525  -1479081.73225     -4289.33525        33.20025
G08  22819031.81315    357175.64915      1702.99715        30.30015
G23  21297721.79414   -357603.77314     -1496.87414        26.60014
G16  20621135.78514   -911770.87214     -2715.44414        27.40014
R15  19996974.18326   -828218.03626     -2524.64326        36.10026
C37  23644566.70726   -916630.79926     -2707.64326        35.50026
C33  25267294.11625 -30609690.08925      1775.56025        35.20025
C28  21893320.37015 -31272984.69215      -238.48215        30.60015
C27  24731854.59314    148076.22314      1289.59614        28.70014
> 2025 05 07 11 02 19.0000000  0 12                      
G10  21963215.18325    430072.64625      1141.80925        34.40025
G27  20414243.31325     38994.02725        39.25525        32.80025
G26  22267915.24325  -1483365.32225     -4289.56125        33.10025
G02  24418079.81515      1797.81315      1791.94915        32.70015
G08  22818470.30215    358887.76115      1705.63615        30.20015
G23  21297768.56214   -359098.54014     -1502.11414        26.60014
G16  20621410.09514   -914481.06214     -2716.70414        27.20014
R15  19997214.61626   -830768.68826     -2525.61526        36.10026
C37  23644845.51426   -919332.71426     -2707.86826        35.70026
C33  25266713.71825 -30607908.89425      1775.29525        35.20025
C28  21893123.70615 -31273220.13615      -242.84215        30.60015
C27  24731368.93014    149370.77714      1288.97214        28.80014
> 2025 05 07 11 02 20.0000001  0 12                      
G10  21962789.17725    431220.02825      1141.30525        34.30025
G27  20414029.86125     39039.11325        39.10625        32.80025
G26  22268518.72525  -1487649.23925     -4289.94225        33.00025
G02  24417530.89525      3595.68425      1792.03525        32.60025
G08  22817938.17015    360601.20715      1708.24815        30.10015
G23  21297833.91614   -360598.02814     -1507.71014        26.60014
G16  20621726.67614   -917192.49914     -2717.92114        27.10014
R15  19997481.43226   -833301.75326     -2526.54526        36.10026
C37  23645158.79726   -922035.21426     -2708.60126        35.70026
C33  25266171.09425 -30606127.74725      1775.31225        35.20025
C28  21892966.61515 -31273452.92715      -237.27515        30.60015
C27  24730909.34814    150665.14114      1288.45814        29.20014
> 2025 05 07 11 02 21.0000000  0 12                      
G10  21962315.20625    432366.80125      1140.54925        34.10025
G27  20413774.43825     39083.72225        38.45225        32.80025
G26  22269087.73125  -1491933.44025     -4290.25825        32.90025
G02  24416946.30025      5393.28025      1791.53825        32.50025
G08  22817368.56415    362316.78515      1710.72515        30.10015
G23  21297875.88714   -362098.97314     -1507.59114        26.60014
G16  20621984.79714   -919905.49214     -2719.68814        26.90014
R15  19997694.28426   -835768.26126     -2527.23726        36.10026
C37  23645431.00926   -924738.10026     -2708.94126        35.70026
C33  25265579.00425 -30604346.84925      1774.90825        35.20025
C28  21892758.85815 -31273686.43915      -239.73515        30.60015
C27  24730414.69015    151959.98615      1289.22115        29.60015
> 2025 05 07 11 02 22.0000001  0 12                      
G10  21961884.10425    433513.21425      1140.38825        34.00025
G27  20413558.88725     39127.79725        37.96425        32.80025
G26  22269696.91025  -1496218.08125     -4290.70225        32.90025
G02  24416393.48315      7191.03915      1791.99615        32.40015
G08  22816834.03415    364030.26315      1706.58215        30.10015
G23  21297967.62414   -363595.44214     -1500.07614        26.50014
G16  20622302.87714   -922617.20514     -2716.91614        26.80014
C37  23645742.79326   -927441.64026     -2709.65726        35.70026
R15  19997958.40126   -838286.03426     -2528.35226        36.00026
C33  25265030.38325 -30602566.26225      1774.63925        35.10025
C28  21892594.27215 -31273921.26015      -241.26815        30.50015
C27  24729958.10615    153254.98415      1289.28215        30.10015
> 2025 05 07 11 02 23.0000001  0 12                      
G27  20413313.05725     39171.62725        37.84425        32.70025
G26  22270278.50725  -1500503.10625     -4291.07725        32.80025
G10  21961435.61425    434659.25825      1139.99425        33.80025
G02  24415822.97715      8986.99915      1789.19415        32.20015
G08  22816269.22515    365744.34815      1708.52415        30.10015
G23  21298010.19414   -365089.22814     -1498.30614        26.50014
G16  20622580.78414   -925324.61314     -2711.11614        26.60014
C37  23646026.99626   -930145.58826     -2709.96026        36.10026
R15  19998193.73926   -840810.68926     -2528.96526        36.00026
C33  25264452.98325 -30600785.69425      1774.74625        35.00025
C27  24729474.24115    154547.05515      1284.79615        30.60015
C28  21892410.20015 -31274154.52015      -238.28915        30.50015
> 2025 05 07 11 02 23.9999998  0 12                      
G27  20412970.09525     39215.07125        37.38825        32.70025
G26  22270772.26525  -1504788.40925     -4291.30125        32.80025
G10  21960892.99015    435804.57715      1138.34215        33.60015
G02  24415146.34615     10780.77815      1786.82415        32.10015
G08  22815608.48315    367456.49715      1705.31515        30.20015
G23  21297968.52314   -366584.06714     -1501.22814        26.60014
G16  20622756.76314   -928034.59614     -2717.13214        26.50014
C37  23646215.86526   -932849.96626     -2710.40026        36.40026
R15  19998346.63326   -843375.10226     -2530.13426        36.00026
C33  25263785.34525 -30599005.34225      1774.43325        35.00025
C27  24728898.04015    155838.68915      1285.60415        30.70015
C28  21892122.99915 -31274391.04415      -243.96515        30.50015
> 2025 05 07 11 02 25.0000001  0 12                      
G27  20412832.79025     39258.22225        37.08725        32.70025
G26  22271450.69625  -1509073.92725     -4291.54225        32.70025
G10  21960557.82215    436949.62315      1139.24215        33.40015
G02  24414673.87315     12574.44415      1787.69015        31.90015
G08  22815151.29915    369171.78815      1710.94415        30.20015
G23  21298116.32114   -368081.92314     -1505.28014        26.60014
G16  20623150.09014   -930746.56314     -2718.87614        26.30014
C37  23646607.39426   -935554.65226     -2710.70426        36.50026
R15  19998683.59926   -845863.78426     -2530.65126        35.90026
C33  25263306.57725 -30597225.00525      1774.46425        34.90025
C27  24728523.30015    157132.50415      1289.04015        30.90015
C28  21892034.56015 -31274625.36115      -239.07915        30.40015
> 2025 05 07 11 02 25.9999998  0 12                      
G27  20412500.02025     39300.79925        36.44525        32.70025
G26  22271939.65725  -1513359.85725     -4291.97625        32.70025
G10  21960015.19825    438094.07725      1138.31225        33.20025
G02  24414005.33615     14370.61915      1791.58415        31.70015
G08  22814508.24515    370885.20715      1706.63515        30.30015
G23  21298084.84314   -369582.05614     -1507.11614        26.70014
G16  20623341.35814   -933460.36114     -2720.55514        26.20014
C37  23646805.55726   -938260.08026     -2711.58826        36.50026
R15  19998835.59426   -848423.61026     -2531.97726        35.90026
C33  25262640.13825 -30595444.94225      1774.13125        34.80025
C27  24727944.40015    158427.20915      1289.35715        31.20015
C28  21891749.15715 -31274854.13815      -231.79715        30.40015
> 2025 05 07 11 02 26.9999999  0 12                      
G27  20412287.46725     39343.00625        36.15825        32.80025
G26  22272546.43725  -1517646.18225     -4292.38325        32.70025
G10  21959590.99115    439238.10515      1137.95115        32.90015
G02  24413457.31515     16167.89115      1791.95615        31.60015
G08  22813967.71915    372597.28115      1705.53815        30.40015
G23  21298163.98814   -371086.58414     -1512.58714        26.80014
G16  20623655.84014   -936174.15214     -2719.64914        26.20014
C37  23647116.74226   -940965.93526     -2711.87726        36.60026
R15  19999100.91126   -850947.49926     -2532.60626        35.80026
C33  25262087.92025 -30593665.12925      1773.87825        34.70025
C27  24727490.51515    159720.94915      1287.44715        31.70015
C28  21891594.76415 -31275088.63715      -243.17015        30.30015
> 2025 05 07 11 02 27.9999999  0 12                      
G27  20412053.03025     39384.67125        35.53125        32.90025
G26  22273125.93625  -1521932.93625     -4292.82925        32.80025
G10  21959132.00915    440383.27215      1139.87215        32.70015
G02  24412878.71615     17963.35915      1788.70115        31.40015
G08  22813407.40715    374309.04615      1705.74515        30.60015
G23  21298221.54814   -372591.73414     -1511.32414        26.90014
G16  20623939.14414   -938890.19114     -2723.02514        26.10014
C37  23647396.14826   -943672.34026     -2712.48726        36.70026
R15  19999336.24826   -853472.15526     -2533.67726        35.80026
C33  25261509.92125 -30591885.52625      1773.68525        34.60025
C27  24727008.44815    161014.86215      1288.18915        31.90015
C28  21891394.20315 -31275322.81115      -239.82215        30.30015
> 2025 05 07 11 02 28.9999999  0 12                      
G27  20411823.38925     39425.96725        35.19425        33.00025
G26  22273723.72225  -1526219.94325     -4293.04825        32.90025
G10  21958697.61015    441527.27215      1137.49715        32.50015
G02  24412325.29915     19758.12415      1788.49415        31.30015
G08  22812866.88115    376021.45015      1706.80515        30.70015
G23  21298288.10214   -374093.69014     -1506.27614        26.90014
G16  20624245.23214   -941609.62114     -2727.04214        26.10014
C37  23647699.23826   -946379.30626     -2713.11026        36.80026
R15  19999595.26826   -856025.06126     -2534.60526        35.70026
C33  25260955.30525 -30590106.23725      1773.26825        34.50025
C27  24726541.37215    162308.49815      1287.63315        32.00015
C28  21891229.91715 -31275559.55515      -243.89215        30.20015
> 2025 05 07 11 02 29.9999999  0 12                      
G27  20411573.06225     39466.85725        34.84225        33.00025
G26  22274303.82025  -1530507.44725     -4293.59325        32.90025
G10  21958249.12015    442668.62315      1134.18115        32.30015
G08  22812303.27115    377734.76315      1707.92115        30.80015
G02  24411745.80015     21552.03515      1787.63715        31.20015
G23  21298327.97414   -375596.14314     -1508.54614        26.90014
G16  20624524.03914   -944329.95414     -2726.62614        26.00014
C37  23647981.04326   -949086.71026     -2713.41226        36.90026
R15  19999824.90926   -858519.13226     -2535.39026        35.70026
C33  25260374.60725 -30588327.06225      1773.32525        34.40025
C27  24726056.60725    163601.64525      1287.10925        32.30025
C28  21891040.74815 -31275794.93915      -240.49715        30.10015
> 2025 05 07 11 02 30.9999999  0 12                      
G27  20411335.92625     39507.31425        34.37725        33.00025
G26  22274874.92525  -1534795.44925     -4294.11125        32.90025
G10  21957801.53015    443807.99215      1132.51315        32.10015
G08  22811742.65915    379447.79115      1707.02115        30.90015
G02  24411152.81115     23346.35415      1788.65915        31.10015
G23  21298369.34614   -377101.69914     -1512.96814        26.90014
G16  20624814.53814   -947050.95514     -2727.19614        25.90014
C37  23648264.64726   -951794.84026     -2714.30026        36.90026
R15  20000064.74326   -861067.49026     -2536.59026        35.60026
C33  25259797.20625 -30586548.23625      1772.84025        34.20025
C27  24725562.84925    164894.73325      1287.24725        32.50025
C28  21890835.99015 -31276032.12915      -243.90215        30.00015
> 2025 05 07 11 02 31.9999999  0 12                      
G27  20411089.19725     39547.21225        33.75525        33.00025
G26  22275459.22025  -1539083.61025     -4294.10025        32.90025
G10  21957350.04315    444949.36815      1136.51515        32.00015
G08  22811172.15415    381160.12015      1706.11515        30.90015
G02  24410577.20915     25141.99815      1790.44115        31.00015
G23  21298415.21414   -378605.62414     -1508.97214        26.90014
G16  20625103.53814   -949772.39414     -2727.52014        25.90014
C37  23648544.05426   -954503.34126     -2714.49526        36.90026
R15  20000308.47526   -863636.49126     -2537.47226        35.50026
C33  25259218.30725 -30584769.46525      1772.93125        34.10025
C27  24725078.68425    166187.55525      1286.87925        32.60025
C28  21890650.41815 -31276270.06915      -244.12515        29.90015
> 2025 05 07 11 02 32.9999999  0 12                      
G27  20410863.45325     39586.88325        33.64025        33.00025
G26  22276062.40325  -1543372.23425     -4294.77025        32.80025
G10  21956918.64215    446091.82515      1137.08015        31.80015
G08  22810634.32615    382870.59615      1703.62915        31.00015
G02  24410023.19315     26937.34315      1789.27715        31.00015
G23  21298493.46014   -380115.87514     -1519.33114        26.80014
G16  20625399.73314   -952489.00514     -2720.11314        25.80014
C37  23648847.74326   -957212.26726     -2715.00126        36.80026
R15  20000562.09925   -866161.10825     -2538.04125        35.40025
C33  25258653.49825 -30582990.85125      1772.67125        34.00025
C27  24724612.50725    167480.40125      1286.99325        32.90025
C28  21890479.53615 -31276510.07815      -246.90715        29.80015
> 2025 05 07 11 02 33.9999999  0 12                      
G27  20410610.72825     39626.02425        33.03025        32.90025
G26  22276631.40925  -1547661.04625     -4294.74825        32.80025
G08  22810074.61415    384580.92915      1704.41615        31.20015
G10  21956461.15815    447233.46815      1135.38915        31.70015
G02  24409451.78815     28730.61015      1786.38115        30.90015
G23  21298533.63214   -381626.54214     -1516.71814        26.80014
G16  20625668.94714   -955203.55214     -2719.35714        25.70014
C37  23649133.74526   -959921.74826     -2715.54726        36.70026
R15  20000789.94125   -868646.00425     -2539.03225        35.40025
C33  25258077.59725 -30581212.54025      1772.36625        33.90025
C27  24724126.84325    168773.17125      1286.93925        33.10025
C28  21890287.96915 -31276747.78415      -242.34715        29.60015
> 2025 05 07 11 02 35.0000000  0 12                      
G27  20410396.67625     39664.65525        32.51325        32.90025
G26  22277240.28725  -1551950.50325     -4295.64025        32.70025
G10  21956036.65215    448372.67215      1132.12015        31.60015
G08  22809535.88715    386293.07215      1707.18415        31.20015
G02  24408901.06915     30524.58315      1788.46115        30.80015
G23  21298613.37714   -383136.11314     -1514.88614        26.70014
G16  20625963.64214   -957916.71214     -2718.32914        25.60014
C37  23649446.42926   -962631.97026     -2716.40126        36.70026
R15  20001061.25325   -871204.30125     -2540.34225        35.30025
C27  24723675.65625    170065.45925      1286.23625        33.30025
C33  25257523.58025 -30579434.52425      1772.05625        33.80025
C28  21890128.47915 -31276986.03815      -244.33815        29.50015
> 2025 05 07 11 02 36.0000000  0 12                      
G27  20410143.35225     39702.83925        32.09725        32.90025
G26  22277820.38625  -1556240.19625     -4295.67025        32.70025
G10  21955574.37215    449512.25415      1133.90815        31.70015
G08  22808971.67715    387999.90415      1698.31115        31.20015
G02  24408321.57115     32319.84915      1790.04815        30.80015
G23  21298667.63914   -384645.67014     -1515.41114        26.60014
G16  20626246.04714   -960632.58914     -2723.09614        25.60014
C37  23649725.53626   -965342.43726     -2716.39726        36.60026
R15  20001292.99325   -873709.07625     -2540.98025        35.20025
C33  25256949.77825 -30577656.55525      1772.13425        33.70025
C27  24723190.59115    171358.24515      1287.22515        33.30015
C28  21889935.11314 -31277223.21614      -242.44914        29.40014
> 2025 05 07 11 02 37.0000000  0 12                      
G10  21955120.78615    450651.21115      1132.78015        32.30015
G27  20409905.61625     39740.64625        31.75425        32.80025
G26  22278400.78425  -1560530.20925     -4296.03425        32.70025
G08  22808407.76815    389711.13215      1707.56215        31.10015
G02  24407740.27315     34113.89115      1787.56615        30.80015
G23  21298710.51014   -386153.08214     -1512.20314        26.50014
G16  20626532.64914   -963356.28514     -2733.46714        25.50014
C37  23650010.93826   -968053.66226     -2717.41326        36.50026
R15  20001529.22925   -876238.31825     -2541.93125        35.20025
C33  25256373.57625 -30575878.99425      1771.54625        33.60025
C27  24722701.33015    172649.31615      1284.40315        33.20015
C28  21889747.74314 -31277462.20914      -245.71014        29.30014
> 2025 05 07 11 02 38.0000000  0 12                      
G10  21954681.89025    451789.57425      1132.14725        32.80025
G27  20409675.37625     39778.13025        31.40625        32.80025
G26  22278996.17225  -1564820.73825     -4296.70225        32.60025
G02  24407176.06415     35909.81215      1790.94115        30.70015
G08  22807865.44315    391420.10515      1701.92715        31.00015
G16  20626831.24214   -966083.55214     -2734.96814        26.00014
G23  21298774.96514   -387663.60214     -1517.98914        26.40014
C37  23650312.52926   -970765.29026     -2717.69126        36.50026
R15  20001791.54825   -878809.57525     -2542.89625        35.20025
C33  25255812.96525 -30574101.61725      1771.42025        33.90025
C27  24722233.65415    173941.31815      1286.60215        33.10015
C28  21889572.96414 -31277699.98714      -243.03514        29.30014
> 2025 05 07 11 02 39.0000000  0 12                      
G10  21954227.40525    452927.33025      1131.60625        33.10025
G27  20409434.94225     39814.80125        30.42025        32.80025
G26  22279580.76725  -1569111.77125     -4297.12625        32.50025
G02  24406605.85815     37703.35515      1786.50715        30.70015
G08  22807300.63415    393127.66515      1701.00715        30.90015
G16  20627110.04914   -968808.44714     -2729.55214        26.40014
G23  21298822.03214   -389176.00414     -1519.18814        26.30014
C37  23650599.43126   -973477.57926     -2718.40926        36.40026
R15  20002024.18725   -881319.70325     -2543.96825        35.10025
C33  25255233.76525 -30572324.46725      1771.24325        34.10025
C27  24721747.09125    175233.10125      1285.88025        33.00025
C28  21889389.79114 -31277940.31814      -247.39914        29.20014
> 2025 05 07 11 02 40.0000000  0 12                      
G10  21953782.21325    454064.43825      1130.92025        33.60025
G27  20409192.11025     39851.15825        30.33525        32.70025
G26  22280159.96615  -1573403.41015     -4297.80215        32.40015
G02  24406025.76015     39497.14915      1788.05615        30.60015
G08  22806734.92615    394838.87515      1707.17015        30.80015
G16  20627401.14714   -971533.25214     -2730.62114        26.70014
G23  21298879.29314   -390687.60114     -1517.05614        26.30014
C37  23650882.43526   -976190.43626     -2718.94926        36.40026
R15  20002269.71725   -883898.64425     -2545.05725        35.10025
C33  25254656.96525 -30570547.63025      1770.86925        34.30025
C27  24721261.12715    176524.00315      1284.65115        32.90015
C28  21889196.12514 -31278181.22114      -246.99914        29.20014
> 2025 05 07 11 02 41.0000000  0 12                      
G10  21953347.51425    455201.20525      1130.67725        33.90025
G27  20408973.26225     39887.02125        29.69925        32.70025
G26  22280756.85315  -1577691.81315     -4292.69915        32.20015
G02  24405469.34515     41290.32315      1786.94415        30.60015
G08  22806190.50315    396550.97015      1706.61815        30.70015
G16  20627704.53714   -974260.76614     -2734.78514        26.80014
G23  21298929.65814   -392199.50014     -1517.96714        26.20014
C37  23651182.22726   -978903.72626     -2719.36926        36.40026
R15  20002511.64925   -886360.56425     -2545.67325        35.10025
C33  25254099.95025 -30568770.83925      1770.90225        34.50025
C27  24720800.64615    177813.75415      1283.31115        32.70015
C28  21889028.24114 -31278421.25014      -245.45714        29.20014
> 2025 05 07 11 02 42.0000000  0 12                      
G10  21952892.12925    456337.16825      1129.71525        34.10025
G27  20408728.33125     39922.23525        29.04525        32.60025
G26  22281344.74615  -1581982.40215     -4297.52315        32.10015
G02  24404886.84815     43084.64215      1789.04415        30.50015
G08  22805631.69015    398262.90415      1706.00615        30.60015
G16  20627989.94014   -976987.05214     -2731.51414        27.10014
G23  21298977.32514   -393710.79614     -1516.83814        26.20014
C37  23651466.13126   -981617.78026     -2720.22426        36.30026
R15  20002758.07925   -888943.32825     -2547.21025        35.00025
C33  25253522.25025 -30566994.85025      1769.79525        34.50025
C27  24720314.08315    179105.22915      1286.54315        32.60015
C28  21888832.47714 -31278660.70414      -244.95814        29.20014
> 2025 05 07 11 02 43.0000000  0 12                      
G10  21952437.04425    457472.31725      1129.62825        34.10025
G27  20408481.90225     39957.42325        29.31125        32.60025
G26  22281925.44415  -1586273.88015     -4297.78315        32.00015
G02  24404309.14815     44879.01115      1788.53015        30.50015
G08  22805071.97715    399974.17315      1705.07315        30.50015
G16  20628269.04714   -979712.20514     -2730.44814        27.30014
G23  21299029.18914   -395220.94414     -1515.43614        26.20014
C37  23651754.83126   -984332.34726     -2720.63326        36.40026
R15  20003003.00925   -891518.44625     -2547.68925        35.10025
C33  25252941.55225 -30565218.80225      1770.26625        34.50025
C27  24719832.61615    180396.42515      1285.24615        32.50015
C28  21888642.40814 -31278902.31414      -248.49714        29.40014
> 2025 05 07 11 02 44.0000001  0 12                      
G10  21952012.23825    458607.35825      1128.87325        34.10025
G27  20408270.24825     39991.85925        28.19725        32.60025
G26  22282525.02915  -1590569.19415     -4303.09315        31.80015
G02  24403748.83615     46670.75415      1784.56515        30.50015
G08  22804538.34715    401685.27615      1705.15515        30.30015
G16  20628581.43014   -982441.75414     -2737.60814        27.40014
G23  21299102.93814   -396732.77314     -1518.53114        26.10014
C37  23652065.41626   -987047.31026     -2720.96826        36.40026
R15  20003266.82725   -894034.69025     -2548.48225        35.20025
C33  25252391.73325 -30563442.76325      1770.22225        34.40025
C27  24719376.63225    181687.43725      1285.10925        32.40025
C28  21888479.32115 -31279141.99115      -244.52215        29.50015
> 2025 05 07 11 02 44.9999998  0 12                      
G10  21951477.40825    459741.91925      1128.45725        34.10025
G27  20407938.97825     40025.98225        28.10425        32.60025
G26  22283015.19015  -1594862.01715     -4297.43615        31.70015
G02  24403085.39615     48462.39215      1785.72115        30.50015
G08  22803892.89315    403393.76615      1701.31815        30.20015
G16  20628779.89314   -985170.96414     -2734.90214        27.40014
G23  21299069.66114   -398248.56214     -1523.63114        26.00014
C37  23652254.88526   -989762.72326     -2721.44526        36.40026
R15  20003422.71925   -896616.68925     -2549.51525        35.20025
C33  25251716.90025 -30561667.09325      1769.67525        34.30025
C27  24718800.73025    182978.26925      1284.93125        32.40025
C28  21888196.01715 -31279383.62415      -248.41915        29.50015
> 2025 05 07 11 02 46.0000001  0 12                      
G10  21951133.84625    460876.02725      1127.96225        34.00025
G27  20407798.97525     40059.57625        27.41225        32.60025
G26  22283698.11715  -1599154.07815     -4297.59615        31.50015
G02  24402618.61915     50254.77415      1786.83615        30.40015
G08  22803437.80915    405101.82815      1701.93015        30.10015
G16  20629165.12614   -987899.01314     -2733.38414        27.50014
G23  21299230.64914   -399769.96514     -1530.12714        25.90014
C37  23652654.20826   -992478.82426     -2722.30926        36.30026
R15  20003765.68125   -899136.71925     -2550.68825        35.20025
C33  25251251.92225 -30559891.57825      1769.57125        34.30025
C27  24718420.29425    184269.13025      1285.01125        32.30025
C28  21888115.07315 -31279627.01315      -250.13215        29.50015
> 2025 05 07 11 02 46.9999998  0 12                      
G10  21950586.72525    462009.35925      1127.09825        34.00025
G27  20407466.20525     40092.59525        26.88525        32.80025
G26  22284184.38015  -1603448.37815     -4301.25915        31.40015
G02  24401946.78415     52046.06515      1784.89815        30.40015
G08  22802784.56115    406811.47715      1704.59515        30.00015
G16  20629354.59514   -990625.39614     -2731.39214        27.60014
G23  21299200.97014   -401297.01714     -1535.72114        25.80014
C37  23652847.87426   -995195.53626     -2722.80626        36.30026
R15  20003913.47925   -901673.60725     -2551.58225        35.20025
C33  25250583.68525 -30558116.43025      1769.17125        34.20025
C27  24717843.79325    185559.39325      1284.17025        32.30025
C28  21887839.86415 -31279869.35515      -247.61015        29.60015
> 2025 05 07 11 02 47.9999999  0 12                      
G10  21950167.91525    463142.30525      1126.88925        34.00025
G27  20407252.45325     40125.29425        26.67625        32.80025
G26  22284791.16015  -1607742.87315     -4300.45415        31.20015
G02  24401399.36315     53836.23515      1783.74615        30.30015
G08  22802248.83215    408521.36915      1704.15015        29.90015
G16  20629669.07714   -993353.88714     -2735.40714        27.70014
G23  21299283.71314   -402827.99414     -1538.80014        25.70014
C37  23653159.95826   -997912.66426     -2723.14526        36.30026
R15  20004181.19425   -904211.25925     -2552.35825        35.30025
C33  25250036.26425 -30556341.48125      1769.03925        34.10025
C27  24717398.60115    186849.75715      1284.60415        32.20015
C28  21887673.47915 -31280113.49215      -250.84515        29.60015
> 2025 05 07 11 02 48.9999999  0 11                      
G10  21949715.52825    464274.77825      1126.37225        33.90025
G27  20407010.52125     40157.43625        26.00125        32.80025
G26  22285380.55215  -1612036.62115     -4299.23315        31.10015
G02  24400823.76115     55629.37915      1788.76515        30.30015
G08  22801689.71915    410226.05115      1696.21215        29.80015
G16  20629947.28514   -996081.88714     -2733.61614        27.80014
C37  23653448.65826  -1000630.32326     -2723.73226        36.20026
R15  20004421.02725   -906759.61625     -2553.44025        35.30025
C33  25249458.26425 -30554566.79325      1768.74625        34.00025
C27  24716912.33815    188140.58515      1285.24815        32.10015
C28  21887480.11315 -31280356.20115      -247.80515        29.60015
> 2025 05 07 11 02 49.9999998  0 12                      
G10  21949246.05325    465406.64125      1125.63925        33.80025
G27  20406755.69725     40189.22125        25.68725        32.80025
G26  22285951.35715  -1616331.11815     -4300.78715        31.00015
G02  24400239.16615     57421.05215      1785.01915        30.30015
G08  22801116.81515    411934.70015      1704.71415        29.60015
G16  20630212.60114   -998813.77114     -2739.74214        28.10014
G23  21299377.84814   -405889.07714     -1531.29314        24.60014
C37  23653723.56826  -1003348.51726     -2724.32326        36.10026
R15  20004645.57225   -909289.58625     -2554.42325        35.30025
C33  25248873.66825 -30552792.20425      1768.67425        34.00025
C27  24716415.88115    189431.12815      1284.53615        32.00015
C28  21887282.55015 -31280599.62615      -249.64715        29.60015
> 2025 05 07 11 02 50.9999999  0 12                      
G10  21948820.34825    466537.95925      1125.20025        33.80025
G27  20406542.24525     40220.61325        25.35225        32.80025
G26  22286564.13315  -1620627.30015     -4302.86615        30.90015
G02  24399691.74515     59211.08615      1783.36815        30.30015
G08  22800581.38615    413646.15915      1707.01715        29.50015
G16  20630526.78414  -1001543.12414     -2733.92914        28.40014
G23  21299450.99714   -407408.49614     -1525.28014        24.00014
C37  23654037.75026  -1006067.32626     -2724.90726        36.10026
R15  20004924.07925   -911884.58325     -2555.38925        35.30025
C33  25248325.04815 -30551018.11315      1768.04915        33.90015
C27  24715963.19515    190722.07115      1285.35015        32.00015
C28  21887120.66215 -31280842.14415      -247.85615        29.50015
> 2025 05 07 11 02 51.9999999  0 12                      
G10  21948370.95925    467668.60225      1124.44125        34.00025
G27  20406298.81325     40251.21925        24.34825        32.70025
G26  22287145.73015  -1624922.47015     -4300.52415        30.80015
G02  24399111.34715     61003.93015      1788.38515        30.20015
G08  22800023.77214    415353.72814      1699.76014        29.40014
G16  20630813.98514  -1004275.13114     -2739.19514        28.50014
G23  21299496.86514   -408921.86414     -1516.20514        24.20014
C37  23654321.65426  -1008786.78126     -2725.58526        36.00026
R15  20005154.91925   -914384.00625     -2556.29525        35.30025
C33  25247748.54725 -30549244.12125      1768.13125        33.90025
C27  24715480.52915    192011.46015      1282.80215        31.90015
C28  21886941.98515 -31281084.73115      -248.43215        29.50015
> 2025 05 07 11 02 52.9999999  0 12                      
G10  21947913.47625    468798.63725      1123.86625        34.20025
G27  20406061.07825     40281.47825        24.22325        32.70025
G26  22287725.22915  -1629219.19415     -4303.36015        30.80015
G02  24398532.74715     62795.90015      1785.66715        30.20015
G08  22799460.76214    417060.81214      1700.97614        29.20014
G16  20631088.89414  -1007007.65314     -2738.64214        28.60014
G23  21299549.02914   -410435.92914     -1520.27614        24.60014
R15  20005397.45225   -916947.65525     -2557.44325        35.20025
C37  23654605.85726  -1011506.80626     -2726.11926        35.90026
C33  25247166.05125 -30547470.56825      1767.52225        34.00025
C27  24714992.46715    193299.30815      1281.26515        31.80015
C28  21886742.32415 -31281330.80615      -253.63015        29.70015
> 2025 05 07 11 02 53.9999999  0 12                      
G10  21947464.08725    469928.31325      1123.63225        34.40025
G27  20405813.74925     40311.36725        23.84125        32.70025
G02  24397953.54815     64587.10415      1784.95715        30.20015
G26  22288307.72615  -1633519.20815     -4307.51815        30.70015
G16  20631381.49214  -1009741.91214     -2740.98914        28.60014
G08  22798901.34914    418769.05114      1702.95214        29.10014
G23  21299603.89114   -411952.97314     -1524.39514        24.70014
R15  20005644.18125   -919531.94825     -2558.22525        35.20025
C37  23654893.95826  -1014227.36826     -2726.63726        35.70026
C33  25246585.05325 -30545697.04725      1767.69325        34.00025
C27  24714507.40315    194589.24315      1285.16815        31.80015
C28  21886547.75815 -31281574.95915      -249.00115        29.80015
> 2025 05 07 11 02 54.9999999  0 12                      
G10  21947029.08825    471057.59125      1123.16125        34.50025
G27  20405587.40625     40340.77325        23.24625        32.70025
G02  24397406.12715     66378.04215      1784.88515        30.20015
G16  20631686.08114  -1012475.74314     -2739.53314        28.80014
G08  22798356.92614    420477.59414      1702.77614        29.10014
G26  22288903.11315  -1637820.43815     -4307.75415        30.40015
G23  21299674.94214   -413469.22214     -1521.76914        25.20014
R15  20005901.10325   -922074.91525     -2558.85525        35.20025
C37  23655197.64726  -1016948.29226     -2726.96826        35.60026
C33  25246034.03425 -30543923.86925      1767.14225        34.00025
C27  24714042.72415    195878.47115      1283.00915        31.80015
C28  21886379.87415 -31281819.24715      -250.22115        29.80015
> 2025 05 07 11 02 55.9999999  0 12                      
G10  21946572.50425    472186.21025      1122.44325        34.50025
G27  20405339.47725     40369.76225        22.93625        32.60025
G02  24396827.22815     68169.38215      1785.69515        30.10015
G16  20631966.08714  -1015208.51614     -2738.08714        28.90014
G08  22797801.41014    422188.24314      1705.85614        29.00014
G26  22289492.50515  -1642123.59615     -4309.96215        29.80015
G23  21299733.10214   -414991.94314     -1531.80014        25.40014
R15  20006143.33525   -924636.27125     -2560.07825        35.20025
C37  23655484.24926  -1019669.79226     -2727.57826        35.50026
C33  25245452.43725 -30542150.73825      1767.31425        33.90025
C27  24713557.06015    197166.28215      1281.31015        31.70015
C28  21886191.30515 -31282064.88115      -252.09815        29.80015
> 2025 05 07 11 02 57.0000000  0 12                      
G10  21946152.19525    473314.26225      1121.90425        34.50025
G27  20405135.01925     40398.18525        22.27725        32.60025
G02  24396281.30615     69958.65015      1782.36815        30.00015
G16  20632284.46714  -1017944.17014     -2742.95614        29.10014
G08  22797271.07814    423891.21814      1693.27414        28.90014
G26  22290103.78214  -1646424.69114     -4305.92614        29.30014
G23  21299820.04114   -416515.41714     -1529.71314        25.60014
R15  20006418.54525   -927212.15325     -2561.15925        35.20025
C37  23655797.83225  -1022392.03825     -2728.42725        35.40025
C33  25244908.01425 -30540378.16225      1766.48725        33.90025
C27  24713103.47415    198456.70915      1285.92315        31.70015
C28  21886026.11915 -31282308.92915      -249.06515        29.80015
> 2025 05 07 11 02 58.0000000  0 12                      
G10  21945700.40825    474441.91525      1121.58925        34.50025
G27  20404896.08425     40426.29525        22.09025        32.60025
G02  24395698.80915     71744.44015      1778.18615        30.00015
G16  20632565.37214  -1020680.58014     -2742.64914        29.30014
G08  22796715.86214    425595.20214      1698.62214        28.90014
G23  21299868.30814   -418041.02014     -1532.53114        25.90014
G26  22290679.38414  -1650720.27914     -4298.69314        28.80014
R15  20006660.47725   -929772.74225     -2561.72525        35.30025
C37  23656081.73525  -1025114.55525     -2728.46025        35.40025
C33  25244330.61425 -30538605.56225      1766.80125        33.80025
C27  24712622.00815    199744.59115      1280.79915        31.60015
C28  21885836.05115 -31282554.96015      -252.83115        29.70015
> 2025 05 07 11 02 59.0000000  0 12                      
G10  21945268.10725    475569.21125      1121.20025        34.50025
G27  20404665.54425     40454.09025        21.71925        32.60025
G16  20632862.76614  -1023418.30814     -2744.30414        29.40014
G02  24395128.90415     73533.26215      1784.41815        29.80015
G08  22796167.54214    427299.22314      1698.12114        28.80014
G23  21299942.95614   -419566.24014     -1530.94514        26.10014
G26  22291265.47814  -1655014.69314     -4299.74314        28.30014
R15  20006920.69725   -932332.53125     -2562.87125        35.40025
C37  23656387.52425  -1027837.40025     -2728.87225        35.30025
C33  25243770.60125 -30536833.02525      1766.64025        33.70025
C27  24712154.33215    201031.96515      1281.25615        31.60015
C28  21885664.86915 -31282800.16215      -250.65415        29.70015
