     4.01           OBSERVATION DATA    M                   RINEX VERSION / TYPE
GnssLogger          samsung 13          20250503 081637 UTC PGM / RUN BY / DATE
Google GnssLogger                                           MARKER NAME
Unknown                                                     MARKER NUMBER
Unknown             Unknown                                 OBSERVER / AGENCY
Unknown             GnssLogger          v3.1.0.4            REC # / TYPE / VERS
Unknown             Unknown                                 ANT # / TYPE
        0.0000        0.0000        0.0000                  ANTENNA: DELTA H/E/N
G    4 C1C D1C S1C L1C                                      SYS / # / OBS TYPES
R    4 C1C D1C S1C L1C                                      SYS / # / OBS TYPES
C    4 C2C D2C S2C L2C                                      SYS / # / OBS TYPES
  2025    05    03    08    16   37.0000000     GPS         TIME OF FIRST OBS
 3 R09 -2 R10 -7 R16 -1                                     GLONASS SLOT / FRQ #
samsung SM-A515F (Android 13) HW Year: 2016 HW Model:       COMMENT
S.LSI,K102                                                  COMMENT
                                                            END OF HEADER
> 2025 05 03 08 16 37.4974065  0 12                      
G18  21593933.83126      1200.74726        37.60026
G29  20900535.16126     -2728.29226        40.40026
G25  22356346.82326     -4202.96126        38.00026
G26  21675456.69425      1201.97525        32.70025
G28  21703858.73125     -3382.21425        31.60025
G31  21239599.53125     -1775.11525        30.00025
C30  24350789.00026     -3979.07926        39.70026
R09  19126978.86826     -1908.78626        36.90026
C36  24194731.43625     -4210.55625        34.80025
C29  21442597.69925     -1491.06725        34.80025
R10  20407569.33425      1454.28925        33.20025
R16  22433629.72125     -5041.47625        33.60025
> 2025 05 03 08 16 37.6974064  0 12                      
G18  21593821.70816      1198.10016        39.10016       240.82816
G29  20900571.73516     -2728.79416        40.20016      -544.70116
G25  22356442.45716     -4204.32016        38.00016      -839.44616
G05  23757220.01916       227.27516        39.20016        46.74516
G26  21675345.77015      1203.02515        32.60015       241.59115
G28  21703921.08815     -3383.23315        31.70015      -675.41215
G31  21239611.22315     -1773.45615        30.00015      -353.62915
C30  24350876.83916     -3977.73016        39.70016      -794.39016
R09  19126974.37116     -1912.39016        36.70016      -330.53016
C36  24194823.47215     -4209.64515        34.90015      -840.56215
C29  21442586.60615     -1491.28415        34.90015      -297.03615
R10  20407446.71915      1453.15115        33.20015       300.05415
> 2025 05 03 08 16 38.9999998  0 14                      
G05  23756832.68726       225.21226        38.70026                
G18  21593201.43826      1198.76526        40.20026                
G29  20900926.09026     -2732.06726        40.10026                
G25  22357161.05926     -4206.24426        38.00026                
G20  24366654.61626     -2170.01826        36.00026                
G28  21704435.23225     -3382.81425        32.30025                
G26  21674741.08925      1202.19625        32.50025                
G31  21239707.15725     -1775.88425        29.90025                
C30  24351543.87726     -3979.83626        39.70026                
R09  19127118.87126     -1909.82726        36.60026                
R16  22434637.32425     -5002.11925        34.00025                
C36  24195555.86525     -4211.23625        35.00025                
C29  21442635.17325     -1493.97625        34.90025                
R10  20406762.89225      1456.92125        33.10025                
> 2025 05 03 08 16 39.9999999  0 14                      
G05  23756586.85716       219.66916        41.00016       227.21116
G29  20901236.67526     -2735.34226        39.90026     -2728.49026
G18  21592766.43916      1194.95916        40.10016      1201.97616
G25  22357750.75116     -4211.43316        38.30016     -4204.00216
G20  24366861.77316     -2172.01316        36.70016     -2166.15216
G28  21704874.72815     -3382.82415        32.30015     -3377.08915
G26  21674306.99015      1205.99715        32.40015      1210.12415
G31  21239839.96515     -1778.58415        30.00015     -1771.14615
C30  24352101.19116     -3983.33216        40.00016     -3976.07716
R09  19127270.56616     -1914.28816        36.50016     -1916.22316
R16  22435371.81516     -5008.20116        35.60016     -5029.98016
C36  24196156.05015     -4219.47315        35.00015     -4209.94115
C29  21442718.51515     -1497.21815        34.80015     -1490.17315
R10  20406282.32515      1447.56815        32.90015      1457.57015
> 2025 05 03 08 16 40.9999999  0 15                      
G05  23756305.65216       221.13716        41.10016       454.28216
G18  21592298.16316      1193.80316        39.90016      2402.41216
G29  20901519.67926     -2733.27326        39.80026     -5456.26126
G25  22358314.36126     -4210.24226        38.40026     -8408.25726
G20  24367046.44516     -2170.98716        36.60016     -4331.61916
G28  21705281.24615     -3386.93415        32.70015     -6756.83415
G26  21673836.31515      1199.74515        32.20015      2417.23915
G31  21239942.49415     -1782.88515        30.10015     -3546.21015
C30  24352628.22616     -3979.33916        40.00016     -7948.42016
R16  22436068.23316     -5009.15416        37.40016    -10017.15716
R09  19127390.18316     -1918.53916        36.80016     -3820.98416
C13  39050436.44525       286.08525        33.80025                
C29  21442767.08115     -1496.17115        34.80015     -2979.38815
C36  24196732.25115     -4216.77215        34.90015     -8421.84215
R10  20405778.67315      1441.47515        32.60015      2879.30415
> 2025 05 03 08 16 41.9999999  0 15                      
G05  23756047.23116       221.00416        41.10016       681.25416
G25  22358896.55826     -4211.67026        38.80026    -12613.51226
G18  21591851.77216      1192.37116        39.70016      3601.41816
G29  20901815.57426     -2736.52826        39.60026     -8185.92526
G20  24367233.51516     -2165.65816        36.50016     -6493.26916
G28  21705706.35215     -3386.11415        33.00015    -10136.88115
G26  21673381.83015      1197.57015        32.10015      3621.93615
G31  21240064.80915     -1781.57515        30.40015     -5321.67015
C30  24353171.45016     -3985.07816        39.90016    -11922.38116
R16  22436788.93426     -5013.01426        38.40026    -15035.63426
R09  19127540.67916     -1912.86016        36.80016     -5793.70916
C29  21442828.83815     -1499.61815        35.00015     -4472.21715
C36  24197319.24415     -4221.12015        34.80015    -12633.80615
C13  39050155.54015       284.08915        34.50015       289.93615
R10  20405274.42215      1454.27215        32.30015      4400.22515
> 2025 05 03 08 16 42.9999999  0 15                      
G05  23755763.02716       216.88416        41.00016       905.39716
G25  22359457.17027     -4210.96127        41.50027    -16818.67627
G18  21591387.09416      1191.69416        39.60016      4799.44716
G29  20902098.27816     -2732.19816        39.40016    -10913.38416
G20  24367410.99216     -2176.16016        36.30016     -8660.69716
G28  21706117.06815     -3391.18015        33.30015    -13520.45615
G26  21672929.74315      1203.54015        31.90015      4829.75915
G31  21240164.04015     -1779.74315        30.70015     -7096.09015
R16  22437490.74816     -5010.33616        38.60016    -20050.32616
C30  24353700.88416     -3982.26316        39.60016    -15900.25716
R09  19127661.49516     -1919.32116        36.70016     -7703.82016
C29  21442879.50315     -1498.24015        35.00015     -5964.75715
C13  39049868.33915       284.90915        34.40015       580.38215
C36  24197894.24615     -4217.35915        34.60015    -16843.57515
R10  20404780.06515      1449.17415        32.10015      5772.37715
> 2025 05 03 08 16 43.9999998  0 15                      
G25  22360007.88926     -4214.82926        41.30026    -21026.34126
G05  23755471.32916       216.13116        40.90016      1128.14416
G28  21706507.99716     -3386.68516        36.30016    -16902.16016
G18  21590910.72416      1189.88716        39.50016      5995.99416
G20  24367579.77616     -2176.95216        36.10016    -10830.53116
G29  20902370.19016     -2736.17416        39.00016    -13642.70916
G31  21240241.98615     -1782.18215        31.00015     -8871.74015
G26  21672447.07715      1200.24215        31.80015      6036.47415
R16  22438186.26716     -5011.95816        39.00016    -25094.78916
R09  19127752.03316     -1918.08316        36.60016     -9516.09316
C29  21442919.97515     -1503.66015        35.00015     -7458.95515
C30  24354222.82216     -3982.83216        39.10016    -19877.14016
C13  39049563.45015       282.47215        34.30015       869.42115
R10  20404253.32915      1450.40215        31.80015      7253.63615
C36  24198453.65915     -4218.30815        34.10015    -21055.46615
> 2025 05 03 08 16 44.9999999  0 15                      
G25  22360602.97726     -4213.31026        41.10026    -25233.87426
G28  21706943.89516     -3389.20816        40.00016    -20284.97216
G05  23755224.30016       214.73016        40.80016      1349.44316
G18  21590475.42526      1191.47626        39.60026      7193.05726
G29  20902688.87016     -2740.97416        38.10016    -16375.90516
G31  21240378.69215     -1784.52115        31.60015    -10649.40815
G26  21672007.28215      1192.75515        31.60015      7237.78015
G20  24367792.92816     -2175.56416        35.60016    -13000.28816
R16  22438910.56516     -5011.02116        39.30016    -30069.73716
R09  19127909.12416     -1922.00616        36.60016    -11459.82116
C29  21442995.52315     -1501.65115        35.00015     -8954.17315
C13  39049299.63215       280.66615        34.30015      1156.74015
C30  24354779.23716     -3986.25616        37.80016    -23854.15516
R10  20403790.15015      1441.68015        31.60015      8618.92515
C36  24199058.94015     -4218.57515        33.10015    -25267.23315
> 2025 05 03 08 16 45.9999998  0 15                      
G28  21707339.62116     -3392.02316        41.30016    -23669.98116
G25  22361153.09626     -4212.96026        41.10026    -29441.08226
G05  23754930.50416       217.36316        40.70016      1572.06416
G18  21589995.15726      1189.80626        39.90026      8389.22826
G29  20902955.38516     -2741.21916        37.00016    -19110.50616
G31  21240471.92715     -1784.20415        32.00015    -12427.48915
G26  21671537.20715      1195.01315        31.40015      8438.83615
G20  24367956.31515     -2179.05915        34.40015    -15172.30315
R16  22439599.48926     -5010.93326        39.50026    -35078.27726
R09  19128023.34526     -1921.36026        36.90026    -13398.92826
C29  21443034.49616     -1503.76216        35.70016    -10449.90216
C13  39048997.74125       282.23225        35.00025      1444.57725
C30  24355294.88016     -3982.50416        36.60016    -27830.88416
R10  20403268.81115      1445.81615        31.30015     10072.72515
C36  24199615.05515     -4219.93015        32.20015    -29479.27815
> 2025 05 03 08 16 46.9999999  0 15                      
G05  23754683.47516       214.76216        41.10016      1793.34216
G28  21707775.22026     -3391.72726        41.40026    -27055.57426
G25  22361749.68316     -4212.52116        41.00016    -33647.93816
G18  21589559.55916      1189.67416        40.10016      9584.96516
G29  20903267.46916     -2737.68016        36.30016    -21843.26416
G31  21240599.93915     -1787.60815        32.40015    -14208.02515
G26  21671101.30915      1202.26115        31.30015      9644.59315
G20  24368162.87215     -2177.51415        33.10015    -17344.08815
R16  22440326.78526     -5011.74726        39.50026    -40070.03926
R09  19128174.14126     -1922.68326        37.40026    -15309.80226
C29  21443116.63916     -1502.78216        36.80016    -11946.87516
C13  39048736.32216       280.86316        35.90016      1731.62616
C30  24355844.99916     -3984.98816        35.90016    -31809.44816
R10  20402816.42415      1443.95115        31.10015     11379.29015
C36  24200215.53915     -4218.64015        31.50015    -33691.85715
> 2025 05 03 08 16 47.9999998  0 15                      
G05  23754392.67627       211.54027        41.60027      2012.07427
G28  21708168.54827     -3394.46627        41.50027    -30443.13827
G25  22362299.50216     -4216.67716        41.00016    -37857.39816
G18  21589087.68616      1185.04316        40.10016     10777.51916
G29  20903537.28216     -2741.27116        36.20016    -24577.75316
G31  21240690.17615     -1786.84015        32.50015    -15988.82015
G26  21670621.64115      1196.34215        31.10015     10848.02015
G20  24368331.65515     -2180.43515        32.00015    -19517.69515
C30  24356359.74316     -3987.93716        39.80016    -35790.67116
R16  22441021.10416     -5015.73916        39.40016    -45107.62416
R09  19128285.96326     -1926.17126        37.70026    -17235.15626
C29  21443154.71326     -1505.97126        37.50026    -13445.93826
C13  39048431.43326       278.72826        36.90026      2017.03826
R10  20402260.60915      1444.82915        30.80015     13016.89815
C36  24200778.84915     -4221.32815        31.00015    -37904.84815
> 2025 05 03 08 16 48.9999999  0 16                      
G28  21708605.64527     -3394.55927        41.50027    -33831.97027
G25  22362895.49026     -4215.96626        41.00026    -42067.30126
G05  23754147.74617       212.67317        41.50017      2230.66317
G18  21588655.98416      1186.91816        40.10016     11970.21316
G29  20903850.86516     -2741.50116        37.20016    -27313.02216
G31  21240821.48515     -1790.10415        32.70015    -17771.92515
G26  21670171.95215      1192.41315        31.00015     12048.00115
G20  24368528.31915     -2181.97115        31.30015    -21692.98215
C30  24356916.45817     -3986.93617        42.20017    -39772.14217
R16  22441751.09916     -5015.15516        39.40016    -50113.90916
C29  21443239.55426     -1503.53326        37.90026    -14944.12126
R09  19128438.55816     -1926.68216        38.00016    -19155.96216
C13  39048169.71526       279.46526        37.40026      2302.34626
C08  39077161.44416       -99.77416        36.90016       -93.44916
R10  20401761.45415      1436.24715        30.60015     14573.63015
C36  24201388.32715     -4223.47615        30.60015    -42119.30015
> 2025 05 03 08 16 49.9999998  0 16                      
G25  22363446.20826     -4216.79026        41.20026    -46277.85226
G28  21709007.06716     -3398.16216        41.40016    -37222.41216
G05  23753859.64516       210.58416        41.40016      2447.86116
G18  21588180.21426      1185.27526        40.00026     13161.90726
G26  21669698.28016      1190.13016        36.30016     13245.36116
G29  20904122.47726     -2744.04726        37.60026    -30050.19926
G31  21240918.01815     -1787.90415        32.80015    -19554.28515
G20  24368690.20715     -2181.99815        31.00015    -23868.79915
C30  24357433.89917     -3988.07517        42.20017    -43754.13517
R16  22442446.91716     -5014.47016        39.20016    -55159.13716
C29  21443278.82716     -1507.69916        38.30016    -16444.73816
C13  39047868.12326       278.51126        37.90026      2587.03326
R09  19128552.17916     -1927.16416        38.00016    -21091.24916
C08  39076928.80516       -99.38116        37.30016      -186.98316
R10  20401259.00215      1436.22715        30.30015     15925.98915
C36  24201940.84515     -4222.49015        30.20015    -46335.69615
> 2025 05 03 08 16 50.9999998  0 16                      
G29  20904408.47916     -2743.80016        40.60016    -32787.89616
G25  22364009.81816     -4216.27216        41.20016    -50488.32216
G05  23753576.34116       210.49216        41.30016      2664.48516
G18  21587715.53626      1185.29926        40.30026     14353.23526
G26  21669229.70426      1189.21926        39.80026     14441.19126
G20  24368861.38816     -2185.23716        37.50016    -26047.00016
G28  21709416.28416     -3396.51816        40.50016    -40613.17716
G31  21241012.45315     -1791.40915        32.80015    -21338.78215
C30  24357959.43617     -3991.00517        42.10017    -47736.63017
C29  21443327.09426     -1507.01526        38.80026    -17945.76126
C13  39047575.22626       278.80226        38.50026      2871.65726
R09  19128667.59926     -1929.03226        38.30026    -22973.85326
R16  22443141.83616     -5017.05516        39.10016    -60138.67116
C08  39076710.85626      -101.24726        37.50026      -281.79826
R10  20400746.35715      1437.66115        30.10015     17394.24815
C36  24202508.95215     -4217.07115        29.90015    -50549.35615
> 2025 05 03 08 16 52.0000001  0 16                      
G29  20904800.60816     -2745.54216        41.40016    -35526.87916
G25  22364684.95116     -4215.67716        41.20016    -54698.32016
G05  23753406.05916       210.10216        41.20016      2880.70616
G18  21587360.28116      1185.50716        40.40016     15544.62916
G20  24369150.68826     -2185.12326        39.20026    -28225.87126
G26  21668875.35016      1187.23216        39.80016     15635.23516
G31  21241230.10215     -1795.16515        33.30015    -23126.44615
G28  21709935.52416     -3401.46216        39.20016    -44007.12916
C30  24358599.49217     -3988.24117        42.10017    -51718.90817
C29  21443491.97916     -1510.90116        39.20016    -19449.46016
R09  19128905.33416     -1929.99016        38.60016    -24931.29716
C13  39047393.25216       281.01316        38.70016      3157.78416
R16  22443945.58026     -5014.63726        38.90026    -65119.69526
C08  39076599.93326      -100.67926        37.70026      -376.61326
R10  20400338.34015      1440.48915        30.00015     18883.89515
C36  24203186.78215     -4221.54115        29.70015    -54762.64215
> 2025 05 03 08 16 52.9999998  0 16                      
G29  20904994.87317     -2744.78917        41.60017    -38265.83817
G25  22365160.42216     -4217.29416        41.20016    -58909.28916
G05  23753038.21426       211.21626        41.10026      3097.48826
G18  21586809.56316      1181.08116        40.40016     16733.04516
G26  21668318.33516      1188.81416        39.60016     16829.69016
G20  24369237.02816     -2185.04116        39.10016    -30404.96016
G31  21241241.19515     -1798.14715        33.60015    -24917.20315
G28  21710260.49916     -3395.36016        37.80016    -47398.12516
C30  24359036.29017     -3988.94517        43.00017    -55701.42417
C29  21443449.10926     -1507.55026        39.50026    -20951.86626
R09  19128933.81516     -1930.58516        38.70016    -26828.41816
C13  39047007.71916       278.50716        38.60016      3442.69216
R16  22444557.45626     -5015.39426        38.70026    -70135.15226
C08  39076292.04626      -101.01826        37.90026      -471.70226
R10  20399747.14915      1431.26715        29.90015     20291.89415
C36  24203682.93914     -4221.21414        29.40014    -58976.81814
> 2025 05 03 08 16 53.9999999  0 16                      
G29  20905310.55517     -2745.71017        41.70017    -41005.39017
G25  22365753.41126     -4216.40626        41.10026    -63119.97526
G05  23752788.78626       208.99926        41.00026      3312.99026
G18  21586371.86626      1182.58526        40.50026     17921.48326
G26  21667883.03716      1186.11716        39.40016     18022.49516
G20  24369446.88316     -2189.35816        38.90016    -32586.98716
G31  21241379.39915     -1794.58715        34.00015    -26706.60515
G28  21710698.79616     -3403.30716        36.60016    -50793.42116
C30  24359592.40517     -3987.55517        43.30017    -59684.29317
C29  21443531.55226     -1509.55126        39.80026    -22455.16226
R09  19129088.80726     -1931.29526        38.90026    -28762.21326
R16  22445294.94616     -5019.40916        38.60016    -75180.41716
C08  39076102.87716      -101.94616        37.90016      -567.48916
C13  39046751.09716       280.89716        38.50016      3728.79916
R10  20399266.58215      1433.45415        29.80015     21748.71215
C36  24204278.32714     -4224.71014        29.20014    -63195.37514
> 2025 05 03 08 16 54.9999998  0 16                      
G29  20905583.96527     -2746.61627        41.90027    -43745.70727
G25  22366307.12826     -4218.30326        41.10026    -67331.79726
G05  23752500.98616       208.01216        41.00016      3527.44516
G18  21585900.29226      1181.90526        40.50026     19109.51126
G26  21667413.86226      1185.28526        39.30026     19214.23326
G20  24369613.26816     -2182.95116        38.60016    -34765.68616
G31  21241468.43715     -1801.73615        34.20015    -28500.28515
G28  21711105.31516     -3403.74716        35.60016    -54190.40716
C30  24360111.34617     -3989.37717        43.50017    -63667.10217
C29  21443571.72426     -1511.46826        40.00026    -23959.99826
R09  19129200.03026     -1934.68726        39.10026    -30685.27526
R16  22445985.06816     -5017.56616        38.40016    -80195.83716
C08  39075869.63826      -101.88926        37.80026      -663.43426
C13  39046446.80716       278.96616        38.30016      4014.05516
R10  20398738.64715      1431.83215        30.20015     23237.59615
C36  24204835.64114     -4223.98114        29.10014    -67412.50914
> 2025 05 03 08 16 55.9999999  0 16                      
G29  20905895.75027     -2748.05727        42.10027    -46487.28927
G05  23752255.45626       206.25626        40.90026      3740.33026
G25  22366901.61616     -4219.33016        41.00016    -71544.72916
G18  21585467.99116      1180.52016        40.40016     20296.43116
G26  21666979.16226      1186.50826        39.40026     20406.38126
G20  24369820.42416     -2186.07316        38.20016    -36945.40616
G31  21241605.44315     -1795.88915        34.70015    -30291.54215
G28  21711532.21915     -3397.32815        34.80015    -57583.72615
C30  24360668.66017     -3991.13917        43.90017    -67651.20317
C29  21443652.96826     -1511.59426        40.20026    -25465.47926
R09  19129352.32526     -1932.65726        39.20026    -32604.55326
C13  39046185.08916       276.18916        38.00016      4297.12816
C08  39075685.86616      -103.51816        37.80016      -760.56716
R16  22446718.36016     -5019.18416        38.30016    -85219.70016
R10  20398262.27715      1433.35615        30.90015     24673.05515
C36  24205442.42114     -4223.86914        28.90014    -71631.35114
> 2025 05 03 08 16 57.0000001  0 16                      
G29  20906259.69827     -2747.90227        42.10027    -49229.14027
G05  23752053.09626       206.96826        40.90026      3953.21626
G25  22367543.17216     -4218.02016        40.90016    -75757.11016
G18  21585086.65516      1180.09816        40.20016     21482.74916
G26  21666587.93326      1183.01726        39.50026     21596.38926
G20  24370076.74716     -2189.80116        37.90016    -39127.90216
G31  21241780.82115     -1801.28515        34.70015    -32085.54015
G28  21712025.97715     -3401.29215        34.10015    -60978.41615
C30  24361274.54117     -3988.31117        43.90017    -71635.43117
C29  21443785.77616     -1512.66616        40.30016    -26971.84116
C13  39045969.23826       276.62126        39.30026      4579.80926
R09  19129554.38516     -1935.98616        39.20016    -34531.43516
C08  39075545.86326      -103.04626        37.80026      -857.73226
R16  22447482.23116     -5018.63816        38.10016    -90147.98716
R10  20397841.66815      1429.58615        31.30015     26068.89015
C36  24206090.57214     -4223.91014        28.80014    -75847.30514
> 2025 05 03 08 16 57.9999998  0 16                      
G29  20906454.26327     -2749.53227        42.10027    -51972.21727
G05  23751687.04926       203.72226        41.20026      4163.89026
G25  22368018.34316     -4220.70016        40.70016    -79971.14316
G26  21666039.31316      1185.12616        39.60016     22787.03916
G20  24370166.68526     -2191.00726        37.70026    -41312.17726
G31  21241796.41015     -1800.53315        34.70015    -33879.99915
G28  21712340.45915     -3402.67015        33.60015    -64374.53215
G18  21584535.93716      1175.33616        39.70016     22665.64316
C30  24361715.23517     -3991.54117        43.80017    -75620.56717
C29  21443747.10316     -1514.67916        40.50016    -28479.88716
C13  39045590.90026       275.23726        39.30026      4861.38926
R09  19129591.26016     -1936.77716        39.20016    -36474.39916
C08  39075234.97826      -106.08926        37.80026      -956.98526
R16  22448109.69716     -5021.09616        37.90016    -95246.75516
R10  20397240.28415      1428.34615        31.80015     27531.04115
C36  24206566.04314     -4220.46814        28.80014    -80065.83214
> 2025 05 03 08 16 59.0000001  0 16                      
G29  20906847.89027     -2749.89327        42.10027    -54715.89427
G05  23751517.66627       203.92927        41.50027      4374.01227
G25  22368693.77626     -4221.84026        40.60026    -84186.43726
G26  21665682.56016      1183.97316        39.60016     23977.18416
G20  24370453.88616     -2190.99216        37.50016    -43496.98516
G18  21584180.38316      1177.91116        38.80016     23849.16116
G31  21242018.55715     -1796.59215        34.60015    -35671.93515
G28  21712853.40415     -3408.18415        33.30015    -67774.74915
C30  24362350.79517     -3992.22617        43.80017    -79606.32417
C29  21443908.39116     -1512.88216        40.50016    -29987.24916
C13  39045408.92626       275.42326        39.30026      5142.77426
R09  19129828.99516     -1936.05216        39.10016    -38431.07916
C08  39075129.15116      -103.68116        37.90016     -1055.28116
R10  20396848.15616      1428.43216        37.00016     28934.50816
R16  22448922.13516     -5022.85116        36.90016   -100274.40316
C36  24207250.16914     -4225.01814        28.90014    -84282.76514
> 2025 05 03 08 16 59.9999998  0 16                      
G29  20907047.25217     -2751.87817        42.00017    -57461.14417
G05  23751151.32027       201.71527        41.70027      4582.42627
G25  22369166.84826     -4223.73026        40.40026    -88403.46126
G26  21665126.14516      1183.07516        39.60016     25166.51316
G20  24370548.32016     -2192.59516        37.30016    -45683.09016
G18  21583626.96616      1177.80916        37.90016     25032.77116
G31  21242035.34515     -1801.25315        34.50015    -37466.18715
G28  21713173.58315     -3409.15715        33.10015    -71177.03115
C30  24362789.39217     -3993.22717        43.70017    -83592.71417
C29  21443872.71616     -1513.96816        40.50016    -31495.15416
C13  39045026.69026       273.30126        39.20026      5422.63126
R09  19129864.37016     -1937.51916        39.00016    -40366.40316
C08  39074821.56416      -106.28616        37.90016     -1155.04316
R10  20396253.06826      1428.53126        36.90026     30363.86326
R16  22449524.11816     -5022.45916        36.00016   -105237.12216
C36  24207733.73514     -4225.33214        28.90014    -88502.37114
> 2025 05 03 08 17 00.9999998  0 16                      
G05  23750905.79027       202.49127        41.80027      4790.30127
G29  20907362.63417     -2749.23217        42.00017    -60205.14017
G25  22369759.53816     -4221.63916        40.20016    -92619.65416
G26  21664700.44016      1184.76916        39.50016     26356.71116
G20  24370753.37916     -2193.50816        37.10016    -47870.22216
G18  21583194.66516      1175.66516        37.40016     26214.99316
G31  21242172.95015     -1804.55515        34.30015    -39263.40015
G28  21713614.87715     -3403.55915        33.00015    -74576.25715
C30  24363351.20317     -3992.91817        43.60017    -87579.11017
C13  39044765.57126       274.48926        39.90026      5702.78326
C29  21443958.15716     -1516.53616        40.40016    -33004.94116
C08  39074631.19616      -107.12716        37.80016     -1255.84216
R10  20395773.10016      1428.60216        36.60016     31817.63016
R09  19130020.26316     -1937.10116        38.40016    -42305.54616
R16  22450266.40415     -5024.80615        35.40015   -110308.37315
C36  24208343.21314     -4230.28014        28.90014    -92723.51014
> 2025 05 03 08 17 01.9999997  0 16                      
G05  23750617.09027       199.07427        43.00027      4996.42027
G29  20907634.24617     -2753.74117        41.90017    -62951.68917
G26  21664224.07016      1184.55216        39.40016     27547.09116
G20  24370922.16216     -2194.11816        37.00016    -50058.06816
G18  21582719.79426      1176.25826        37.00026     27397.18526
G28  21714011.20315     -3410.13615        33.70015    -77978.81315
G31  21242261.38815     -1799.43315        34.10015    -41058.14815
G25  22370312.65516     -4225.71616        39.30016    -96838.25216
C30  24363865.04717     -3995.26117        43.40017    -91567.03817
C13  39044462.18116       270.75916        40.00016      5980.58216
C08  39074404.55326      -107.54926        37.70026     -1357.23126
R10  20395261.95416      1417.13816        36.30016     33217.27616
C29  21444003.12616     -1514.81416        39.60016    -34514.17016
R09  19130132.08516     -1942.90316        37.40016    -44230.13616
R16  22450943.03615     -5026.06015        34.80015   -115252.71115
C36  24208907.72214     -4228.38114        29.10014    -96946.95714
> 2025 05 03 08 17 02.9999998  0 16                      
G05  23750372.75927       202.02027        43.60027      5203.70327
G29  20907949.62817     -2750.14117        41.90017    -65696.73717
G28  21714451.59816     -3408.87016        37.90016    -81381.68316
G20  24371127.81916     -2195.27316        36.90016    -52246.96916
G18  21582285.69516      1171.76716        36.80016     28576.32516
G31  21242390.89915     -1805.38115        34.10015    -42856.08915
G26  21663798.06516      1182.58516        38.50016     28736.17216
G25  22370917.33616     -4225.65016        37.60016   -101057.65716
C30  24364425.35917     -3993.28717        43.30017    -95554.37517
C13  39044202.86116       273.84816        40.00016      6259.60916
C08  39074218.98126      -106.82926        37.90026     -1458.38526
R10  20394784.08516      1429.65316        36.00016     34660.36616
R16  22451678.42615     -5023.58015        34.30015   -120286.51115
C29  21444096.06116     -1511.57016        38.30016    -36021.09916
R09  19130288.27716     -1941.47916        36.40016    -46170.80716
C36  24209504.30914     -4224.13814        29.30014   -101167.98514
> 2025 05 03 08 17 03.9999998  0 16                      
G05  23750095.45117       197.63517        43.60017      5408.96317
G29  20908234.43017     -2751.39217        41.70017    -68442.10717
G28  21714860.51516     -3407.89716        39.00016    -84783.99716
G20  24371307.99526     -2197.94326        37.00026    -54437.99026
G18  21581825.21316      1172.49916        36.60016     29754.94716
G31  21242497.92515     -1805.20615        34.00015    -44654.96515
G26  21663331.58816      1187.22116        37.10016     29927.92316
G25  22371486.94216     -4225.56516        36.20016   -105277.26216
C30  24364952.39417     -3996.67417        43.30017    -99542.91017
C13  39043914.16116       270.51216        40.00016      6536.83216
C08  39074001.33226      -109.22826        38.20026     -1561.04926
R10  20394273.83816      1426.41616        35.90016     36115.65216
R16  22452385.93715     -5026.05815        33.90015   -125332.54115
C29  21444141.63016     -1520.18816        37.10016    -37532.99516
R09  19130409.39315     -1946.68915        35.40015    -48082.44715
C36  24210070.91714     -4225.79114        29.30014   -105387.18614
> 2025 05 03 08 17 04.9999998  0 16                      
G05  23749805.55217       196.99817        43.50017      5612.49417
G20  24371475.87826     -2198.06826        41.00026    -56629.76526
G28  21715261.33716     -3409.02916        39.20016    -88186.84516
G18  21581346.44516      1172.19416        36.40016     30933.23016
G31  21242593.55815     -1806.82115        33.90015    -46455.19315
G29  20908511.73916     -2752.72016        40.40016    -71188.43316
G26  21662860.91316      1183.10416        36.10016     31117.85516
G25  22372043.65615     -4221.22115        35.20015   -109494.00115
C30  24365470.73617     -3996.90217        43.20017   -103532.24217
C13  39043611.97026       271.64626        40.00026      6814.24726
C08  39073772.29016      -109.07516        38.20016     -1664.07716
R10  20393753.99826      1425.36526        35.80026     37561.82926
R16  22453083.25415     -5028.64815        33.70015   -130386.17715
C29  21444182.10216     -1527.39116        36.00016    -39051.31216
R09  19130539.20315     -1942.36515        34.70015    -50104.07015
C36  24210636.02514     -4230.22114        29.30014   -109608.59914
> 2025 05 03 08 17 05.9999999  0 16                      
G05  23749565.41827       196.94027        43.50027      5815.52827
G20  24371683.93416     -2199.44416        41.00016    -58822.75716
G28  21715703.23116     -3408.26016        39.20016    -91589.40516
G18  21580919.84016      1167.75616        36.30016     32108.39216
G31  21242732.96215     -1804.93615        33.90015    -48254.66415
G29  20908836.41416     -2751.73416        38.80016    -73934.46816
G26  21662419.61915      1183.16115        35.20015     32307.17015
G25  22372638.14515     -4229.38315        34.50015   -113715.27515
C30  24366028.35017     -3993.42717        43.00017   -107521.27817
C13  39043357.14616       271.25116        39.80016      7091.41516
C08  39073584.32026      -109.18326        38.10026     -1767.34726
R10  20393276.72826      1424.63826        35.70026     39001.10426
R16  22453812.34915     -5025.88415        33.50015   -135386.34615
C29  21444257.64915     -1519.63415        35.20015    -40566.64615
R09  19130680.10615     -1944.12015        34.00015    -51962.22415
C36  24211241.60615     -4226.77415        29.60015   -113832.01715
> 2025 05 03 08 17 06.9999998  0 16                      
G05  23749277.31727       194.17227        43.50027      6016.59927
G20  24371855.11616     -2200.12316        40.70016    -61016.55916
G28  21716104.35416     -3413.45916        39.10016    -94995.28816
G18  21580448.86616      1170.62516        36.30016     33284.47616
G31  21242823.79915     -1808.30615        33.90015    -50056.08015
G29  20909103.22916     -2752.78416        37.60016    -76681.05916
G26  21661945.04715      1182.80015        34.60015     33496.08815
G25  22373184.96615     -4228.20215        34.00015   -117937.22415
C30  24366547.29017     -3996.66617        42.90017   -111513.59517
C08  39073358.87716      -113.50316        38.00016     -1873.53016
R10  20392764.38326      1424.14626        35.70026     40406.08826
C13  39043057.35416       271.70416        38.80016      7368.85016
R16  22454500.07315     -5032.07315        33.40015   -140389.53615
C29  21444305.31615     -1516.84915        34.60015    -42079.08115
R09  19130796.42515     -1946.11115        33.50015    -53912.02815
C36  24211811.81115     -4232.44515        30.20015   -118056.89515
> 2025 05 03 08 17 07.9999999  0 16                      
G05  23749033.88627       197.45027        43.40027      6219.15327
G20  24372067.06916     -2198.72816        40.30016    -63209.74916
G28  21716544.74916     -3409.84716        39.00016    -98399.91816
G18  21580022.86116      1171.12116        36.20016     34461.14816
G31  21242956.90715     -1808.21515        33.90015    -51858.13315
G29  20909423.10816     -2760.76216        36.70016    -79433.20216
G26  21661511.54815      1180.56515        34.20015     34683.33515
G25  22373781.55315     -4226.86815        33.70015   -122158.55815
C30  24367108.80217     -3997.27917        42.60017   -115503.79817
C08  39073173.90516      -107.92916        37.80016     -1977.01516
R10  20392290.41116      1424.22216        35.60016     41830.10916
C13  39042794.13616       266.57216        37.60016      7642.90416
C29  21444387.75915     -1520.34815        34.20015    -43592.93215
R16  22455229.16815     -5028.44615        33.30015   -145390.47115
R09  19130958.31315     -1944.54115        33.10015    -55882.49815
C36  24212417.09215     -4228.72115        30.20015   -122282.17415
> 2025 05 03 08 17 08.9999999  0 16                      
G20  24372246.04516     -2200.56416        40.10016    -65403.94716
G28  21716957.56316     -3413.51316        38.80016   -101806.56416
G05  23748757.47717       195.28117        42.90017      6420.76717
G18  21579568.97516      1170.48916        36.00016     35637.60816
G26  21661050.76715      1180.37415        34.20015     35869.90915
G31  21243065.43215     -1810.82915        34.10015    -53662.12815
G29  20909719.90216     -2757.10216        36.00016    -82184.74416
G25  22374345.16315     -4226.67415        33.50015   -126379.54515
C30  24367638.83517     -3996.99517        42.30017   -119492.61017
R10  20391781.66326      1422.56026        35.70026     43277.00926
C29  21444448.01815     -1521.58315        34.00015    -45108.06515
R16  22455936.07915     -5026.36315        33.20015   -150433.44315
R09  19131082.42715     -1952.38515        32.90015    -57810.94615
C13  39042502.43816       272.72216        36.60016      7919.94416
C08  39072959.25316      -109.10816        36.80016     -2080.37616
C36  24212992.99415     -4232.30015        30.20015   -126505.77615
> 2025 05 03 08 17 09.9999999  0 16                      
G20  24372448.10516     -2198.81016        39.90016    -67597.27616
G28  21717386.26616     -3414.74916        38.70016   -105214.66816
G18  21579118.68716      1166.59716        35.90016     36811.43816
G31  21243186.24815     -1806.22515        34.30015    -55463.66515
G26  21660608.57315      1183.51715        34.10015     37058.39115
G05  23748500.85517       192.87917        41.50017      6620.50317
G29  20910018.79516     -2748.31116        35.50016    -84930.18716
G25  22374931.25715     -4227.18815        33.50015   -130600.72315
R10  20391299.29716      1422.30516        35.70016     44682.75916
C29  21444510.07515     -1518.65215        33.80015    -46621.63515
R16  22456646.28715     -5030.04415        33.10015   -155396.12315
R09  19131223.62915     -1948.90215        32.70015    -59733.24315
C13  39042234.72316       277.51516        35.60016      8201.20916
C30  24368191.05216     -3995.56816        40.50016   -123481.54216
C08  39072759.89116      -107.34416        35.60016     -2182.48316
C36  24213587.48215     -4234.09215        30.10015   -130734.21315
> 2025 05 03 08 17 10.9999999  0 16                      
G20  24372624.38316     -2204.41116        39.80016    -69794.09716
G05  23748223.24716       194.33916        40.10016      6820.53816
G31  21243292.37515     -1811.64015        34.40015    -57268.04215
G26  21660149.29115      1177.81415        34.10015     38243.65815
G29  20910301.49915     -2756.12715        35.00015    -87678.85815
G25  22375498.46515     -4230.68915        33.40015   -134824.34715
G28  21717795.78316     -3416.77616        38.20016   -108624.65816
G18  21578656.70716      1166.42216        35.70016     37984.22816
R10  20390800.44316      1424.63216        35.60016     46077.79616
C29  21444566.13615     -1519.25115        33.60015    -48135.13215
R16  22457364.59015     -5031.09515        33.00015   -160498.71315
C30  24368719.58616     -3995.46916        38.60016   -127470.83516
R09  19131354.03915     -1948.87515        32.60015    -61696.07215
C13  39041943.02515       265.16615        34.60015      8475.60315
C08  39072541.04315      -107.46515        34.40015     -2284.30015
C36  24214155.58915     -4233.56515        30.00015   -134961.54315
> 2025 05 03 08 17 11.9999999  0 16                      
G05  23747948.63726       191.32926        41.10026      7018.67826
G20  24372805.45816     -2202.58516        39.70016    -71990.85316
G28  21718207.09816     -3412.38716        37.40016   -112032.33916
G31  21243399.10115     -1810.97815        34.70015    -59072.91115
G26  21659688.21015      1182.53315        34.10015     39431.01215
G29  20910589.60015     -2756.50715        34.70015    -90428.84515
G25  22376061.17515     -4229.49015        33.40015   -139047.97615
G18  21578203.72015      1167.83515        34.70015     39157.62315
R10  20390288.99716      1420.73016        35.60016     47540.71016
C29  21444613.50315     -1523.23615        33.50015    -49651.24915
R16  22458061.90715     -5029.68615        33.00015   -165490.47515
C13  39041650.12815       268.99215        34.00015      8750.26915
R09  19131473.35715     -1951.57115        32.50015    -63598.54115
C30  24369250.51916     -3997.94316        37.30016   -131462.45316
C36  24214725.19515     -4230.04015        30.10015   -139188.19015
C08  39072323.69315      -107.72315        33.50015     -2386.18215
> 2025 05 03 08 17 12.9999999  0 16                      
G05  23747692.01527       192.72727        45.10027      7216.65527
G20  24373004.22016     -2202.17516        39.50016    -74187.27716
G28  21718639.99816     -3417.26516        37.10016   -115442.46516
G31  21243523.21525     -1812.59925        34.80025    -60878.98925
G26  21659238.52115      1177.45515        34.00015     40615.71315
G29  20910888.79315     -2758.37615        34.50015    -93180.48115
G25  22376640.67415     -4225.81315        33.40015   -143269.11615
G18  21577759.72815      1165.72315        33.90015     40329.85015
R10  20389824.91815      1424.26115        35.40015     48848.07215
C13  39041374.91915       269.57015        33.70015      9025.44815
C29  21444689.05115     -1520.30715        33.40015    -51166.25015
R16  22458786.50615     -5032.38015        33.00015   -170529.58915
C30  24369799.13916     -3996.11116        36.20016   -135453.86116
R09  19131613.95915     -1951.11315        32.40015    -65518.54615
C36  24215321.48215     -4229.07915        30.20015   -143413.44215
C08  39072123.43215      -114.48015        32.60015     -2492.55315
> 2025 05 03 08 17 13.9999999  0 16                      
G05  23747417.70517       191.90517        44.90017      7415.14817
G20  24373184.09616     -2201.54116        39.40016    -76383.21716
G28  21719045.31816     -3411.95816        37.00016   -118849.91816
G31  21243634.13815     -1812.46815        35.10015    -62685.43215
G29  20911170.89815     -2754.80615        34.30015    -95930.33515
G26  21658779.83915      1175.54015        34.00015     41798.20315
G25  22377208.78115     -4229.49315        33.40015   -147491.93115
G18  21577301.64515      1162.01215        33.50015     41499.16415
C13  39041089.81615       266.07315        33.70015      9298.41715
C30  24370320.17815     -3997.10915        35.40015   -139446.05915
C29  21444743.01315     -1524.45315        33.30015    -52683.69215
R16  22459480.52515     -5031.06015        32.90015   -175503.00715
R09  19131753.96215     -1949.77715        32.40015    -67531.80415
C36  24215905.77715     -4237.22815        30.40015   -147642.40715
C08  39071900.68615      -110.87915        32.00015     -2598.06815
R10  20389322.46615      1422.26915        34.70015     50263.70115
> 2025 05 03 08 17 14.9999999  0 16                      
G05  23747144.29417       190.84717        44.60017      7612.28517
G20  24373374.16416     -2204.27616        39.30016    -78580.80616
G28  21719461.13016     -3415.55416        36.80016   -122258.86516
G31  21243736.96715     -1812.42115        35.30015    -64491.95215
G29  20911462.29615     -2763.05015        34.20015    -98685.07915
G26  21658322.65515      1174.12315        33.90015     42979.02515
G25  22377777.48715     -4230.14315        33.50015   -151715.72515
G18  21576852.55615      1168.86315        33.10015     42672.08715
C13  39040802.31515       266.76415        33.80015      9571.12315
C30  24370851.11115     -3997.84115        34.90015   -143439.08415
C29  21444801.77315     -1521.00415        33.20015    -54199.63615
R16  22460189.83415     -5029.76615        32.90015   -180558.20915
R09  19131899.96115     -1954.07515        32.40015    -69577.15115
C08  39071686.63415      -111.91715        31.60015     -2703.97815
R10  20388813.11815      1419.21015        33.70015     51713.65315
C36  24216473.58415     -4235.22915        30.50015   -151872.03915
> 2025 05 03 08 17 15.9999999  0 16                      
G05  23746887.37217       189.78017        44.30017      7808.46317
G31  21243865.57816     -1816.74716        35.80016    -66301.34516
G28  21719892.53116     -3417.46116        36.60016   -125669.54416
G29  20911763.58715     -2753.54915        34.20015   -101435.08215
G26  21657878.96215      1177.58115        33.90015     44161.63215
G25  22378377.37215     -4233.26115        33.50015   -155941.88615
G20  24373578.32316     -2200.17716        38.40016    -80776.17716
G18  21576406.46515      1163.90015        32.80015     43842.94115
C30  24371394.03515     -4000.12215        34.60015   -147431.83315
C13  39040527.40515       269.86815        33.80015      9845.84615
C29  21444878.22015     -1521.33115        33.10015    -55715.26315
R09  19132037.56615     -1952.17615        32.50015    -71479.58315
R16  22460922.22715     -5038.89915        32.80015   -185640.12415
C08  39071491.17015      -112.81615        31.50015     -2810.58215
C36  24217065.07515     -4236.14615        30.50015   -156100.30015
R10  20388313.66415      1425.41515        32.90015     53210.93015
> 2025 05 03 08 17 16.9999999  0 16                      
G05  23746616.06017       187.93917        43.90017      8003.04617
G31  21243972.00416     -1817.76416        35.80016    -68112.42416
G28  21720310.14216     -3421.69416        36.40016   -129083.67116
G26  21657413.98415      1179.44815        33.90015     45346.03015
G29  20912062.48015     -2761.32815        34.10015   -104188.74015
G25  22378945.17915     -4230.49615        33.40015   -160167.04315
G18  21575934.59115      1159.63115        32.50015     45010.21015
G20  24373756.10016     -2198.58716        37.00016    -82969.79616
C30  24371932.76215     -3998.13615        34.60015   -151424.32615
C13  39040233.00915       265.08415        33.80015     10118.00515
C29  21444931.28315     -1527.05815        33.10015    -57234.65015
R16  22461612.94915     -5030.18915        32.70015   -190595.19915
R09  19132159.28215     -1954.98815        32.50015    -73395.80615
C08  39071279.51615      -114.77815        31.50015     -2918.77415
C36  24217638.87715     -4239.85415        30.50015   -160331.66415
R10  20387823.20415      1422.29615        32.20015     54561.72915
> 2025 05 03 08 17 17.9999999  0 16                      
G05  23746341.15017       187.45117        43.50017      8196.78317
G28  21720717.26016     -3415.85416        36.20016   -132495.04316
G31  21244079.92916     -1816.37216        35.70016    -69923.12316
G26  21656948.10715      1176.38015        34.10015     46528.99315
G29  20912355.97715     -2753.29015        34.00015   -106938.24515
G25  22379506.99015     -4230.15215        33.40015   -164391.62315
G18  21575471.71215      1158.90815        32.30015     46175.81515
G20  24373939.57316     -2198.67816        35.70016    -85162.88016
R09  19132283.39615     -1954.74015        33.50015    -75325.01715
C30  24372460.69715     -3997.27215        34.70015   -155414.89515
C13  39039954.20215       269.89815        34.00015     10392.53015
R16  22462325.85525     -5033.99925        33.10025   -195670.27325
C29  21444985.84515     -1523.34615        33.20015    -58752.80415
C08  39071065.76415      -118.82015        31.60015     -3030.17815
R10  20387310.85815      1418.59115        31.70015     56028.46015
C36  24218224.97215     -4247.29815        30.50015   -164568.27015
> 2025 05 03 08 17 18.9999999  0 16                      
G05  23746082.72917       185.15517        43.00017      8388.74417
G28  21721150.76016     -3420.22116        36.10016   -135908.37116
G31  21244207.64116     -1816.85716        35.70016    -71733.98316
G26  21656499.91715      1178.24115        34.70015     47712.75315
G29  20912647.97515     -2756.77615        33.90015   -109688.65315
G25  22380094.88315     -4236.07015        33.30015   -168619.91915
G18  21575032.21615      1159.20715        32.20015     47341.10115
G20  24374143.73115     -2208.59015        34.60015    -87362.35715
R09  19132424.59816     -1955.63516        37.00016    -77247.31316
C30  24373010.21615     -4004.01915        34.80015   -159409.64215
C13  39039676.29415       263.48515        34.40015     10663.60515
C29  21445055.39715     -1526.91415        33.20015    -60272.88915
R16  22463049.25515     -5033.36415        33.20015   -200703.27115
C08  39070863.10415      -114.77815        31.90015     -3139.92215
R10  20386814.10215      1416.65715        31.40015     57509.72015
C36  24218817.36215     -4237.48215        30.40015   -168801.40115
> 2025 05 03 08 17 19.9999999  0 16                      
G05  23745814.11517       189.00817        42.30017      8582.63317
G28  21721563.27516     -3422.09616        36.00016   -139323.64916
G31  21244313.16816     -1818.05816        35.60016    -73545.74616
G26  21656040.33515      1174.63015        35.10015     48894.32415
G25  22380659.09215     -4229.26115        33.40015   -172844.96515
G29  20912934.57715     -2759.42315        33.70015   -112441.17615
G18  21574574.43315      1161.61615        32.10015     48507.83715
G20  24374324.20615     -2209.50415        33.80015    -89564.62315
R09  19132554.40826     -1958.35326        39.00026    -79205.55926
C30  24373541.14915     -4000.55715        35.00015   -163405.36115
C29  21445107.56115     -1527.17715        34.20015    -61793.84215
C13  39039395.38915       267.90415        34.40015     10936.42815
R16  22463762.76115     -5039.69415        33.20015   -205780.63915
C08  39070647.25415      -113.99215        32.00015     -3248.63615
R10  20386310.15115      1418.70515        31.20015     58932.97615
C36  24219391.46415     -4235.06715        30.30015   -173032.04115
> 2025 05 03 08 17 21.0000000  0 16                      
G20  24374535.26016     -2209.13516        35.50016    -91767.56016
G05  23745576.08016       187.95216        41.40016      8776.47416
G28  21722004.26916     -3421.25416        35.90016   -142739.00416
G26  21655603.53815      1175.72615        35.20015     50075.90815
G31  21244451.07316     -1818.53216        35.50016    -75358.11316
G25  22381261.37515     -4235.59315        33.40015   -177073.13415
G29  20913254.75515     -2761.53715        33.60015   -115195.80115
G18  21574152.32515      1159.02115        32.10015     49673.34015
R09  19132715.99616     -1958.85816        39.00016    -81175.26516
C30  24374096.66415     -3998.01915        35.20015   -167399.20415
C29  21445195.40015     -1528.04115        34.80015    -63315.64715
C13  39039130.67215       271.93215        34.30015     11212.53015
R16  22464492.75515     -5032.02015        33.20015   -210786.92215
C08  39070455.68615      -112.83615        32.10015     -3356.22515
R10  20385848.47115      1415.24715        31.20015     60290.63915
C36  24219988.35115     -4236.75315        30.30015   -177263.74115
> 2025 05 03 08 17 21.9999999  0 16                      
G05  23745290.07816       187.49716        40.60016      8970.03016
G20  24374704.04416     -2207.32816        37.60016    -93969.48016
G26  21655133.46315      1173.09715        35.30015     51255.78015
G28  21722414.08616     -3420.77316        35.80016   -146154.02816
G31  21244545.20715     -1819.46115        35.40015    -77171.26515
G29  20913527.86615     -2758.61215        33.50015   -117949.14015
G25  22381817.19015     -4229.83415        33.40015   -181298.47115
G18  21573684.94915      1157.09915        32.00015     50837.18615
R09  19132832.01616     -1956.19916        38.80016    -83122.01216
C29  21445236.77215     -1522.56115        35.30015    -64834.04715
C30  24374617.70315     -3995.31315        35.30015   -171387.69115
C13  39038832.67925       266.60625        34.20025     11486.21125
R16  22465172.98415     -5029.34415        33.10015   -215749.60415
C08  39070232.04115      -113.83215        32.10015     -3464.06715
R10  20385321.13615      1413.18615        31.30015     61774.95015
C36  24220545.36515     -4234.47015        30.20015   -181491.98115
> 2025 05 03 08 17 23.0000000  0 16                      
G20  24374909.70116     -2206.25916        37.50016    -96170.39716
G26  21654698.46416      1172.94516        35.80016     52434.93116
G31  21244684.31115     -1820.62815        35.30015    -78985.50515
G28  21722852.68216     -3429.51816        35.60016   -149574.81916
G29  20913845.04615     -2758.03815        33.50015   -120701.71615
G25  22382412.87815     -4235.69615        33.40015   -185526.81815
G05  23745049.94416       185.46516        39.50016      9162.08916
G18  21573253.84715      1160.71315        32.00015     52002.84015
R09  19132987.90816     -1961.13116        38.50016    -85061.15516
C30  24375177.11616     -4000.37816        35.50016   -175381.67716
C29  21445324.91016     -1529.32616        35.60016    -66355.87116
C13  39038575.75615       264.87615        34.10015     11757.88315
R16  22465914.67115     -5039.30015        32.90015   -220817.79815
C08  39070047.36915      -113.19815        32.20015     -3571.61915
R10  20384851.36115      1417.70615        31.40015     63176.08815
C36  24221150.64615     -4233.01915        30.20015   -185719.39215
> 2025 05 03 08 17 24.0000000  0 16                      
G20  24375095.27316     -2208.52916        37.30016    -98372.48216
G26  21654239.48216      1175.87316        35.90016     53615.80616
G31  21244797.33315     -1819.58815        35.20015    -80799.40315
G28  21723262.79816     -3417.78116        35.50016   -152989.69716
G25  22382973.79015     -4234.95615        33.30015   -189755.66515
G29  20914134.64615     -2765.52015        33.50015   -123459.01415
G05  23744772.33616       186.76916        38.00016      9354.53016
G18  21572787.67015      1163.21815        31.90015     53170.78015
R09  19133130.90916     -1958.97816        38.20016    -87089.69316
C30  24375701.45316     -4000.75616        35.60016   -179377.10116
C29  21445382.17116     -1530.87616        35.60016    -67879.85716
C13  39038280.16115       264.41915        34.00015     12028.59315
R16  22466641.96715     -5038.33715        32.80015   -225968.54015
C08  39069832.71815      -120.93315        32.20015     -3684.21815
R10  20384343.51315      1415.41615        31.50015     64619.17515
C36  24221722.95015     -4238.00915        30.20015   -189949.06915
> 2025 05 03 08 17 24.9999999  0 16                      
G26  21653767.30916      1172.19216        36.10016     54794.83916
G05  23744486.33416       183.04116        37.00016      9544.65016
G20  24375277.24716     -2212.37416        36.90016   -100577.48116
G31  21244892.66715     -1821.23015        35.10015    -82614.24415
G28  21723663.62115     -3424.83115        35.30015   -156407.26715
G25  22383533.80215     -4237.54515        33.50015   -193986.36715
G29  20914405.05915     -2765.04815        33.40015   -126217.53515
G18  21572316.09615      1157.78015        32.10015     54335.89215
R09  19133240.03426     -1959.26226        37.90026    -89001.29426
C29  21445424.74116     -1526.96816        35.50016    -69401.92216
C30  24376224.59116     -4000.30516        35.60016   -183370.18916
C13  39037983.96615       264.21115        34.00015     12298.88015
R16  22467308.40615     -5034.29015        32.80015   -230857.84615
C08  39069601.27815      -115.33415        32.10015     -3794.73115
R10  20383825.47115      1414.21715        31.80015     66054.67215
C36  24222291.05715     -4236.43415        31.10015   -194180.61415
> 2025 05 03 08 17 26.0000000  0 16                      
G05  23744240.20526       182.68926        36.70026      9733.71326
G26  21653334.40916      1172.87916        36.40016     55973.66616
G28  21724101.01815     -3422.75615        35.20015   -159824.39915
G31  21245039.26515     -1824.13115        35.00015    -84431.38215
G25  22384132.48815     -4234.08215        33.50015   -198215.42815
G29  20914721.93915     -2761.87115        33.30015   -128974.39315
G18  21571895.18815      1158.89515        32.20015     55500.75615
G20  24375490.99916     -2209.20916        36.30016   -102781.39216
R09  19133397.42526     -1963.18526        37.70026    -90947.31626
C30  24376784.60316     -4001.83216        35.70016   -187365.31216
C29  21445508.38316     -1527.57216        35.70016    -70923.79816
C13  39037724.94515       264.47015        34.00015     12569.15015
R16  22468045.29615     -5036.89115        32.80015   -235900.05415
C36  24222896.33815     -4234.67115        31.90015   -198410.61215
R10  20383357.79515      1413.88415        32.10015     67443.60615
C08  39069417.80515      -109.37415        32.10015     -3900.62415
> 2025 05 03 08 17 26.9999999  0 16                      
G05  23743955.70226       184.41426        37.10026      9923.62226
G26  21652861.03616      1171.75316        36.40016     57151.72416
G28  21724507.53615     -3422.28615        35.10015   -163241.02315
G31  21245134.00015     -1821.08915        35.00015    -86247.21015
G25  22384689.50215     -4231.87415        33.50015   -202442.42015
G29  20915000.14715     -2763.28715        33.50015   -131731.59315
G18  21571422.11515      1158.52615        32.40015     56665.34115
G20  24375652.28715     -2211.13115        35.40015   -104986.17115
C30  24377306.84216     -4001.31516        36.60016   -191360.02116
R09  19133523.93726     -1963.75426        37.40026    -92951.36726
C29  21445560.54716     -1531.37116        35.60016    -72448.09516
C13  39037423.65415       264.40915        34.00015     12839.42315
R16  22468738.71615     -5037.22815        32.70015   -240933.05215
C36  24223462.94615     -4239.42215        32.30015   -202643.37715
R10  20382846.64915      1414.02015        32.10015     68842.49315
C08  39069189.36315      -117.15715        32.10015     -4010.11715
> 2025 05 03 08 17 28.0000000  0 16                      
G18  21570986.21715      1159.28415        34.50015     57830.28915
G05  23743708.37326       181.68326        37.30026     10111.94426
G26  21652431.73316      1172.12516        36.30016     58329.72316
G31  21245272.20415     -1825.42015        35.20015    -88065.53615
G28  21724950.63015     -3425.36615        35.40015   -166659.58015
G29  20915320.02515     -2763.62115        33.60015   -134489.17915
G25  22385283.09115     -4233.73415        33.60015   -206670.01315
G20  24375865.73915     -2219.30415        34.60015   -107196.73815
C30  24377868.35316     -4001.26016        36.60016   -195355.83416
R09  19133672.33416     -1962.13716        37.10016    -94849.25116
C13  39037161.63515       264.99115        34.40015     13110.03515
C29  21445644.78916     -1525.77116        35.50016    -73969.51416
C36  24224062.83015     -4236.71015        33.00015   -206872.82315
R16  22469465.71315     -5037.72115        32.70015   -245922.52115
R10  20382367.58115      1411.50215        32.30015     70292.44415
C08  39069003.79115      -116.06115        32.10015     -4120.12715
> 2025 05 03 08 17 29.0000000  0 16                      
G05  23743434.96226       182.59126        37.50026     10300.35426
G18  21570523.33716      1159.00816        37.80016     58995.18616
G26  21651970.65316      1172.25716        36.30016     59507.80416
G31  21245373.23416     -1824.47716        35.70016    -89884.05616
G28  21725363.14416     -3424.04816        35.60016   -170077.89116
G20  24376042.61715     -2212.22415        34.30015   -109404.50215
G25  22385848.50015     -4236.95315        34.00015   -210899.93915
G29  20915606.02715     -2763.39015        33.90015   -137246.72715
C30  24378400.48516     -3996.86916        36.50016   -199348.41816
R09  19133808.44016     -1963.73516        36.90016    -96844.17116
C13  39036869.93726       264.89226        35.70026     13380.70726
C29  21445699.35115     -1529.95515        35.40015    -75492.75115
C36  24224639.93115     -4234.44215        34.50015   -211102.55115
R10  20381866.62715      1413.92215        32.40015     71697.39615
R16  22470192.70915     -5042.99415        32.60015   -251074.02815
C08  39068786.14215      -114.49415        32.00015     -4229.25415
> 2025 05 03 08 17 30.0000000  0 16                      
G05  23743184.93516       182.52916        37.70016     10488.78816
G18  21570081.74316      1154.07916        37.70016     60156.81716
G31  21245501.54516     -1822.27816        36.10016    -91701.13616
G26  21651529.05816      1169.59516        36.20016     60684.17416
G28  21725790.64816     -3428.41716        35.90016   -173498.99516
G25  22386438.79115     -4237.14415        34.00015   -215130.73415
G20  24376245.57615     -2208.85015        34.20015   -111609.04615
G29  20915921.10915     -2764.98515        33.90015   -140005.28915
R09  19133951.14116     -1965.76616        36.70016    -98773.34516
C30  24378940.41116     -4000.95016        36.40016   -203341.97116
C13  39036601.92316       263.52616        35.70016     13650.52516
C36  24225231.12115     -4236.28815        34.70015   -215333.82715
C29  21445772.80015     -1530.96215        35.20015    -77017.22915
R16  22470899.32015     -5031.02415        32.60015   -256016.07115
R10  20381392.95515      1410.48415        32.40015     73058.14615
C08  39068584.38215      -118.44115        32.00015     -4340.68015
> 2025 05 03 08 17 31.0000000  0 17                      
G05  23742912.12416       180.08116        37.70016     10675.55116
G18  21569623.06116      1160.92316        37.50016     61321.87416
G31  21245615.46616     -1827.70516        36.20016    -93521.40416
G26  21651070.07616      1174.34316        36.20016     61863.08916
G28  21726204.96116     -3427.39016        35.90016   -176920.39516
G25  22387001.80115     -4232.13015        34.00015   -219358.52515
G29  20916204.41315     -2763.94815        33.80015   -142763.54615
G20  24376428.45015     -2212.80615        34.10015   -113815.20315
G04  24993320.98425     -1486.91825        31.40025                
C13  39036315.32116       261.35616        35.60016     13918.56316
C30  24379480.33716     -3999.45116        36.20016   -207334.75516
R09  19134079.75216     -1965.53816        36.40016   -100727.77016
C29  21445829.46115     -1530.19515        35.10015    -78541.65815
C36  24225807.32315     -4239.28715        34.70015   -219568.36715
R10  20380886.00615      1413.90315        32.40015     74494.36915
R16  22471601.43415     -5041.95115        32.50015   -261034.58615
C08  39068372.12915      -115.21415        32.10015     -4450.77115
> 2025 05 03 08 17 32.0000000  0 17                      
G18  21569165.87716      1155.11416        37.70016     62484.21216
G05  23742635.41626       178.52326        37.90026     10860.72926
G26  21650608.99516      1169.29216        36.20016     63039.49916
G31  21245724.29116     -1824.75516        36.20016    -95340.75516
G28  21726618.97516     -3426.62916        35.90016   -180341.37416
G25  22387569.90815     -4238.33915        33.90015   -223589.44115
G29  20916496.11115     -2763.03415        33.80015   -145521.08115
G20  24376621.51615     -2213.58015        34.00015   -116022.40015
G04  24993380.64315     -1488.71315        31.30015     -1480.44315
C30  24380016.36616     -3997.80716        36.10016   -211328.44816
C13  39036026.62116       262.66216        35.60016     14186.89116
R09  19134220.95416     -1966.63816        36.20016   -102746.37616
C29  21445889.12015     -1533.41715        35.00015    -80068.20715
C36  24226385.62215     -4237.58615        34.60015   -223803.79415
R16  22472306.54615     -5038.10815        32.50015   -266066.85715
R10  20380377.85815      1412.54215        32.50015     75938.98215
C08  39068155.67915      -120.57615        32.10015     -4563.97915
> 2025 05 03 08 17 33.0000000  0 17                      
G05  23742384.18916       181.23116        37.90016     11047.22216
G18  21568726.98116      1157.01416        38.00016     63646.94616
G31  21245848.70526     -1827.29726        36.10026    -97161.45926
G26  21650165.00316      1172.10416        36.20016     64216.98516
G28  21727048.87716     -3428.22916        35.90016   -183763.24216
G29  20916799.20115     -2761.97015        33.80015   -148277.62715
G20  24376827.47415     -2211.61315        34.00015   -118228.59715
G25  22388156.30215     -4237.30115        33.90015   -227820.67115
G04  24993443.29915     -1490.50615        31.10015     -2965.05015
C30  24380555.39316     -4002.02116        36.00016   -215323.93916
C13  39035756.50816       264.42916        35.50016     14456.52916
R09  19134369.35216     -1968.90516        36.00016   -104707.64016
C36  24226977.41315     -4234.78415        34.50015   -228034.09715
C29  21445964.66815     -1527.55615        34.80015    -81591.51815
R10  20379900.28915      1409.90415        32.70015     77319.56315
R16  22473033.24315     -5040.96015        32.50015   -271117.43515
C08  39067963.51215      -115.27415        32.00015     -4674.65415
> 2025 05 03 08 17 34.0000000  0 17                      
G18  21568269.49816      1153.06816        38.00016     64807.13416
G05  23742111.37816       178.65716        37.90016     11232.38816
G26  21649704.52116      1168.67216        36.20016     65392.49216
G31  21245960.82716     -1827.70716        36.10016    -98982.93616
G28  21727473.38316     -3429.73816        35.80016   -187186.46216
G20  24377007.64915     -2216.64815        33.90015   -120437.86615
G25  22388728.90615     -4232.68015        33.80015   -232048.97315
G29  20917084.00415     -2761.06515        33.80015   -151033.29115
G04  24993485.87015     -1488.85215        30.90015     -4448.59215
C30  24381085.42616     -4000.45616        35.90016   -219317.57016
C13  39035466.30915       265.23015        35.40015     14727.09015
C36  24227553.31415     -4237.50115        34.50015   -232266.95715
R09  19134492.26716     -1967.03516        35.80016   -106629.21116
C29  21446011.13515     -1532.13415        34.70015    -83116.85015
R10  20379386.74415      1407.64815        33.00015     78793.15915
R16  22473727.26215     -5040.47815        32.50015   -276090.85415
C08  39067742.56515      -118.44215        31.80015     -4786.64715
> 2025 05 03 08 17 35.0000000  0 17                      
G18  21567812.01416      1156.34316        38.00016     65968.66816
G05  23741839.16716       179.42416        37.80016     11417.63516
G31  21246068.15316     -1826.80116        36.20016   -100804.05516
G26  21649247.33816      1171.51616        36.20016     66569.24816
G28  21727877.80316     -3423.32416        35.70016   -190605.84516
G25  22389297.31215     -4237.91815        33.80015   -236279.77915
G20  24377189.62315     -2216.06915        33.80015   -122647.76015
G29  20917369.10715     -2768.86215        33.70015   -153793.84615
G04  24993559.01915     -1482.50815        30.60015     -5927.53615
C36  24228129.51515     -4239.82915        34.90015   -236500.08315
C30  24381622.05416     -4003.98816        35.70016   -223313.68616
C13  39035176.41015       263.14615        35.30015     14996.58115
C29  21446071.09415     -1538.46815        34.60015    -84647.06715
R10  20378898.08215      1408.75415        33.10015     80133.27915
R16  22474447.36415     -5041.61415        32.60015   -281204.14415
R09  19134636.16715     -1971.23815        35.20015   -108663.86115
C08  39067530.61115      -115.67615        31.70015     -4897.22215
> 2025 05 03 08 17 36.0000000  0 17                      
G18  21567372.21916      1156.02016        38.00016     67130.47216
G05  23741585.24316       176.10916        37.70016     11600.73516
G31  21246198.26316     -1829.42316        36.30016   -102626.76516
G26  21648807.84216      1168.54516        36.10016     67744.47616
G28  21728316.69916     -3430.57816        35.60016   -194028.74716
G25  22389878.31015     -4241.14915        33.70015   -240513.53615
G20  24377388.08515     -2214.91715        33.80015   -124857.05815
G29  20917682.98915     -2762.97415        33.50015   -156552.07015
G04  24993598.59215     -1488.76515        30.30015     -7409.08315
C36  24228729.69915     -4237.04615        35.40015   -240733.80515
C30  24382160.48216     -4000.77016        35.60016   -227310.16216
C13  39034908.39515       260.68715        35.20015     15264.11215
C29  21446148.74015     -1537.62715        34.50015    -86178.31515
R10  20378401.92615      1412.89015        33.10015     81613.01415
R16  22475165.06715     -5040.28415        32.70015   -286206.56915
R09  19134772.57315     -1970.59515        34.50015   -110560.18015
C08  39067329.75015      -119.52815        31.60015     -5009.85615
> 2025 05 03 08 17 37.0000000  0 16                      
G18  21566921.63116      1149.85716        38.00016     68288.20816
G31  21246304.39016     -1829.17716        36.30016   -104449.89116
G26  21648346.16216      1170.41716        35.90016     68920.39416
G28  21728728.31415     -3429.15015        35.40015   -197451.91915
G25  22390447.31615     -4238.15715        33.70015   -244746.33215
G20  24377569.16015     -2211.49315        33.70015   -127063.92415
G29  20917973.78815     -2765.86215        33.40015   -159311.49115
G04  24993642.96115     -1491.73415        30.00015     -8893.52515
C36  24229299.60516     -4237.24816        36.00016   -244966.03416
C30  24382700.70816     -3999.82916        35.50016   -231304.57216
C13  39034619.69515       264.71115        35.10015     15533.62515
R09  19134896.38715     -1965.85615        34.10015   -112487.86315
C29  21446203.30215     -1534.19415        34.40015    -87707.66615
R16  22475871.97815     -5036.54115        33.10015   -291249.54115
R10  20377896.17615      1404.78215        33.20015     83044.66015
C08  39067113.90015      -116.41615        31.60015     -5121.15015
> 2025 05 03 08 17 38.0000000  0 17                      
G18  21566457.25216      1152.22716        38.00016     69446.18116
G31  21246414.11426     -1830.77326        36.80026   -106274.20726
G26  21647888.97816      1170.57016        35.80016     70096.65616
G28  21729143.52715     -3429.74815        35.30015   -200875.56915
G25  22391019.02015     -4233.85115        33.60015   -248975.92515
G20  24377758.92915     -2218.69515        33.60015   -129274.76815
G29  20918264.58715     -2764.55715        33.30015   -162070.42915
G05  23741049.81316       180.34516        36.50016     11969.14016
G04  24993696.92415     -1496.18015        29.80015    -10381.88515
C36  24229872.80816     -4236.67516        36.40016   -249196.02116
C30  24383225.04515     -3999.78615        35.30015   -235297.87215
R09  19135027.99625     -1968.60025        34.50025   -114456.80525
C13  39034330.99515       263.87615        34.90015     15803.25315
C29  21446258.76415     -1533.46315        34.20015    -89235.88615
R10  20377407.21525      1408.53625        33.30025     84387.83125
R16  22476572.29315     -5042.74015        33.30015   -296257.35515
C08  39066896.55015      -117.61815        31.40015     -5232.78715
> 2025 05 03 08 17 39.0000000  0 17                      
G18  21566018.05616      1155.36216        38.00016     70606.35916
G31  21246546.32216     -1833.73716        37.20016   -108100.85916
G26  21647439.58916      1167.33516        35.70016     71270.91316
G05  23740796.78816       181.51916        35.70016     12156.56016
G20  24377958.59015     -2214.91015        33.50015   -131484.37915
G25  22391603.61515     -4237.86915        33.60015   -253207.09215
G29  20918562.28115     -2763.31015        33.30015   -164828.33715
G28  21729579.42515     -3438.14415        34.70015   -204304.93715
G04  24993756.28315     -1497.33515        29.50015    -11872.28415
C36  24230470.29416     -4237.05516        36.40016   -253428.27816
R09  19135176.99315     -1970.60515        35.30015   -116420.36115
C30  24383766.47015     -4003.49815        35.20015   -239292.56515
C29  21446331.61415     -1536.09315        34.20015    -90765.44615
C13  39034059.98315       267.46315        34.70015     16075.34815
R16  22477295.69215     -5036.69415        33.70015   -301289.58915
R10  20376923.35015      1408.18915        33.40015     85800.44715
C08  39066707.08115      -117.81715        31.40015     -5344.63415
> 2025 05 03 08 17 40.0000000  0 17                      
G18  21565556.37616      1151.77916        38.00016     71764.83616
G31  21246656.64616     -1835.73516        37.30016   -109929.67116
G26  21646983.60516      1168.83716        35.60016     72445.45416
G05  23740520.68015       173.86815        35.30015     12338.84115
G25  22392178.31815     -4237.79315        33.50015   -257438.78215
G20  24378142.36315     -2221.10015        33.50015   -133697.75315
G29  20918847.08415     -2769.41515        33.30015   -167590.02115
G28  21729999.43415     -3431.56515        34.00015   -207731.87515
G04  24993805.14914     -1494.29714        29.20014    -13361.38514
R09  19135307.40216     -1971.44016        39.90016   -118382.42716
C36  24231047.09516     -4237.22516        36.30016   -257661.67016
C29  21446384.37715     -1537.00615        35.00015    -92296.11015
C30  24384293.20515     -4002.60115        35.10015   -243289.61015
R16  22477994.80815     -5041.77015        34.10015   -306290.52315
C13  39033774.28015       262.00815        34.60015     16344.57915
R10  20376406.80715      1407.39815        33.40015     87290.06015
C08  39066494.22915      -118.24615        31.30015     -5456.88615
> 2025 05 03 08 17 41.0000001  0 17                      
G18  21565127.97316      1152.79516        38.40016     72923.43316
G31  21246797.84816     -1835.68016        37.30016   -111759.15316
G05  23740277.54826       175.36326        35.80026     12520.41926
G26  21646547.70716      1169.81416        35.60016     73620.75316
G25  22392767.41015     -4235.51115        33.80015   -261669.11315
G20  24378355.51615     -2223.31715        33.50015   -135913.84815
G29  20919162.46515     -2764.78515        33.30015   -170349.86515
G28  21730444.62615     -3429.62415        33.30015   -211156.69715
G04  24993877.09914     -1493.19914        29.00014    -14849.31014
R09  19135470.48926     -1973.33326        41.20026   -120359.01026
C29  21446474.01516     -1534.93316        35.80016    -93825.74716
C36  24231648.77916     -4240.81816        36.10016   -261894.80216
R16  22478734.99615     -5039.80515        34.40015   -311350.31015
C30  24384861.31215     -3999.43615        35.00015   -247284.54515
C13  39033512.86115       261.04615        34.40015     16612.22715
R10  20375941.82925      1405.70325        33.60025     88665.26525
C08  39066303.86115      -119.72715        31.10015     -5570.24915
> 2025 05 03 08 17 42.0000000  0 17                      
G18  21564661.49526      1154.14326        38.70026     74083.00826
G05  23739997.84116       174.02516        36.30016     12700.90716
G26  21646077.63216      1165.02816        35.60016     74793.15016
G25  22393321.72615     -4234.98515        34.40015   -265898.60315
G31  21246899.47816     -1833.97416        37.00016   -113587.68516
G29  20919456.26215     -2771.20915        33.30015   -173113.34215
G20  24378532.69315     -2217.36515        33.50015   -138126.84615
G28  21730847.54715     -3432.70715        32.80015   -214582.83115
G04  24993915.47214     -1491.62314        28.80014    -16335.75614
R09  19135589.50727     -1971.14727        41.90027   -122323.32927
C29  21446518.38426     -1534.39726        36.70026    -95354.64926
C36  24232216.88516     -4243.12916        36.00016   -266129.50816
R16  22479435.01115     -5046.81215        34.60015   -316418.46815
C30  24385392.54415     -3997.44615        34.80015   -251274.95115
C13  39033211.87015       265.20915        34.40015     16882.15915
R10  20375425.88615      1403.70815        33.70015     90088.55915
C08  39066076.91815      -120.35915        31.00015     -5684.36615
> 2025 05 03 08 17 43.0000000  0 17                      
G25  22393894.92926     -4239.46626        41.20026   -270130.85026
G18  21564205.81116      1148.46616        38.70016     75239.07416
G05  23739721.13316       178.77716        36.40016     12884.15116
G26  21645617.15116      1167.80316        36.00016     75966.38216
G31  21247016.69616     -1833.39516        36.60016   -115415.56416
G29  20919741.66415     -2768.11415        33.20015   -175876.01515
G20  24378720.06315     -2221.17115        33.30015   -140341.39715
G28  21731261.26115     -3435.27015        32.40015   -218011.16215
G04  24993957.44314     -1499.56014        28.60014    -17827.04914
R09  19135723.51417     -1975.42817        41.90017   -124305.26117
C29  21446573.84616     -1535.79016        37.80016    -96884.28216
R16  22480131.72915     -5042.13615        34.60015   -321407.93815
C30  24385918.98015     -4000.25015        34.70015   -255268.77415
R10  20374927.63115      1405.69115        33.90015     91481.30715
C13  39032923.17015       261.89115        34.30015     17150.59215
C36  24232800.58116     -4241.90116        35.70016   -270366.63716
C08  39065864.96415      -117.05615        30.80015     -5796.58115
> 2025 05 03 08 17 44.0000001  0 17                      
G25  22394488.21816     -4241.18316        41.00016   -274365.14716
G18  21563778.30716      1150.87916        38.80016     76395.59116
G26  21645184.85016      1164.83216        36.30016     77137.92416
G05  23739480.40016       170.97316        36.40016     13063.12316
G31  21247158.19816     -1832.50916        36.00016   -117242.62116
G29  20920057.64515     -2767.42215        33.10015   -178637.94715
G20  24378931.71715     -2217.46615        33.20015   -142553.98315
G28  21731712.14915     -3437.64715        32.10015   -221441.79615
G04  24994023.99714     -1493.77114        28.50014    -19316.08514
R09  19135882.70417     -1976.82117        41.80017   -126260.45017
C29  21446659.28716     -1539.43916        38.60016    -98416.58016
C36  24233395.96915     -4238.27515        35.40015   -274601.19215
R16  22480867.71915     -5041.38215        35.00015   -326444.79515
R10  20374452.76015      1402.23315        34.00015     92909.13915
C30  24386472.99615     -4003.75015        34.50015   -259266.04315
C13  39032661.45115       261.18015        34.20015     17418.06315
C08  39065672.79715      -117.85215        30.70015     -5908.68115
> 2025 05 03 08 17 45.0000000  0 17                      
G25  22395042.83416     -4235.43116        40.80016   -278596.25716
G18  21563309.13216      1152.15416        38.80016     77553.14616
G26  21644713.27716      1169.75516        36.70016     78312.22016
G05  23739198.59516       174.29516        36.30016     13242.92316
G31  21247262.82616     -1838.02116        35.50016   -119073.04316
G29  20920325.36015     -2765.90015        33.10015   -181398.58015
G20  24379104.69715     -2221.70115        33.00015   -144768.70215
G28  21732117.76815     -3432.58515        31.90015   -224869.78815
G04  24994059.37314     -1490.91414        28.40014    -20802.42914
R09  19136005.91917     -1974.84817        41.70017   -128247.69217
C29  21446706.65416     -1537.68416        38.90016    -99948.56016
C36  24233957.78016     -4241.55016        36.30016   -278835.48916
R16  22481571.03215     -5037.49715        35.40015   -331531.29615
R10  20373946.41015      1402.76515        34.30015     94282.09415
C30  24386996.73315     -4000.71115        34.40015   -263260.65715
C13  39032359.86015       261.24115        34.00015     17685.29015
C08  39065443.15615      -118.34715        30.50015     -6021.03715
> 2025 05 03 08 17 46.0000001  0 17                      
G25  22395639.42116     -4239.37416        40.50016   -282828.98216
G18  21562882.22726      1150.64026        38.80026     78709.98826
G26  21644282.47516      1164.48116        37.00016     79483.87116
G05  23738956.66216       170.16316        36.30016     13420.19516
G29  20920640.44215     -2773.73015        33.70015   -184164.04915
G31  21247405.22715     -1839.70215        35.00015   -120905.75515
G20  24379319.04915     -2226.86215        32.90015   -146987.62015
G28  21732555.46515     -3434.03515        31.70015   -228297.91315
G04  24994146.61214     -1491.25614        28.30014    -22288.15114
R09  19136165.70827     -1978.51827        41.60027   -130206.70127
C29  21446792.09516     -1539.44416        39.00016   -101481.65516
R16  22482300.12715     -5042.33315        35.40015   -336532.23015
C36  24234563.66116     -4239.79616        36.10016   -283070.45116
R10  20373462.54515      1404.44315        34.40015     95757.97715
C13  39032102.03815       260.64615        34.00015     17951.99115
C30  24387564.54015     -4004.14215        34.20015   -267256.27415
C08  39065261.18215      -118.37215        30.30015     -6133.54215
> 2025 05 03 08 17 46.9999998  0 17                      
G29  20920844.00116     -2767.28716        41.30016   -186926.82216
G25  22396119.68916     -4238.24316        40.40016   -287061.48016
G18  21562337.50416      1146.53416        38.80016     79863.86716
G26  21643732.65616      1166.02816        37.40016     80655.68216
G05  23738595.11316       171.49816        36.40016     13597.52716
G31  21247432.80815     -1832.93015        34.60015   -122734.70515
G20  24379412.58415     -2220.91615        32.80015   -149203.96315
G28  21732880.14015     -3434.66615        31.50015   -231726.49215
G04  24994109.43814     -1496.08214        28.20014    -23776.87214
R09  19136208.27927     -1976.25927        41.50027   -132179.46427
C29  21446758.21816     -1537.11116        39.20016   -103013.55616
R16  22482908.10715     -5042.25815        35.40015   -341525.52215
C36  24235048.72516     -4244.65516        35.80016   -287307.34616
C13  39031729.69615       262.93815        34.20015     18220.05715
R10  20372881.54815      1402.19915        34.40015     97111.82715
C30  24387995.64215     -4002.78315        34.00015   -271252.30315
C08  39064958.99215      -118.54415        30.20015     -6246.20015
> 2025 05 03 08 17 48.0000001  0 17                      
G29  20921241.52616     -2769.28616        41.20016   -189689.99316
G25  22396801.71716     -4236.15216        40.20016   -291292.47016
G18  21561986.44716      1146.58816        38.70016     81016.83216
G26  21643380.69916      1160.87116        37.40016     81824.14616
G05  23738434.42416       171.59316        36.40016     13774.97816
G31  21247637.56715     -1838.89815        34.20015   -124566.34215
G20  24379704.58215     -2213.33215        32.60015   -151414.35315
G28  21733396.38315     -3436.15115        31.50015   -235156.17515
G04  24994259.93414     -1499.33914        28.10014    -25268.72714
R09  19136452.31016     -1977.92816        41.40016   -134170.52516
C29  21446924.90316     -1536.78516        39.30016   -104544.80316
R16  22483728.63915     -5046.42715        35.30015   -346596.73615
C30  24388626.70515     -4003.19915        34.20015   -275247.98315
C36  24235735.54916     -4240.83416        35.50016   -291543.97516
C13  39031551.31915       260.48715        34.20015     18486.98015
R10  20372505.60815      1403.52815        34.30015     98429.10315
C08  39064851.36615      -118.60715        30.40015     -6358.91415
> 2025 05 03 08 17 48.9999998  0 17                      
G29  20921438.78916     -2770.45616        41.10016   -192454.12616
G25  22397279.58616     -4241.26216        40.20016   -295526.41316
G18  21561436.32816      1146.56416        38.70016     82169.42716
G26  21642839.27416      1167.52116        37.40016     82995.87816
G05  23738079.17016       171.34616        36.40016     13952.25616
G31  21247651.95715     -1839.01315        33.90015   -126399.00115
G20  24379802.01415     -2220.52815        32.50015   -153627.60715
G28  21733720.75815     -3440.51815        31.50015   -238589.18715
G04  24994216.76414     -1494.65014        27.90014    -26758.55014
R09  19136498.17816     -1979.97116        41.20016   -136161.62516
C08  39064547.07715      -121.66915        32.60015     -6473.73715
C29  21446892.82516     -1539.42716        39.30016   -106077.64416
R16  22484348.90915     -5041.42615        35.30015   -351657.28815
C36  24236224.51115     -4241.63815        35.20015   -295778.52815
C30  24389074.59515     -4004.50315        34.20015   -279246.40815
C13  39031175.38015       259.56915        34.10015     18752.86215
R10  20371899.72715      1405.73615        34.10015     99915.66515
> 2025 05 03 08 17 49.9999999  0 16                      
G29  20921758.96816     -2771.88016        41.00016   -195219.51616
G25  22397878.87126     -4239.37926        40.10026   -299760.07426
G18  21561011.22316      1146.31416        38.70016     83321.74516
G26  21642403.37616      1165.31716        37.30016     84167.24316
G31  21247797.35615     -1836.08915        33.60015   -128230.03815
G28  21734161.45315     -3435.80715        31.70015   -242020.15515
G20  24380008.27115     -2225.83915        32.30015   -155845.34315
G04  24994297.70814     -1492.66614        27.70014    -28246.36014
R09  19136649.57326     -1979.97726        41.10026   -138076.31926
C29  21446982.76316     -1541.25116        39.30016   -107612.21816
C08  39064358.50726      -120.28026        39.00026     -6588.32526
C30  24389625.31415     -4003.74615        34.70015   -283244.44715
C36  24236831.59115     -4241.15415        35.10015   -300013.47615
R16  22485075.00615     -5043.21115        35.20015   -356642.17115
C13  39030911.86215       260.94615        34.00015     19019.32615
R10  20371425.75515      1392.18115        33.40015    101338.15815
> 2025 05 03 08 17 51.0000001  0 17                      
G25  22398524.62426     -4242.43326        40.20026   -303995.63926
G29  20922123.51516     -2771.12916        40.80016   -197984.78816
G18  21560637.98116      1146.77216        38.80016     84474.31116
G31  21247992.52115     -1836.19315        33.50015   -130060.56815
G05  23737647.76815       170.86115        34.60015     14292.59915
G28  21734662.70615     -3436.76815        31.90015   -245451.04515
G20  24380279.88315     -2225.12415        32.20015   -158064.06015
G26  21642031.63316      1175.05916        36.50016     85345.01716
G04  24994425.71914     -1499.02914        27.50014    -29737.70514
R09  19136861.82626     -1981.74626        41.00026   -140057.44926
C29  21447119.46816     -1540.14516        39.30016   -109146.59816
C08  39064218.80416      -122.67316        38.60016     -6704.39316
C30  24390239.28915     -4003.82615        35.30015   -287241.46815
R16  22485859.56315     -5046.63915        35.10015   -361682.04815
C36  24237481.84015     -4240.68115        35.00015   -304248.02615
C13  39030699.00915       261.93415        33.90015     19286.68015
R10  20370994.05415      1404.54015        32.50015    102792.72315
> 2025 05 03 08 17 51.9999998  0 17                      
G25  22399003.99216     -4237.53116        40.20016   -308228.62216
G29  20922324.07616     -2771.39716        40.70016   -200750.24916
G18  21560088.76116      1145.55416        38.80016     85626.10016
G31  21248015.60515     -1844.15815        33.40015   -131896.28815
G26  21641485.71116      1162.98916        35.60016     86516.83216
G28  21734984.38315     -3436.81815        32.00015   -248881.99315
G05  23737285.31915       169.18715        34.10015     14467.65015
G20  24380377.01615     -2222.63115        32.00015   -160281.49115
G04  24994386.74614     -1501.74914        27.40014    -31232.09014
R09  19136904.69726     -1980.14426        41.00026   -142032.50326
C29  21447081.99416     -1540.57116        39.50016   -110681.24416
C30  24390677.58516     -4002.69216        36.60016   -291238.45116
C08  39063918.41216      -119.98116        38.00016     -6819.20916
R16  22486480.43415     -5040.31315        35.00015   -366744.89315
C36  24237975.29915     -4238.83615        34.80015   -308483.09715
C13  39030317.07415       261.24415        33.90015     19553.82315
R10  20370415.45515      1399.24115        31.60015    104134.37015
> 2025 05 03 08 17 52.9999999  0 17                      
G25  22399600.27916     -4241.47216        40.20016   -312463.35616
G29  20922641.85616     -2769.91316        40.50016   -203514.77016
G18  21559666.35416      1142.75016        38.70016     86775.77216
G05  23737041.88815       169.96415        33.70015     14643.21815
G31  21248155.00815     -1843.08115        33.30015   -133733.00715
G28  21735436.47015     -3438.07515        32.30015   -252313.78515
G26  21641054.90915      1159.65215        34.80015     87684.44715
G20  24380591.96715     -2225.90615        32.00015   -162500.66415
G04  24994461.69414     -1505.01914        27.30014    -32729.65614
R09  19137070.18226     -1983.25026        40.90026   -144022.07626
C29  21447174.03016     -1541.88516        39.80016   -112216.84416
C30  24391238.19716     -4003.22516        37.70016   -295234.07416
C08  39063737.33716      -119.23516        37.30016     -6933.09816
R16  22487232.31315     -5044.20915        34.80015   -371867.35415
C36  24238580.58015     -4245.51415        34.70015   -312721.24715
C13  39030060.75115       262.29315        33.80015     19821.60615
R10  20369969.06415      1405.66315        31.00015    105409.65915
> 2025 05 03 08 17 53.9999998  0 17                      
G29  20922921.26316     -2775.01616        40.40016   -206282.34416
G25  22400159.99216     -4236.23716        40.20016   -316695.15016
G18  21559197.17816      1146.44116        38.60016     87927.23616
G05  23736761.58215       169.27915        33.50015     14818.53915
G31  21248258.13715     -1845.53615        33.20015   -135571.66015
G28  21735840.59115     -3439.52215        32.70015   -255746.78715
G26  21640591.43015      1162.88915        34.30015     88852.85815
G20  24380767.04615     -2226.25815        32.00015   -164720.61615
G04  24994497.37014     -1506.59714        27.20014    -34229.29814
R09  19137190.09926     -1981.38526        40.80026   -145990.97926
C29  21447218.69916     -1540.08916        40.20016   -113751.52816
C30  24391758.03716     -4005.00616        37.90016   -299230.69816
R16  22487917.93815     -5047.21715        34.70015   -376859.08015
C08  39063508.89616      -121.00416        36.70016     -7047.82116
C36  24239150.78515     -4242.14715        34.50015   -316960.66215
C13  39029764.25615       259.82615        33.60015     20087.99415
R10  20369432.73515      1397.53615        30.50015    106942.78315
> 2025 05 03 08 17 54.9999999  0 17                      
G29  20923243.84016     -2771.18316        40.30016   -209048.42816
G25  22400759.57716     -4243.36716        40.10016   -320930.76516
G18  21558769.67416      1143.57016        38.60016     89077.33416
G05  23736521.74815       167.48515        33.50015     14992.53315
G31  21248409.23215     -1836.93115        33.20015   -137405.26915
G26  21640152.23415      1160.09515        33.90015     90019.62215
G28  21736288.18115     -3438.55215        32.70015   -259179.59415
G20  24380980.79815     -2229.74115        32.10015   -166943.19915
G04  24994577.11414     -1498.38114        27.20014    -35724.20414
R09  19137352.28726     -1984.41326        40.80026   -147962.21426
C29  21447306.23916     -1544.55216        40.40016   -115288.93116
C30  24392317.45016     -4003.07216        37.80016   -303228.93116
C08  39063324.22316      -124.01716        36.10016     -7164.87916
C36  24239747.37215     -4242.96515        34.40015   -321195.63015
R16  22488645.83415     -5048.80615        34.50015   -381854.44315
C13  39029506.13515       260.27615        33.50015     20354.16915
R10  20368989.64215      1399.65415        30.00015    108200.53115
> 2025 05 03 08 17 55.9999999  0 17                      
G29  20923528.34316     -2773.39316        40.20016   -211815.47816
G25  22401325.28516     -4239.04316        40.00016   -325164.75816
G18  21558311.59116      1145.11216        38.50016     90228.01816
G05  23736256.13225       166.76525        33.60025     15165.61725
G31  21248528.55015     -1840.04415        33.10015   -139239.26015
G26  21639697.14915      1162.58615        33.70015     91187.51015
G20  24381161.87315     -2226.45115        32.40015   -169164.45315
G28  21736704.89215     -3443.72315        32.70015   -262615.77115
G04  24994610.99114     -1493.94514        27.10014    -37214.56114
R09  19137487.79316     -1983.27516        40.80016   -149951.78516
C29  21447365.59816     -1541.49416        40.50016   -116825.18816
C30  24392846.88316     -4002.87716        37.80016   -307225.81016
C08  39063106.57426      -119.36326        35.90026     -7279.60026
C36  24240321.77415     -4240.58215        34.30015   -325430.74515
R16  22489358.44115     -5048.78715        34.40015   -386926.46315
C13  39029217.73515       261.90215        33.50015     20621.36815
R10  20368466.80415      1396.80815        29.70015    109723.70315
> 2025 05 03 08 17 56.9999999  0 17                      
G29  20923839.22816     -2773.56016        40.10016   -214582.92316
G25  22401909.58116     -4238.20216        40.00016   -329397.61416
G18  21557873.29526      1144.70726        38.60026     91378.66326
G05  23736004.60615       169.96915        33.60015     15340.56915
G31  21248649.06615     -1843.41715        33.00015   -141075.59115
G20  24381367.23115     -2224.95915        32.70015   -171384.23215
G26  21639249.25915      1159.84115        33.40015     92353.97915
G28  21737137.79315     -3441.23615        32.60015   -266051.37715
G04  24994681.74214     -1499.14014        26.90014    -38706.82914
R09  19137638.88816     -1985.05016        40.80016   -151927.56616
C29  21447441.44516     -1543.30316        40.50016   -118362.23416
C30  24393396.40316     -4006.22216        38.40016   -311222.99016
C08  39062908.11126      -121.09326        36.10026     -7394.66026
C36  24240917.46215     -4237.70515        34.50015   -329663.75115
C13  39028949.12115       264.15715        33.60015     20890.44915
R16  22490075.84415     -5044.67215        34.20015   -391927.34915
R10  20367981.14014      1396.95114        29.40014    111146.99614
> 2025 05 03 08 17 57.9999999  0 17                      
G29  20924125.82916     -2770.67416        40.10016   -217348.62516
G25  22402477.98716     -4240.52716        39.90016   -333631.69016
G18  21557418.21016      1143.96516        38.80016     92528.75216
G05  23735735.39215       163.68115        33.70015     15511.90415
G20  24381555.50015     -2226.74015        32.70015   -173604.75615
G31  21248758.19115     -1845.20415        33.00015   -142913.94215
G26  21638789.37815      1163.26115        33.20015     93522.20715
G28  21737547.30915     -3442.78515        32.60015   -269487.87515
G04  24994734.20614     -1495.24314        26.80014    -40197.18414
C30  24393927.33616     -4004.25116        40.00016   -315220.88016
C29  21447499.90526     -1542.85026        40.60026   -119899.28826
R09  19137774.69426     -1985.64326        40.70026   -153917.90126
C08  39062692.56126      -122.22126        36.30026     -7510.63326
C36  24241498.46015     -4244.05015        34.50015   -333898.30015
C13  39028658.32215       259.47115        33.80015     21156.98515
R16  22490785.75315     -5044.82015        34.00015   -396986.37815
R10  20367484.68414      1395.99914        29.40014    112529.06614
> 2025 05 03 08 17 58.9999999  0 17                      
G29  20924414.52916     -2770.94116        40.10016   -220113.91216
G25  22403049.39216     -4240.41316        39.90016   -337866.08416
G18  21556962.22616      1141.32216        38.80016     93676.90616
G05  23735458.08415       169.49815        33.80015     15685.92415
G20  24381744.66915     -2231.58715        32.80015   -175828.74815
G28  21737970.31615     -3442.45115        32.60015   -272924.43415
G31  21248871.21315     -1849.19415        32.90015   -144755.61315
G26  21638332.49415      1158.94415        33.10015     94688.15415
G04  24994774.97714     -1490.95214        26.60014    -41684.02914
C30  24394457.66816     -4002.69916        41.10016   -319217.84616
C29  21447557.76526     -1544.34226        40.70026   -121437.32926
R09  19137904.50426     -1985.51826        40.70026   -155878.43926
C08  39062477.01026      -120.64726        36.40026     -7625.84826
C13  39028371.42115       261.68815        34.10015     21424.16215
C36  24242074.36115     -4247.39715        34.40015   -338138.66915
R16  22491485.76815     -5046.46715        33.90015   -401991.13415
R10  20366975.93615      1398.13415        32.80015    113976.73015
> 2025 05 03 08 17 59.9999999  0 17                      
G29  20924723.61516     -2777.57216        40.10016   -222883.44516
G25  22403637.28516     -4244.40716        39.90016   -342103.21016
G18  21556525.72816      1141.54816        38.70016     94824.60316
G05  23735208.65715       165.88115        34.20015     15858.46315
G20  24381946.13015     -2229.01815        33.10015   -178052.14615
G28  21738402.91715     -3442.48515        32.80015   -276361.00015
G31  21248999.82415     -1843.19515        32.80015   -146594.35615
G26  21637890.00015      1164.14915        32.90015     95856.84915
G04  24994845.42914     -1495.61214        26.40014    -43172.77414
C30  24395010.18616     -4002.59416        41.20016   -323216.09416
C29  21447636.31016     -1542.78616        41.10016   -122974.62516
R09  19138057.99826     -1987.13626        40.70026   -157865.68126
C08  39062280.94616      -124.58616        36.40016     -7743.40116
C13  39028100.70815       256.89315        34.90015     21688.39315
C36  24242675.74515     -4245.69315        34.20015   -342378.69315
R16  22492230.45315     -5045.90815        33.70015   -407138.01615
R10  20366495.36915      1397.97015        32.70015    115372.56515
> 2025 05 03 08 18 00.9999998  0 17                      
G05  23734934.94626       165.23426        38.20026     16030.02826
G29  20925014.41416     -2772.86516        40.20016   -225651.30416
G25  22404210.78816     -4239.45016        39.80016   -346337.99116
G18  21556071.54216      1143.85316        38.70016     95973.63416
G20  24382130.20215     -2227.12115        33.40015   -180274.13115
G28  21738825.02515     -3446.96715        32.90015   -279800.60615
G31  21249114.34415     -1849.24915        32.70015   -148436.20715
G26  21637434.01615      1168.69315        32.80015     97029.44015
G04  24994897.59214     -1493.75314        26.20014    -44660.96214
C30  24395540.81916     -4003.37016        41.20016   -327213.26816
C29  21447692.67116     -1544.10816        41.10016   -124512.60116
R09  19138194.70426     -1988.42426        40.80026   -159862.12926
C08  39062066.89416      -119.17316        36.30016     -7858.17316
C13  39027809.01015       261.36015        35.00015     21954.57115
C36  24243244.45115     -4246.70615        34.00015   -346618.44915
R16  22492925.97115     -5050.85215        33.60015   -412119.84515
R10  20365995.01515      1394.57415        32.40015    116776.75415
> 2025 05 03 08 18 01.9999999  0 17                      
G29  20925299.81616     -2774.83916        40.50016   -228419.90916
G05  23734668.73126       165.13826        39.40026     16201.21826
G18  21555607.46316      1143.18616        38.60016     97122.67816
G25  22404786.98916     -4240.07216        39.20016   -350572.39216
G20  24382317.57315     -2230.06315        33.60015   -182497.59315
G28  21739250.13015     -3434.76215        32.90015   -283233.07515
G31  21249225.86715     -1851.96115        32.70015   -150280.89015
G26  21636977.13215      1157.50315        32.60015     98195.88215
G04  24994951.85514     -1493.95214        26.00014    -46149.08514
C29  21447751.43116     -1546.00416        41.20016   -126052.05716
C30  24396069.35316     -4003.35516        41.20016   -331210.44216
R09  19138325.41326     -1987.68826        40.90026   -161825.72226
C08  39061855.84016      -123.20516        36.30016     -7974.69316
C13  39027524.80715       262.09215        35.00015     22221.89915
C36  24243825.14915     -4243.53315        33.90015   -350857.79915
R16  22493642.47515     -5044.51915        33.40015   -417213.25915
R10  20365503.05615      1394.46215        32.20015    118135.18015
> 2025 05 03 08 18 02.9999998  0 17                      
G29  20925611.30116     -2773.71416        40.70016   -231187.97616
G18  21555175.46316      1140.11716        38.40016     98269.71716
G05  23734416.90516       162.97316        39.20016     16370.87516
G25  22405370.68516     -4242.30716        38.20016   -354808.12116
G20  24382524.43015     -2234.13415        33.80015   -184724.22615
G31  21249351.48015     -1848.57615        32.80015   -152124.22415
G28  21739683.33015     -3447.34015        32.90015   -286671.51415
G26  21636538.23615      1160.57715        32.40015     99362.36015
G04  24995024.40514     -1497.54714        25.80014    -47639.54514
C29  21447829.37717     -1544.76417        41.60017   -127591.14317
C30  24396618.27316     -4003.26516        41.20016   -335207.32616
R09  19138480.10626     -1990.30926        40.90026   -163819.84126
C08  39061657.37716      -120.17216        36.20016     -8089.73916
C13  39027251.09615       264.96215        34.90015     22491.55915
C36  24244413.34215     -4242.48015        33.70015   -355094.85615
R16  22494353.88315     -5049.32615        33.20015   -422183.58815
R10  20365015.89315      1396.49515        32.10015    119566.10015
> 2025 05 03 08 18 03.9999998  0 17                      
G31  21249464.80215     -1850.99715        35.10015   -153968.77115
G29  20925900.00116     -2773.37116        40.80016   -233955.68416
G18  21554724.57516      1138.88016        38.30016     99415.21416
G05  23734144.69416       165.80116        38.90016     16541.85816
G20  24382709.70115     -2230.99115        34.00015   -186949.86815
G25  22405940.59016     -4244.72916        37.20016   -359045.95516
G28  21740103.04015     -3444.35015        32.80015   -290109.99915
G26  21636084.95015      1161.07415        32.30015    100529.13215
G04  24995074.47014     -1509.66914        25.60014    -49138.91514
C29  21447888.13617     -1547.59317        41.70017   -129132.04017
C30  24397149.80516     -4000.88516        41.20016   -339205.02216
R09  19138611.11516     -1991.03216        40.80016   -165785.72616
C08  39061441.52726      -121.66726        36.50026     -8205.33726
C13  39026966.89315       259.41515        34.90015     22758.25115
C36  24244992.54115     -4245.44815        33.50015   -359331.61515
R16  22495044.30515     -5046.73315        33.10015   -427137.13115
R10  20364512.24215      1391.83015        32.10015    120986.30615
> 2025 05 03 08 18 04.9999999  0 17                      
G31  21249578.12326     -1850.69226        40.80026   -155813.50626
G29  20926193.79716     -2777.81816        40.80016   -236726.22516
G18  21554269.79016      1137.19316        38.10016    100559.08416
G05  23733873.98126       160.98126        38.50026     16710.08226
G20  24382894.97315     -2234.08215        34.20015   -189177.22915
G25  22406504.50016     -4244.18216        36.40016   -363284.11516
G28  21740518.55215     -3447.03415        32.80015   -293550.27615
G26  21635626.86715      1162.61115        32.10015    101697.04015
G04  24995118.83914     -1512.24514        25.40014    -50642.96114
C30  24397679.83817     -4006.98617        41.50017   -343203.36517
C29  21447948.39417     -1547.60617        41.70017   -130673.53717
C08  39061230.17316      -122.93216        36.50016     -8321.95216
R09  19138749.61916     -1988.54316        40.40016   -167790.57916
C13  39026677.59315       257.77515        34.70015     23022.87115
C36  24245569.34215     -4245.00515        33.30015   -363570.48215
R16  22495759.61015     -5050.28515        32.90015   -432224.43715
R10  20364016.98415      1396.52515        32.10015    122362.27415
> 2025 05 03 08 18 05.9999999  0 17                      
G31  21249711.53117     -1851.38117        41.70017   -157658.72817
G29  20926504.08316     -2777.31016        40.80016   -239497.33416
G18  21553832.99226      1139.56626        38.00026    101704.03026
G05  23733620.95616       161.88016        38.30016     16878.02316
G20  24383109.02515     -2231.74315        34.20015   -191403.56715
G25  22407088.79516     -4245.21316        35.90016   -367523.03316
G28  21740955.05015     -3450.38015        32.80015   -296993.34515
G26  21635188.57115      1160.03615        32.00015    102863.64515
G04  24995194.68714     -1508.30614        25.20014    -52145.90114
C30  24398228.75817     -4004.09117        41.50017   -347202.55717
C29  21448026.34027     -1548.06627        41.60027   -132215.50527
C08  39061034.40916      -126.23516        36.50016     -8441.07016
R09  19138893.82016     -1991.26016        39.30016   -169728.92116
C13  39026407.48015       260.18415        34.60015     23288.44415
R16  22496480.61115     -5047.75015        32.80015   -437244.43915
C36  24246166.22815     -4244.54115        33.20015   -367809.60115
R10  20363529.82215      1398.71515        32.10015    123793.19515
> 2025 05 03 08 18 06.9999999  0 17                      
G29  20926790.98416     -2776.11616        40.70016   -242267.88616
G31  21249826.65117     -1849.92117        41.50017   -159503.18717
G18  21553371.91116      1138.05116        37.90016    102848.27716
G05  23733357.13916       160.47316        38.10016     17044.88116
G20  24383293.99715     -2232.65115        34.30015   -193630.21815
G25  22407653.00515     -4245.14615        35.40015   -371762.20815
G28  21741371.46215     -3444.61015        32.80015   -300433.54615
G26  21634723.89215      1161.54615        32.00015    104030.77515
G04  24995252.54714     -1505.02714        25.00014    -53646.33714
C30  24398762.98817     -4008.58117        41.60017   -351202.33517
C29  21448083.60116     -1545.39816        41.40016   -133755.89916
C08  39060815.56016      -124.13116        36.40016     -8559.66916
R09  19139045.81416     -1990.62716        38.30016   -171807.12416
C13  39026122.67715       256.48115        34.50015     23551.81715
R16  22497197.41415     -5048.68815        33.20015   -442340.91515
C36  24246747.52615     -4251.51815        33.00015   -372051.98915
R10  20363022.27315      1386.16415        32.10015    125235.51815
> 2025 05 03 08 18 08.0000000  0 17                      
G29  20927112.06216     -2775.88016        40.60016   -245038.08216
G31  21249972.95016     -1852.17016        41.20016   -161348.87816
G18  21552956.09916      1138.82216        37.80016    103992.81616
G05  23733120.90216       158.67116        37.90016     17210.19016
G20  24383511.94615     -2236.38715        34.30015   -195859.45215
G25  22408257.68615     -4245.01315        35.00015   -376001.36915
G28  21741813.65615     -3442.08815        32.90015   -303871.09815
G26  21634293.39015      1158.31815        31.90015    105195.94015
G04  24995332.89114     -1505.82514        24.80014    -55146.45814
C30  24399322.40117     -4006.17617        41.50017   -355203.49717
C08  39060635.68516      -123.18716        36.30016     -8677.45416
R09  19139202.30616     -1995.14116        37.50016   -173747.79616
C13  39025868.75315       259.80715        34.40015     23816.68615
C29  21448175.63716     -1547.42316        40.90016   -135297.10616
R16  22497940.60015     -5049.34215        33.50015   -447415.98915
R10  20362564.49015      1392.25715        32.20015    126571.82615
C36  24247356.70415     -4246.47815        32.80015   -376294.72715
> 2025 05 03 08 18 08.9999999  0 17                      
G31  21250079.67616     -1851.97416        40.80016   -163194.81316
G18  21552485.12516      1137.17116        37.80016    105136.38916
G05  23732838.79816       160.33116        37.70016     17376.12616
G25  22408816.79915     -4244.32715        34.70015   -380240.03115
G20  24383686.42515     -2234.84515        34.20015   -198088.48215
G28  21742224.07115     -3449.55915        33.00015   -307312.71115
G26  21633828.41215      1164.63115        31.90015    106364.69515
G29  20927388.77016     -2775.22316        40.10016   -247807.68616
G04  24995378.46014     -1501.85314        24.70014    -56643.78914
C30  24399842.24116     -4005.21216        40.80016   -359204.04116
C08  39060405.44416      -126.62916        36.10016     -8797.22516
C29  21448223.30416     -1551.38116        39.50016   -136841.18716
R09  19139309.03216     -1998.16316        37.00016   -175647.17216
C13  39025570.46015       258.62315        34.30015     24081.30115
R16  22498632.82115     -5052.23915        33.50015   -452442.87715
R10  20362047.34815      1392.80115        32.60015    128001.98315
C36  24247918.81515     -4247.22415        32.50015   -380534.25415
> 2025 05 03 08 18 10.0000000  0 17                      
G18  21552060.91916      1137.02316        38.10016    106279.49316
G31  21250222.67716     -1856.26816        40.20016   -165043.74216
G05  23732601.96216       159.63316        37.60016     17541.75716
G25  22409424.17815     -4250.04915        34.50015   -384482.38915
G20  24383910.07015     -2238.59515        34.00015   -200319.99315
G28  21742666.26515     -3449.43015        33.00015   -310755.64115
G26  21633394.31315      1153.04615        31.80015    107526.87515
G29  20927712.84616     -2781.34316        38.50016   -250581.22116
G04  24995443.81414     -1503.79514        24.50014    -58141.53314
C30  24400406.15016     -4004.39416        40.00016   -363204.26916
C29  21448311.44316     -1550.01316        38.60016   -138385.36316
R09  19139500.59916     -1991.31016        36.60016   -177775.80016
C08  39060229.16616      -120.70316        35.90016     -8913.75616
C13  39025315.03715       258.04015        34.10015     24345.39315
R16  22499362.21615     -5051.62415        33.40015   -457446.09815
R10  20361590.76415      1393.05115        32.90015    129332.95215
C36  24248521.69815     -4244.12615        32.40015   -384772.97815
> 2025 05 03 08 18 11.0000000  0 17                      
G31  21250341.39516     -1854.41016        39.80016   -166892.41716
G18  21551605.23426      1136.62926        38.30026    107422.19026
G05  23732333.94716       156.56116        37.40016     17705.25016
G25  22409987.48815     -4244.00615        34.30015   -388721.94015
G29  20928003.94416     -2776.33516        37.10016   -253352.71516
G20  24384095.94215     -2235.13215        33.90015   -202550.01115
G28  21743088.97315     -3453.65815        33.20015   -314201.81615
G26  21632938.02915      1155.77115        31.80015    108688.69115
G04  24995504.97214     -1504.65314        24.40014    -59639.97514
C30  24400934.68416     -4009.26116        39.40016   -367203.81516
C29  21448370.20216     -1550.14016        38.10016   -139929.64316
R09  19139637.60516     -1996.78616        36.30016   -179773.01316
C08  39060011.51716      -125.98916        35.70016     -9032.71916
C13  39025024.83715       258.05815        34.00015     24609.33715
R16  22500075.72215     -5048.28615        33.40015   -462522.70615
R10  20361082.91615      1388.77015        33.00015    130775.27615
C36  24249096.40015     -4248.87915        32.40015   -389013.96115
> 2025 05 03 08 18 11.9999999  0 17                      
G18  21551139.05716      1136.05016        38.40016    108564.40116
G31  21250439.42716     -1854.88716        39.40016   -168741.28916
G25  22410542.40415     -4244.09015        34.20015   -392960.57315
G29  20928289.64716     -2784.10716        36.20016   -256128.67416
G20  24384270.42115     -2238.82015        33.80015   -204781.95215
G28  21743491.29415     -3448.58015        33.20015   -317645.65115
G26  21632465.25615      1156.98215        31.90015    109851.23115
G05  23732055.44016       159.42616        36.90016     17869.97716
G04  24995546.64314     -1505.56014        24.20014    -61139.21814
C30  24401454.52516     -4006.12416        39.00016   -371204.68016
R09  19139753.92416     -1997.28316        36.10016   -181722.81516
C29  21448422.66616     -1549.12516        37.50016   -141473.24416
C08  39059785.17316      -126.66316        35.60016     -9152.90616
C13  39024725.04515       254.56415        33.90015     24870.93615
R16  22500776.63615     -5052.57615        33.30015   -467595.44415
R10  20360568.17215      1390.13115        33.10015    132193.23115
C36  24249666.00615     -4248.15815        32.40015   -393255.56515
> 2025 05 03 08 18 13.0000000  0 17                      
G18  21550715.75016      1136.34216        38.80016    109706.59716
G31  21250587.52416     -1858.25216        39.20016   -170592.51916
G25  22411141.09015     -4247.26415        34.10015   -397201.06615
G20  24384483.57315     -2239.37515        33.80015   -207014.95415
G28  21743934.98715     -3448.94915        33.40015   -321089.00015
G29  20928602.63016     -2776.26316        35.60016   -258900.94016
G05  23731815.30616       156.00816        35.90016     18032.78816
G26  21632039.25115      1155.22315        32.00015    111012.79115
G04  24995632.98314     -1508.63214        24.00014    -62640.82414
C30  24402013.03816     -4009.66416        38.70016   -375206.06016
R09  19139909.21716     -1997.37716        36.00016   -183658.90416
C29  21448510.50516     -1549.98816        37.10016   -143017.24216
C08  39059604.09915      -120.53215        35.40015     -9269.46215
R16  22501521.62115     -5046.18715        33.30015   -472684.27815
C13  39024469.62215       260.47115        33.70015     25135.64515
R10  20360116.38515      1395.24715        33.10015    133495.97815
C36  24250279.98115     -4251.23615        32.40015   -397497.79315
> 2025 05 03 08 18 14.0000000  0 17                      
G18  21550258.86626      1134.63226        39.10026    110847.66026
G31  21250698.74716     -1857.22316        39.00016   -172443.83616
G29  20928891.93015     -2780.72715        35.30015   -261674.94015
G25  22411709.19715     -4243.79015        34.10015   -401439.85015
G20  24384664.64815     -2238.27715        34.00015   -209247.56515
G28  21744354.09715     -3455.15215        33.80015   -324536.31115
G05  23731547.59115       155.96415        35.10015     18194.94315
G26  21631576.67115      1153.39815        32.30015    112172.81915
G04  24995684.24814     -1508.12414        23.90014    -64142.86714
R09  19140048.62026     -1997.21226        41.30026   -185669.86826
C30  24402546.36916     -4006.74316        38.60016   -379206.61116
C29  21448568.06526     -1551.31826        36.80026   -144562.24826
C08  39059385.25015      -126.47815        35.20015     -9388.75915
R16  22502217.43915     -5053.70615        33.30015   -477666.87215
C13  39024168.93015       254.55915        33.60015     25397.46115
R10  20359613.33315      1388.48215        33.00015    134913.89615
C36  24250851.08515     -4246.09515        32.30015   -401743.02815
> 2025 05 03 08 18 15.0000000  0 17                      
G29  20929204.91316     -2782.00116        39.50016   -264450.32916
G18  21549825.96616      1135.21316        39.30016    111988.76916
G31  21250831.85516     -1855.51116        38.90016   -174294.00416
G25  22412297.68915     -4245.47215        34.70015   -405679.15015
G28  21744791.49415     -3449.54915        34.20015   -327981.17015
G20  24384873.90315     -2241.95315        34.10015   -211482.46015
G05  23731295.46615       156.49615        34.70015     18357.27115
G26  21631133.87815      1152.08115        32.60015    113331.49515
G04  24995763.99314     -1501.95514        23.70014    -65640.90714
R09  19140203.61326     -1999.25926        41.20026   -187664.75126
C30  24403099.78616     -4006.52016        38.50016   -383207.54416
C29  21448643.61316     -1551.70316        37.30016   -146107.81016
C08  39059187.68715      -127.39815        35.00015     -9509.54815
R16  22502942.93715     -5053.65215        33.30015   -482711.33515
C13  39023911.70815       257.57815        33.40015     25660.36115
R10  20359139.36115      1390.34715        32.90015    136275.40915
C36  24251445.57415     -4244.14315        32.30015   -405981.39515
> 2025 05 03 08 18 16.0000000  0 17                      
G25  22412870.29316     -4247.25216        37.50016   -409919.85616
G29  20929494.81216     -2782.01116        39.90016   -267226.23816
G18  21549371.18116      1134.03016        39.60016    113129.05616
G31  21250946.97616     -1856.93316        38.80016   -176144.78716
G26  21630674.89516      1153.69316        37.20016    114490.74616
G28  21745211.50315     -3449.73315        34.50015   -331425.38315
G20  24385062.77215     -2241.42815        34.10015   -213717.81515
G05  23731025.95315       152.78515        34.50015     18517.13415
G04  24995817.05614     -1504.10514        23.50014    -67139.09414
R09  19140339.41926     -2000.82926        41.20026   -189655.85026
C29  21448702.07316     -1553.30216        38.10016   -147654.67116
C30  24403635.21516     -4008.01916        38.30016   -387208.77916
C08  39058977.83215      -129.63915        34.80015     -9632.37515
R16  22503646.55015     -5057.55615        33.20015   -487735.20215
C13  39023620.61015       252.04215        33.30015     25919.88415
R10  20358636.30915      1382.63515        32.90015    137691.80115
C36  24252017.87715     -4247.76515        32.20015   -410224.81315
> 2025 05 03 08 18 17.0000000  0 17                      
G25  22413441.39717     -4247.17217        41.60017   -414160.96617
G18  21548916.69526      1133.45226        39.60026    114268.69626
G29  20929781.41416     -2779.08616        39.80016   -270000.35816
G26  21630216.21316      1154.76916        39.00016    115650.91816
G31  21251066.29316     -1860.74716        38.80016   -177998.30516
G28  21745632.41215     -3451.94915        34.50015   -334870.84715
G20  24385258.83715     -2237.80515        34.00015   -215950.89515
G05  23730759.13715       153.64115        34.30015     18676.75815
G04  24995862.92413     -1504.93413        23.30013    -68637.87213
R09  19140477.02326     -1999.96626        41.30026   -191656.11926
C29  21448764.13026     -1552.31826        39.00026   -149201.29826
C30  24404157.45316     -4008.56716        38.10016   -391211.59016
C08  39058766.77815      -126.16015        34.70015     -9753.55115
R16  22504352.26115     -5052.60015        33.20015   -492772.05615
C13  39023337.00615       260.71115        33.20015     26184.07215
R10  20358131.45915      1386.80815        32.80015    139120.39615
C36  24252596.17715     -4256.43015        32.20015   -414469.80415
> 2025 05 03 08 18 18.0000000  0 17                      
G25  22414028.99117     -4249.22417        41.50017   -418403.54217
G18  21548483.79526      1130.20926        39.60026    115405.99426
G29  20930088.10216     -2782.02116        39.70016   -272775.80116
G26  21629777.91616      1151.39716        39.10016    116809.18616
G31  21251198.80116     -1859.00716        38.70016   -179851.53716
G28  21746068.61015     -3447.36015        34.40015   -338313.63115
G05  23730513.30715       151.69915        34.20015     18835.04415
G20  24385466.89315     -2237.95015        33.90015   -218183.27715
G04  24995931.87613     -1508.07313        23.20013    -70138.90213
R09  19140638.31226     -2001.50526        41.30026   -193686.14826
C29  21448841.77616     -1553.29616        39.70016   -150748.46216
C30  24404708.17216     -4008.08316        37.90016   -395213.55616
R16  22505076.85915     -5053.79915        33.20015   -497811.93815
C13  39023066.29315       255.07815        33.10015     26446.09715
R10  20357652.99015      1388.68015        32.70015    140504.79115
C36  24253194.86315     -4251.76015        32.20015   -418719.69315
C08  39058575.81115      -127.77815        34.00015     -9875.21915
> 2025 05 03 08 18 19.0000000  0 17                      
G25  22414599.49616     -4246.61916        41.40016   -422644.91916
G18  21548033.80716      1132.62516        39.50016    116544.07416
G29  20930376.80216     -2783.33616        39.60016   -275552.61116
G26  21629319.83316      1156.28816        39.10016    117970.03216
G31  21251314.22116     -1863.84916        38.40016   -181707.95116
G28  21746493.71615     -3453.86915        34.40015   -341759.91015
G05  23730244.99315       153.49615        34.10015     18994.03315
G20  24385647.66715     -2245.20015        33.80015   -220420.30915
G04  24995974.44713     -1512.26713        23.10013    -71643.52713
R09  19140780.41316     -2003.17416        41.30016   -195710.86616
C29  21448900.83516     -1555.78316        40.00016   -152297.51116
C30  24405245.10016     -4003.81416        37.60016   -399214.19816
C13  39022770.09815       255.69515        33.20015     26707.76315
R16  22505785.26915     -5057.81915        33.10015   -502861.78715
R10  20357146.04115      1384.71015        32.60015    141943.30215
C36  24253779.75815     -4249.89115        32.00015   -422962.89415
C08  39058357.26215      -129.21615        32.60015     -9998.05815
> 2025 05 03 08 18 20.0000000  0 17                      
G25  22415169.10116     -4249.72216        41.30016   -426887.95216
G18  21547576.32316      1130.18716        39.50016    117680.80216
G29  20930669.69916     -2779.81016        39.50016   -278327.51316
G26  21628862.65016      1155.22716        39.00016    119131.04116
G31  21251429.94116     -1859.93716        37.90016   -183562.80616
G28  21746905.93015     -3454.55215        34.50015   -345207.79715
G05  23729974.88015       150.08715        34.10015     19150.99715
G20  24385844.63115     -2243.61515        33.70015   -222657.82215
G04  24996019.11613     -1514.06113        23.00013    -73150.53513
R09  19140907.82526     -2005.14826        41.30026   -197657.65026
C29  21448960.79316     -1556.65116        40.30016   -153847.75616
C13  39022485.89515       253.78615        34.40015     26968.04915
R10  20356663.97515      1384.22015        32.60015    143249.10015
R16  22506490.08115     -5055.34915        33.00015   -507892.52915
C36  24254349.06415     -4247.12315        31.90015   -427206.34015
C30  24405780.23016     -4009.89716        37.00016   -403215.81016
C08  39058143.51015      -130.89615        31.50015    -10122.39515
> 2025 05 03 08 18 21.0000000  0 17                      
G25  22415755.19626     -4249.29726        41.20026   -431131.21826
G29  20930982.98216     -2782.50416        39.40016   -281103.53916
G18  21547144.92216      1129.16916        39.40016    118816.43616
G26  21628427.65116      1151.59416        38.90016    120289.71916
G31  21251558.25216     -1860.50816        37.50016   -185417.48516
G05  23729725.15325       151.27225        34.70025     19308.11125
G28  21747342.72815     -3454.15615        34.60015   -348655.92015
G20  24386051.18815     -2245.73715        33.50015   -224896.87315
G04  24996100.95913     -1520.82013        22.80013    -74662.80613
R09  19141063.71726     -2005.76926        41.30026   -199657.88226
C29  21449042.33716     -1553.73116        40.60016   -155396.41616
C13  39022219.97916       253.23516        35.50016     27227.54416
C30  24406324.65316     -4010.41016        36.40016   -407219.83516
R10  20356181.90915      1385.89015        32.70015    144651.80015
R16  22507225.17215     -5054.26715        32.80015   -512988.20215
C36  24254947.14915     -4249.32715        31.80015   -431448.69515
C08  39057947.74515      -129.16015        31.00015    -10246.03815
> 2025 05 03 08 18 22.0000000  0 17                      
G25  22416326.30026     -4248.24526        41.20026   -435373.90926
G29  20931274.08016     -2783.91916        39.30016   -283880.93216
G18  21546690.73616      1131.42016        39.30016    119953.15816
G26  21627970.46816      1151.42116        38.80016    121447.45716
G31  21251676.37116     -1862.35616        37.60016   -187273.38616
G28  21747759.14015     -3456.46115        34.90015   -352105.70715
G05  23729455.93925       151.34125        34.90025     19465.27325
G20  24386239.15815     -2243.46015        33.30015   -227134.96815
G04  24996148.62613     -1523.55113        22.60013    -76178.70213
R09  19141200.12326     -2005.27726        41.40026   -201652.03726
C29  21449099.89716     -1553.88016        41.00016   -156944.69616
C13  39021935.17616       254.13716        36.10016     27487.32916
C30  24406857.08416     -4011.13416        36.20016   -411223.78116
R10  20355686.65115      1387.58415        32.80015    146029.29515
R16  22507939.57815     -5054.53315        32.70015   -518070.92115
C08  39057732.49415      -129.19515        30.90015    -10369.52115
C36  24255528.74715     -4250.63615        31.70015   -435693.79515
> 2025 05 03 08 18 23.0000000  0 17                      
G25  22416897.70516     -4250.35616        41.10016   -439617.80316
G29  20931563.68016     -2785.01716        39.30016   -286659.50116
G18  21546236.25116      1129.63016        39.20016    121089.06216
G26  21627508.78716      1151.40516        38.70016    122604.88216
G31  21251794.48926     -1864.32226        38.00026   -189130.99326
G05  23729190.92325       151.20125        35.10025     19622.37025
G28  21748177.05016     -3455.40316        35.60016   -355555.33016
G20  24386430.12615     -2244.84015        33.10015   -229373.65215
G04  24996213.98113     -1522.94813        22.40013    -77695.39113
R09  19141338.92726     -2006.09426        41.40026   -203659.94626
C29  21449160.45516     -1558.61716        41.20016   -158495.99516
C13  39021644.67826       255.06126        36.50026     27747.83826
C30  24407382.62116     -4008.76616        36.00016   -415227.08116
R10  20355199.78815      1382.72115        32.90015    147361.02415
C08  39057520.84115      -129.30615        31.90015    -10493.01315
R16  22508639.29315     -5055.36115        32.60015   -523074.90815
C36  24256105.24815     -4251.56415        31.90015   -439938.45215
> 2025 05 03 08 18 24.0000000  0 17                      
G05  23728937.89826       149.86526        39.10026     19778.59126
G25  22417492.49326     -4249.46326        41.00026   -443861.46726
G29  20931877.86216     -2783.47016        39.50016   -289437.39216
G26  21627075.88716      1154.15216        38.70016    123764.07116
G18  21545802.15216      1127.59116        39.00016    122223.37016
G28  21748617.44526     -3456.59626        37.30026   -359005.65826
G31  21251931.19426     -1863.68226        38.00026   -190988.70626
G20  24386633.98515     -2247.20815        33.00015   -231614.07415
G04  24996274.53913     -1528.39413        22.30013    -79215.93813
C30  24407935.43817     -4009.15817        42.50017   -419230.49317
C08  39057325.97616      -129.45016        41.30016    -10616.56816
R09  19141498.11726     -2006.97826        41.40026   -205677.75026
C29  21449245.29616     -1555.97616        41.20016   -160046.50216
C13  39021377.86226       252.61726        36.70026     28006.99526
R10  20354709.62815      1383.24915        32.90015    148806.43615
R16  22509367.18915     -5054.47515        32.60015   -528131.60515
C36  24256702.43415     -4252.14515        32.40015   -444181.91615
> 2025 05 03 08 18 25.0000000  0 17                      
G05  23728674.08116       147.92716        40.20016     19933.17916
G29  20932167.76216     -2785.75216        39.60016   -292216.62916
G26  21626618.70316      1150.14716        38.60016    124921.12916
G18  21545347.36616      1128.99216        38.80016    123358.03116
G31  21252043.31726     -1863.90226        37.90026   -192846.64926
G28  21749031.45926     -3456.34426        37.40026   -362456.10226
G25  22418060.60016     -4251.56216        39.70016   -448106.50116
G20  24386824.05325     -2247.64825        33.30025   -233855.41925
G04  24996324.60513     -1522.55013        22.10013    -80733.92513
C30  24408470.26817     -4012.46617        46.10017   -423234.60117
R09  19141629.72526     -2008.54626        41.40026   -207646.69226
C08  39057110.42526      -130.70526        41.40026    -10741.02926
C29  21449304.35616     -1557.68716        41.10016   -161597.93616
C13  39021090.66116       253.14916        37.00016     28266.00816
R10  20354211.67215      1381.50215        32.90015    150196.89715
R16  22510079.49615     -5056.90915        32.60015   -533204.38615
C36  24257273.23915     -4252.75615        32.40015   -448425.93715
> 2025 05 03 08 18 26.0000001  0 17                      
G20  24387039.60426     -2247.69526        37.10026   -236097.08926
G05  23728441.44216       148.11916        40.20016     20087.36416
G29  20932491.23816     -2784.92116        39.80016   -294995.74816
G26  21626192.69816      1148.48216        38.60016    126076.38016
G18  21544927.05716      1128.20916        38.70016    124492.30016
G28  21749487.74316     -3457.68116        37.70016   -365907.46316
G31  21252196.21116     -1865.52216        37.80016   -194705.73616
G25  22418661.98316     -4253.89516        38.00016   -452353.53616
G04  24996408.84613     -1515.32413        22.00013    -82246.22913
C30  24409030.58017     -4008.56317        46.00017   -427238.23717
C29  21449393.09416     -1556.68216        41.10016   -163148.99516
R09  19141803.00626     -2008.20726        41.30026   -209678.28726
C08  39056928.15126      -129.49326        41.30026    -10864.97126
C13  39020832.84016       253.74916        37.20016     28525.38516
R10  20353745.49515      1381.09815        33.30015    151578.20315
C36  24257884.51615     -4251.41615        32.50015   -452669.85415
R16  22510816.08615     -5052.99015        32.60015   -538244.29815
> 2025 05 03 08 18 27.0000000  0 17                      
G05  23728161.43616       151.08916        40.20016     20243.43016
G29  20932773.94226     -2784.57626        40.10026   -297774.56126
G20  24387218.88026     -2246.61926        39.80026   -238338.11426
G26  21625723.52316      1147.44416        38.80016    127230.37216
G18  21544459.08116      1126.76616        38.60016    125625.51416
G31  21252299.93916     -1869.95616        37.70016   -196568.12516
G28  21749893.06216     -3458.12416        37.70016   -369359.38916
G25  22419224.69416     -4249.60516        36.50016   -456598.34216
G04  24996436.42713     -1519.75613        21.90013    -83759.55613
C30  24409552.51817     -4011.00617        45.80017   -431241.15617
C29  21449441.66116     -1555.17516        41.10016   -164698.89016
C08  39056703.30716      -128.52116        41.00016    -10988.05616
C13  39020536.34516       255.23516        37.20016     28785.91016
R09  19141937.31316     -2010.34616        41.20016   -211722.83316
R10  20353228.35325      1380.11125        33.80025    153009.88725
R16  22511501.11215     -5056.95415        32.60015   -543232.96915
C36  24258451.42415     -4252.46115        32.70015   -456915.95615
> 2025 05 03 08 18 28.0000001  0 17                      
G29  20933096.81926     -2785.32026        40.40026   -300553.81726
G05  23727925.79926       147.90026        40.40026     20397.94826
G20  24387438.62826     -2249.05026        39.80026   -240580.59426
G26  21625293.92116      1150.66816        38.90016    128386.04516
G31  21252447.13726     -1865.71626        37.80026   -198428.83626
G18  21544037.57316      1126.12716        38.50016    126757.90016
G28  21750345.14916     -3459.13116        37.50016   -372812.22316
G25  22419823.67915     -4250.22615        35.20015   -460842.86615
G04  24996516.77213     -1516.68213        21.80013    -85271.22313
C30  24410113.13017     -4009.15217        45.50017   -435244.89917
C29  21449535.79516     -1560.75916        41.10016   -166252.16716
C08  39056521.33316      -131.58516        40.60016    -11112.94716
C13  39020279.42326       252.39126        37.50026     29044.87326
R10  20352766.67325      1383.47225        34.00025    154366.78725
R09  19142097.10216     -2012.95016        39.90016   -213681.84216
C36  24259059.10315     -4249.30015        33.00015   -461161.13115
R16  22512242.19915     -5061.42615        32.70015   -548297.34615
> 2025 05 03 08 18 28.9999998  0 17                      
G05  23727569.34626       147.99726        40.40026     20552.02826
G29  20933297.68016     -2786.74416        40.40016   -303334.15716
G20  24387536.95926     -2249.56226        40.20026   -242823.88826
G26  21624747.99816      1148.71316        38.90016    129540.98816
G31  21252475.31716     -1867.77516        38.10016   -200290.34916
G18  21543494.34916      1128.61816        38.30016    127891.68416
G28  21750670.42416     -3459.24716        37.20016   -376265.42616
G25  22420302.44815     -4249.77515        34.10015   -465086.98415
G04  24996483.49513     -1516.40813        21.70013    -86782.14313
C30  24410554.42517     -4012.22017        45.30017   -439248.93417
C29  21449506.11616     -1558.82716        40.90016   -167805.27116
C08  39056218.84216      -130.36916        40.30016    -11237.61616
C13  39019902.88326       255.11426        37.40026     29305.14426
R09  19142147.46716     -2008.48816        38.60016   -215697.39116
R10  20352169.18615      1380.54815        34.00015    155807.58615
C36  24259548.66415     -4250.36615        33.30015   -465404.97415
R16  22512863.96915     -5058.33715        32.70015   -553365.53515
> 2025 05 03 08 18 29.9999999  0 17                      
G05  23727329.51216       149.28516        40.30016     20706.82016
G20  24387756.40826     -2249.39626        40.20026   -245067.34226
G29  20933620.55616     -2786.67716        40.30016   -306114.81416
G26  21624322.89316      1146.47016        38.90016    130694.19216
G31  21252621.61616     -1868.93716        38.10016   -202152.90316
G18  21543071.64216      1124.53516        38.20016    129023.21116
G28  21751122.51116     -3459.27616        36.50016   -379718.77016
G25  22420903.53115     -4248.25615        33.30015   -469329.95415
G04  24996565.63813     -1522.90713        21.60013    -88297.14613
C30  24411116.53617     -4009.63417        45.10017   -443252.36917
C29  21449598.15216     -1558.18016        40.70016   -169357.88716
C08  39056036.26916      -129.24816        40.00016    -11361.46516
C13  39019648.36016       253.62616        37.30016     29564.85816
C36  24260155.14415     -4250.36415        34.40015   -469648.00915
R10  20351704.80815      1381.03515        33.90015    157180.50315
R09  19142312.95216     -2009.86916        37.50016   -217687.72616
R16  22513600.55915     -5052.56115        32.80015   -558406.21315
> 2025 05 03 08 18 31.0000001  0 17                      
G20  24388026.22126     -2250.36026        40.10026   -247311.45526
G29  20933993.19816     -2785.03016        40.30016   -308894.44216
G05  23727143.94016       144.86616        40.20016     20858.94116
G26  21623947.25316      1145.37816        38.90016    131846.12516
G31  21252821.87816     -1870.47216        38.10016   -204016.79116
G18  21542701.99816      1124.05516        38.00016    130153.70316
G28  21751618.06816     -3459.86516        35.70016   -383172.51816
G25  22421554.08115     -4254.33215        32.60015   -473576.55515
G04  24996692.75013     -1520.27213        21.50013    -89811.71713
C30  24411727.51317     -4009.20517        44.90017   -447256.32417
C08  39055903.16116      -132.49616        39.60016    -11487.16916
C13  39019439.70416       251.99416        37.20016     29823.33516
C36  24260806.59315     -4250.04115        34.80015   -473892.42415
R09  19142539.29616     -2011.18716        36.70016   -219742.96916
R10  20351293.49315      1373.88315        33.80015    158525.23715
R16  22514389.61215     -5056.24815        33.20015   -563469.78515
C29  21449746.54916     -1558.84316        39.70016   -170910.74516
> 2025 05 03 08 18 31.9999998  0 17                      
G05  23726797.98016       145.09816        40.10016     21010.27616
G29  20934192.56016     -2787.16916        40.10016   -311675.20316
G20  24388123.65316     -2247.82316        40.00016   -249554.14716
G26  21623406.12716      1148.77116        38.80016    132999.84716
G31  21252844.36216     -1870.36316        38.00016   -205881.10116
G18  21542156.67526      1126.29126        37.90026    131285.29226
G28  21751949.63915     -3463.07015        35.20015   -386628.58615
G25  22422038.24615     -4250.63015        32.10015   -477821.94815
G04  24996646.28213     -1517.81313        21.40013    -91324.55313
C30  24412167.00817     -4007.37317        44.60017   -451259.90817
R16  22515000.29026     -5055.27926        37.60026   -568479.12626
C08  39055595.27416      -130.25116        39.20016    -11612.04316
C13  39019062.26516       254.48816        37.00016     30083.01416
C36  24261298.25315     -4251.42115        35.40015   -478137.07815
R09  19142577.36916     -2012.25216        36.10016   -221693.57416
C29  21449709.67516     -1559.05116        38.30016   -172463.87216
R10  20350702.00215      1378.82015        33.70015    159935.52715
> 2025 05 03 08 18 32.9999999  0 17                      
G29  20934518.73416     -2786.39016        40.00016   -314455.80816
G05  23726556.64716       144.11816        40.00016     21160.70916
G26  21622975.02616      1149.50616        38.70016    134154.66816
G31  21252989.16216     -1870.84116        38.00016   -207745.85716
G18  21541729.17116      1125.26616        37.70016    132416.57516
G20  24388347.59816     -2252.80616        39.50016   -251799.67316
G28  21752418.81415     -3466.27515        34.70015   -390087.55115
G25  22422642.32815     -4250.05315        31.70015   -482066.54015
G04  24996724.82713     -1518.56613        21.40013    -92837.30113
C30  24412730.01917     -4009.95317        44.30017   -455263.60517
R16  22515745.27416     -5059.50716        37.60016   -573564.90516
C08  39055414.79916      -126.67416        38.90016    -11734.24416
R09  19142746.45216     -2016.00316        35.90016   -223701.48316
C36  24261906.23215     -4251.65415        35.40015   -482384.25915
C29  21449801.11216     -1562.63816        37.30016   -174019.46716
R10  20350244.21915      1378.23715        33.60015    161271.83415
C13  39018804.44416       250.89016        36.40016     30340.70716
> 2025 05 03 08 18 33.9999998  0 17                      
G29  20934796.64216     -2784.67316        39.90016   -317235.18116
G05  23726276.64016       144.27816        39.80016     21310.98516
G31  21253098.88616     -1872.51616        38.00016   -209611.84116
G18  21541271.38816      1124.59316        37.60016    133547.34416
G26  21622509.74816      1145.16416        37.60016    135306.99716
G28  21752828.03115     -3458.19215        34.20015   -393542.05715
G20  24388522.37716     -2255.55316        38.20016   -254047.93916
G25  22423195.44515     -4254.16315        31.40015   -486313.57015
G04  24996747.31213     -1521.54813        21.30013    -94351.97113
C30  24413254.65517     -4010.08417        43.90017   -459268.83617
R16  22516439.29316     -5060.05716        37.70016   -578601.72316
C36  24262475.53816     -4250.47816        35.50016   -486630.77816
R09  19142879.56026     -2012.66026        35.80026   -225740.68026
C29  21449849.67816     -1559.47616        36.60016   -175573.74016
C13  39018507.64916       252.12516        35.60016     30598.59816
C08  39055194.75116      -134.26916        37.80016    -11860.58016
R10  20349733.97215      1386.67415        33.20015    162666.14515
> 2025 05 03 08 18 34.9999999  0 17                      
G29  20935125.21416     -2787.77516        39.80016   -320016.26116
G31  21253249.38216     -1871.98816        38.10016   -211477.93316
G05  23726038.30516       144.80516        39.40016     21461.51016
G18  21540850.48016      1124.17016        37.50016    134677.61016
G26  21622078.04716      1146.53516        36.70016    136459.36016
G20  24388748.72116     -2253.35016        36.90016   -256295.69916
G28  21753284.91415     -3460.89615        33.70015   -396996.92915
G25  22423791.13215     -4250.78515        31.20015   -490559.20815
G04  24996824.35913     -1522.61413        21.30013    -95868.04213
C30  24413814.06817     -4010.58717        43.50017   -463273.11217
R16  22517184.27816     -5056.12116        37.70016   -583687.49616
C36  24263079.91916     -4252.36216        35.80016   -490875.02416
R09  19143039.64916     -2014.99216        35.80016   -227701.98216
C29  21449942.61416     -1563.13516        36.20016   -177130.06116
C08  39055007.68116      -134.68916        36.80016    -11988.62416
C13  39018252.52615       249.26715        35.00015     30854.60115
R10  20349264.19815      1377.50715        32.70015    164066.52015
> 2025 05 03 08 18 35.9999999  0 17                      
G31  21253370.79816     -1876.74016        38.20016   -213347.21516
G18  21540406.18716      1116.85716        37.40016    135802.84716
G05  23725777.18616       145.30116        38.80016     21612.46116
G20  24388932.79316     -2251.10016        36.20016   -258541.77816
G26  21621620.26416      1144.46216        36.20016    137610.36616
G29  20935414.81416     -2788.02416        38.60016   -322798.06316
G28  21753700.42715     -3466.27615        33.40015   -400455.49615
G25  22424367.63315     -4251.87715        31.20015   -494805.09915
G04  24996866.33013     -1522.45113        21.30013    -97384.45813
C30  24414346.79917     -4010.11917        43.20017   -467277.12617
R16  22517889.68916     -5056.05316        37.60016   -588721.29916
R09  19143181.15116     -2020.10916        35.80016   -229722.88016
C29  21450003.77116     -1559.78516        35.90016   -178684.81916
C36  24263662.11616     -4250.86816        35.80016   -495120.70216
C08  39054793.62916      -129.56916        36.20016    -12113.81216
C13  39017968.92215       251.52215        34.30015     31111.49015
R10  20348774.33715      1378.91215        32.30015    165414.26715
> 2025 05 03 08 18 36.9999999  0 17                      
G20  24389142.04816     -2253.87716        38.50016   -260789.11216
G31  21253508.70216     -1872.44016        38.20016   -215214.65916
G05  23725527.45916       145.19216        38.20016     21763.51816
G26  21621184.96516      1148.96716        35.80016    138763.95816
G29  20935723.90016     -2783.40516        37.30016   -325576.98916
G28  21754138.72315     -3460.21215        33.00015   -403911.21615
G25  22424958.22415     -4255.75515        31.50015   -499053.62315
G18  21539974.18616      1126.01216        36.40016    136834.53716
G04  24996939.77913     -1523.99213        21.30013    -98901.97913
C30  24414895.12017     -4011.08217        42.80017   -471282.22717
R16  22518622.98216     -5063.34716        37.40016   -593807.03716
R09  19143339.44216     -2014.34016        36.10016   -231736.10016
C29  21450082.01716     -1560.75916        35.80016   -180239.66816
C36  24264254.20616     -4252.89316        35.70016   -499367.88416
C08  39054604.76016      -132.01616        35.70016    -12239.64216
C13  39017699.70915       254.17015        33.80015     31370.47615
R10  20348287.17415      1380.26415        32.00015    166844.42515
> 2025 05 03 08 18 37.9999999  0 17                      
G20  24389334.81526     -2256.16426        39.00026   -263038.43726
G31  21253624.42216     -1873.88116        38.20016   -217082.49816
G05  23725261.54316       139.63016        37.70016     21910.85416
G26  21620728.98115      1145.61615        35.40015    139916.13015
G29  20936015.89816     -2792.05316        36.20016   -328360.77116
G25  22425524.83215     -4255.37715        31.70015   -503302.82115
G28  21754563.52915     -3465.51815        32.70015   -407369.57315
G18  21539528.69515      1124.02315        35.20015    137964.42415
G04  24997005.13313     -1528.07313        21.30013   -100422.63913
C30  24415426.35217     -4012.70017        42.50017   -475289.10117
C29  21450146.47316     -1565.52916        36.30016   -181797.77716
R09  19143486.04016     -2017.33716        36.50016   -233786.03116
R16  22519326.29516     -5057.99916        37.20016   -598830.89716
C36  24264833.70516     -4250.06916        35.70016   -503612.73516
C08  39054394.90515      -127.04815        35.10015    -12362.42315
C13  39017409.21015       251.83215        33.20015     31628.55415
R10  20347803.00915      1381.29215        31.80015    168160.90215
> 2025 05 03 08 18 38.9999999  0 17                      
G20  24389528.18116     -2254.09816        39.00016   -265287.03616
G31  21253747.93616     -1875.46816        38.10016   -218951.51516
G05  23724995.02816       143.03016        37.30016     22059.22816
G26  21620275.09515      1144.06715        35.20015    141066.80915
G29  20936309.09516     -2784.64216        35.50016   -331141.22016
G25  22426105.23015     -4252.70715        31.90015   -507550.45215
G28  21754983.23815     -3468.52515        32.50015   -410830.80215
G18  21539064.91615      1117.78415        34.30015    139090.15215
G04  24997062.09413     -1523.54613        21.20013   -101941.31513
C29  21450210.32816     -1560.46416        36.60016   -183353.58316
R09  19143616.15016     -2018.63716        36.60016   -235745.80516
R16  22520025.41116     -5057.70516        37.10016   -603831.83316
C36  24265416.20216     -4255.01716        35.70016   -507860.95816
C30  24415960.88216     -4012.75616        40.70016   -479298.05216
C13  39017121.70915       253.29415        32.80015     31887.31615
R10  20347316.44615      1378.71515        31.50015    169491.87015
C08  39054178.75515      -135.30515        34.10015    -12489.68015
> 2025 05 03 08 18 39.9999999  0 17                      
G20  24389738.93516     -2253.49716        38.90016   -267534.95616
G31  21253875.94816     -1878.00216        38.00016   -220822.57816
G05  23724752.49616       143.94616        37.00016     22208.59616
G26  21619841.89515      1149.26915        35.10015    142220.49315
G29  20936615.78215     -2789.58015        34.90015   -333923.81215
G25  22426685.32915     -4253.26515        32.20015   -511797.89515
G18  21538623.02215      1120.47315        33.70015    140216.32315
G28  21755423.93315     -3467.12515        32.30015   -414292.01715
G04  24997132.84513     -1523.84313        21.20013   -103459.49113
C29  21450293.67116     -1565.43316        36.80016   -184911.89816
R09  19143778.03816     -2018.65516        36.60016   -237778.88916
R16  22520762.00126     -5059.03026        36.90026   -608934.38426
C36  24266011.59016     -4254.13516        35.60016   -512108.62716
C30  24416514.89816     -4007.52216        39.20016   -483300.28016
C13  39016855.49315       251.71915        32.50015     32145.29215
R10  20346823.88715      1375.19315        31.30015    170950.24815
C08  39053981.49115      -134.71715        33.20015    -12618.00115
> 2025 05 03 08 18 40.9999999  0 17                      
G25  22427254.03515     -4255.00615        33.60015   -516046.48615
G20  24389929.00416     -2256.57216        38.80016   -269784.74916
G31  21254002.46016     -1873.80116        37.90016   -222691.57016
G05  23724486.28016       138.42216        36.70016     22354.56316
G26  21619377.81615      1145.78515        35.00015    143372.80915
G29  20936911.67815     -2791.15415        34.60015   -336708.21715
G18  21538171.53415      1121.57815        33.30015    141343.32915
G28  21755834.34915     -3462.93815        32.10015   -417750.48615
G04  24997180.51213     -1531.18113        21.10013   -104982.44113
C29  21450351.23126     -1562.45726        37.00026   -186469.11426
R09  19143914.14416     -2019.12316        36.60016   -239771.51816
R16  22521471.61016     -5067.50416        36.80016   -613991.11916
C30  24417045.83116     -4013.35716        38.20016   -487305.42916
C36  24266589.59015     -4258.81715        35.40015   -516357.82415
C08  39053768.63915      -132.26015        32.70015    -12745.08715
C13  39016569.79115       250.92115        32.30015     32402.42715
R10  20346326.23115      1374.95115        31.20015    172339.94415
> 2025 05 03 08 18 41.9999999  0 17                      
G20  24390123.86916     -2258.69416        38.60016   -272036.56816
G25  22427826.63926     -4256.20026        39.20026   -520296.24326
G31  21254118.78016     -1875.87116        37.80016   -224561.24116
G05  23724224.26116       138.97416        36.40016     22499.77716
G26  21618931.42515      1144.09115        34.90015    144523.55115
G29  20937203.97515     -2790.10215        34.40015   -339492.51215
G18  21537721.24615      1118.55515        33.10015    142468.61115
G28  21756256.75715     -3465.44415        32.00015   -421209.69815
G04  24997235.37413     -1531.05013        21.10013   -106506.88213
C29  21450413.28816     -1566.81316        37.10016   -188028.85516
R09  19144061.64216     -2020.78616        36.50016   -241825.26916
R16  22522168.02816     -5060.85416        36.70016   -618978.29116
C30  24417576.76316     -4012.52816        37.50016   -491312.29616
C36  24267169.98815     -4255.10315        35.30015   -520606.63815
C13  39016280.79115       248.74315        32.20015     32657.84015
C08  39053556.38615      -136.11215        32.50015    -12874.31815
R10  20345845.96415      1374.88515        31.10015    173636.59015
> 2025 05 03 08 18 42.9999999  0 17                      
G20  24390328.92716     -2260.11816        38.50016   -274289.97516
G31  21254260.28216     -1877.88716        37.70016   -226432.44516
G25  22428419.02916     -4256.96816        38.90016   -524546.86416
G05  23723976.03316       136.79016        36.20016     22643.32016
G26  21618491.63015      1148.66415        34.90015    145676.85415
G29  20937512.46215     -2791.03715        34.30015   -342277.35715
G18  21537291.94315      1120.07415        33.10015    143594.36715
G28  21756697.15215     -3469.15415        31.80015   -424671.59515
G04  24997303.72713     -1529.09313        21.10013   -108030.48013
C29  21450492.13316     -1564.16516        37.10016   -189587.63716
C30  24418125.68316     -4013.31716        37.20016   -495319.95116
R09  19144220.83216     -2021.48816        36.50016   -243843.07416
R16  22522904.91716     -5063.43416        36.50016   -624083.14016
C36  24267763.57715     -4251.62715        35.10015   -524853.86115
C13  39016012.77615       249.43715        32.10015     32913.17915
C08  39053365.71715      -135.90015        32.30015    -13004.08515
R10  20345353.40515      1375.21015        31.00015    175095.73115
> 2025 05 03 08 18 43.9999999  0 17                      
G20  24390522.59316     -2257.43316        38.30016   -276542.17116
G18  21536841.95516      1117.99216        36.30016    144718.84416
G31  21254380.79816     -1879.09816        37.60016   -228305.01616
G25  22428989.23416     -4255.21216        38.50016   -528796.65216
G05  23723715.81316       134.32116        36.10016     22784.61216
G26  21618030.54915      1144.67215        35.00015    146828.30015
G29  20937805.05915     -2788.95115        34.10015   -345061.04515
G28  21757112.66415     -3467.73515        31.70015   -428133.48915
G04  24997365.18413     -1529.99413        21.10013   -109554.44713
C29  21450554.49016     -1561.75916        37.10016   -191144.54316
C30  24418662.31216     -4012.41616        37.10016   -499326.72416
R09  19144362.03416     -2021.58016        36.40016   -245863.97116
R16  22523619.92216     -5062.64216        36.30016   -629169.67716
C36  24268342.47615     -4256.41115        35.00015   -529101.75615
C13  39015727.37415       251.32415        32.20015     33169.70315
C08  39053153.76415      -133.75215        32.10015    -13132.64815
R10  20344856.34915      1373.72315        31.00015    176482.37715
> 2025 05 03 08 18 44.9999999  0 16                      
G18  21536388.96816      1116.30816        38.00016    145841.78516
G20  24390709.36316     -2258.01616        38.20016   -278794.33916
G25  22429560.93816     -4256.39716        38.10016   -533046.93916
G05  23723449.59816       138.83416        35.90016     22928.17416
G26  21617576.96315      1143.75315        35.00015    147978.52715
G29  20938100.95415     -2793.19015        34.00015   -347847.15915
G28  21757533.57315     -3470.63015        31.60015   -431597.30015
G31  21254505.81216     -1881.17516        36.90016   -230179.41516
G04  24997414.95013     -1530.97913        21.10013   -111079.18013
C29  21450618.04616     -1566.80816        37.20016   -192704.17816
R09  19144497.84016     -2022.49416        36.50016   -247855.07116
C30  24419198.94016     -4010.96016        37.00016   -503330.70416
R16  22524315.74116     -5060.66616        36.10016   -634152.26416
C13  39015441.37215       247.38915        32.30015     33424.01015
C08  39052939.71215      -133.64115        31.90015    -13260.72315
R10  20344371.28515      1370.37115        30.90015    177804.19215
> 2025 05 03 08 18 45.9999999  0 17                      
G18  21535957.86726      1116.49726        38.80026    146964.37626
G25  22430147.63216     -4254.32416        37.80016   -537295.97416
G05  23723204.36716       137.95016        35.90016     23071.94116
G26  21617140.46515      1144.43615        35.20015    149128.84015
G20  24390915.62016     -2262.14316        37.90016   -281049.21216
G29  20938410.64015     -2791.16715        33.90015   -350632.69815
G28  21757971.87015     -3468.98215        31.50015   -435060.61415
G31  21254643.41716     -1881.34816        35.80016   -232054.50216
G04  24997478.50613     -1534.38413        21.00013   -112606.40313
C29  21450696.59216     -1567.51916        37.20016   -194265.16016
R09  19144655.23116     -2023.36616        36.60016   -249863.70616
C30  24419743.36316     -4011.74216        36.90016   -507337.13716
C13  39015168.26115       250.35215        32.30015     33679.59015
C08  39052743.64815      -130.03915        31.70015    -13386.19715
R10  20343884.12215      1372.74215        30.80015    179234.35015
C36  24269517.66315     -4255.13715        32.80015   -537614.81815
R16  22525042.73715     -5059.12915        34.80015   -639204.37415
> 2025 05 03 08 18 46.9999999  0 17                      
G18  21535503.68116      1117.88416        39.30016    148087.72616
G25  22430718.43716     -4256.39816        37.60016   -541546.02316
G05  23722940.25016       136.63116        35.80016     23214.84716
G26  21616686.87915      1145.93515        35.20015    150280.13115
G29  20938701.73815     -2792.99815        34.10015   -353419.31515
G20  24391107.48816     -2257.77816        37.10016   -283302.12616
G31  21254760.33615     -1879.82715        34.90015   -233928.85415
G28  21758388.88115     -3466.76315        31.40015   -438522.33215
G04  24997536.06613     -1528.20313        20.90013   -114130.38313
R09  19144798.53226     -2024.22226        39.70026   -251893.77326
C29  21450760.44816     -1567.30016        37.50016   -195826.49416
C30  24420280.59216     -4013.60516        36.60016   -511343.87116
C13  39014887.35615       245.48015        32.20015     33932.29815
C08  39052540.38915      -130.22515        31.40015    -13510.97815
R10  20343416.74615      1375.67015        30.80015    180462.35215
R16  22525763.43815     -5066.51815        33.30015   -644319.95615
C36  24270098.36115     -4258.24215        31.90015   -541865.04515
> 2025 05 03 08 18 48.0000000  0 17                      
G29  20939025.81416     -2794.26816        41.40016   -356207.12516
G18  21535084.57116      1117.37516        39.90016    149211.00316
G28  21758844.86516     -3467.02716        35.50016   -441983.68316
G25  22431323.11816     -4258.40716        37.60016   -545797.73816
G05  23722700.71616       135.17016        36.00016     23356.50516
G26  21616262.97315      1141.90715        35.10015    151429.07615
G20  24391323.93816     -2258.76616        36.20016   -285555.03416
G31  21254902.43715     -1877.68215        34.30015   -235801.51815
G04  24997626.30313     -1525.97513        20.80013   -115651.78513
R09  19144975.11027     -2025.83927        43.10027   -253943.70527
C29  21450853.38316     -1564.98216        38.40016   -197386.38716
C30  24420839.10516     -4011.93516        36.40016   -515351.00016
C13  39014625.93615       250.50415        33.00015     34187.41015
C08  39052347.62215      -138.81715        31.30015    -13641.24315
R10  20342934.97915      1369.43415        30.70015    181926.03215
R16  22526503.32615     -5059.52015        32.50015   -649378.97915
C36  24270711.73615     -4257.79815        31.20015   -546114.16815
> 2025 05 03 08 18 48.9999999  0 17                      
G29  20939309.71817     -2789.50417        42.30017   -358992.12017
G05  23722422.50926       137.52926        40.30026     23499.35626
G18  21534619.29316      1116.88916        40.00016    150333.96716
G28  21759250.78416     -3469.13616        38.80016   -445446.28016
G25  22431879.23316     -4251.16216        37.80016   -550045.14116
G26  21615793.79715      1146.26915        35.00015    152580.18315
G31  21255007.66415     -1881.27815        34.00015   -237675.98015
G20  24391516.10515     -2257.24915        35.40015   -287806.89115
G04  24997673.37113     -1527.51113        20.70013   -117173.31513
R09  19145100.72327     -2025.32527        43.00027   -255941.64327
C29  21450904.64816     -1565.84016        38.80016   -198946.33616
C30  24421354.44816     -4013.47316        36.30016   -519357.42916
C13  39014329.74225       250.50725        34.40025     34443.36225
C08  39052124.57715      -133.89015        32.80015    -13770.01515
R16  22527206.93915     -5063.90915        32.00015   -654467.00815
R10  20342425.03215      1370.25215        30.60015    183318.81715
C36  24271281.64115     -4255.32115        30.70015   -550365.05615
> 2025 05 03 08 18 49.9999999  0 17                      
G05  23722161.09017       134.42817        41.50017     23640.48917
G29  20939602.61517     -2794.40817        42.20017   -361779.49517
G18  21534169.90416      1114.99516        40.00016    151455.51516
G28  21759676.48916     -3470.24116        38.80016   -448910.07816
G25  22432453.93516     -4257.57116        38.20016   -554295.42816
G26  21615337.81315      1142.08215        34.90015    153729.17115
G31  21255129.08015     -1879.87715        34.30015   -239550.15615
G20  24391714.56715     -2259.95315        34.70015   -290060.25015
G04  24997723.43613     -1531.29513        20.70013   -118697.45913
R09  19145240.42627     -2025.93027        42.80027   -257954.90027
C29  21450968.50416     -1569.14416        39.50016   -200508.55516
C30  24421888.97816     -4012.04116        37.00016   -523364.75116
C13  39014047.63725       248.94125        35.20025     34698.50125
C08  39051914.12225      -135.78925        34.10025    -13899.60425
R16  22527911.45115     -5063.38215        31.60015   -659496.99015
R10  20341936.07115      1374.33615        30.50015    184661.98915
C36  24271859.64115     -4257.41615        30.20015   -554613.92815
> 2025 05 03 08 18 51.0000000  0 17                      
G31  21255281.97417     -1882.45417        42.40017   -241425.94317
G05  23721929.05017       136.49117        41.50017     23782.43617
G29  20939923.39317     -2791.36717        41.90017   -364565.62417
G18  21533748.39616      1116.80616        39.90016    152577.81216
G25  22433056.51826     -4257.38726        38.60026   -558546.54226
G28  21760128.57616     -3467.79916        38.70016   -452372.63616
G26  21614910.30915      1142.33315        34.90015    154877.63215
G20  24391934.91515     -2262.71615        34.20015   -292315.93915
G04  24997803.78113     -1528.71313        20.50013   -120220.74113
R09  19145412.80727     -2026.38527        42.60027   -259980.38327
C29  21451058.74116     -1567.45216        39.80016   -202070.39016
C30  24422452.88816     -4014.36916        38.10016   -527372.34616
C13  39013789.81516       247.89416        35.70016     34952.68416
C08  39051730.64925      -136.52025        34.90025    -14029.94025
R16  22528650.14015     -5063.81015        31.40015   -664548.36715
R10  20341464.79715      1374.28715        30.40015    186069.22815
C36  24272473.91615     -4258.04315        29.90015   -558864.75015
> 2025 05 03 08 18 51.9999999  0 17                      
G05  23721651.44216       134.49916        41.40016     23923.36316
G29  20940206.39717     -2793.70817        41.70017   -367352.86217
G31  21255389.00017     -1881.64117        42.20017   -243301.68817
G25  22433615.93116     -4256.35216        38.80016   -562797.20516
G28  21760534.49516     -3470.17016        38.70016   -455836.32616
G26  21614441.73325      1141.95525        34.90025    156025.70125
G20  24392114.79015     -2264.30015        34.00015   -294573.42515
G18  21533287.91516      1118.51416        38.80016    153701.53316
G04  24997855.34513     -1525.97613        20.40013   -121741.87513
R09  19145543.51627     -2027.81527        42.40027   -262007.35527
C29  21451112.70426     -1568.40426        40.20026   -203632.69626
C30  24422973.62716     -4015.18816        38.70016   -531380.53816
C13  39013493.32126       248.38226        36.20026     35206.90926
C08  39051507.60425      -136.77625        35.40025    -14160.66025
R16  22529338.76315     -5063.41515        31.30015   -669555.37815
R10  20340952.75115      1368.50215        30.40015    187473.45315
C36  24273042.02315     -4256.27415        29.60015   -563115.18115
> 2025 05 03 08 18 53.0000000  0 17                      
G20  24392332.73916     -2263.12216        35.80016   -296830.77216
G05  23721418.50426       133.92226        41.40026     24063.51726
G29  20940528.97327     -2793.02827        41.60027   -370140.06427
G31  21255537.09817     -1881.82717        41.80017   -245177.59217
G25  22434219.71316     -4255.30416        38.90016   -567047.06716
G28  21760991.67926     -3468.76326        38.60026   -459299.50226
G18  21532873.00216      1114.10216        37.80016    154822.73816
G26  21614018.42615      1145.64915        34.90015    157176.05415
G04  24997947.08113     -1530.19113        20.40013   -123265.15113
R09  19145719.49427     -2027.84827        42.30027   -264051.93827
C30  24423535.43816     -4013.29116        39.90016   -535387.91916
C29  21451204.74026     -1569.31726        40.50026   -205195.81526
C13  39013239.69626       249.59926        36.70026     35461.91126
C08  39051325.63026      -135.52826        36.20026    -14290.72426
R16  22530082.84815     -5064.01715        31.30015   -674637.33215
R10  20340476.68115      1369.00715        30.30015    188907.38815
C36  24273638.61014     -4256.26114        29.40014   -567363.94614
> 2025 05 03 08 18 54.0000000  0 17                      
G05  23721155.58616       132.11916        41.40016     24202.22416
G29  20940825.46817     -2795.07817        41.50017   -372928.60917
G20  24392526.10627     -2264.64727        42.40027   -299089.07927
G25  22434784.52226     -4257.25726        39.10026   -571297.95326
G31  21255658.81416     -1883.41516        41.20016   -247054.59516
G28  21761417.98416     -3471.45016        38.60016   -462764.28716
G18  21532420.31616      1114.68516        37.20016    155943.50616
G26  21613560.34415      1138.92615        34.80015    158322.69915
G04  24998007.04013     -1532.86113        20.30013   -124790.90913
C30  24424066.97017     -4012.26917        42.80017   -539395.90317
R09  19145857.69927     -2027.59027        42.20027   -266057.55527
C29  21451269.19526     -1568.69726        40.50026   -206758.78026
C13  39012950.99626       247.40226        37.00026     35715.72026
C08  39051111.57826      -136.97526        36.90026    -14421.52226
R16  22530781.96415     -5064.68715        31.60015   -679639.03415
R10  20339982.92315      1370.87715        30.50015    190273.44015
C36  24274219.00814     -4257.49614        29.20014   -571615.24414
> 2025 05 03 08 18 55.0000000  0 17                      
G05  23720911.25526       134.81926        41.40026     24342.28426
G20  24392738.05927     -2264.32627        42.20027   -301347.95427
G29  20941138.45216     -2793.69716        41.40016   -375716.64516
G25  22435373.91426     -4256.28126        39.20026   -575548.49226
G31  21255796.41816     -1886.61816        40.70016   -248934.06416
G28  21761858.97916     -3471.31916        38.50016   -466229.48416
G18  21531992.81216      1113.76716        36.80016    157063.55316
G26  21613121.14815      1140.11415        34.80015    159468.93615
G04  24998087.98413     -1537.20113        20.30013   -126320.35013
C30  24424620.38717     -4014.96617        43.50017   -543403.12217
R09  19146015.38927     -2028.75527        42.10027   -268066.95427
C29  21451351.33826     -1569.50226        40.70026   -208322.19426
C08  39050919.71126      -135.58926        37.30026    -14551.60426
C13  39012682.98216       250.72216        37.00016     35971.38116
R16  22531523.95115     -5065.87615        31.80015   -684769.86515
R10  20339511.34915      1364.63215        30.70015    191622.75015
C36  24274818.59314     -4258.93114        29.10014   -575867.69314
> 2025 05 03 08 18 56.0000000  0 17                      
G29  20941428.65116     -2795.41116        41.40016   -378505.70316
G20  24392934.12327     -2266.03227        42.00027   -303607.53827
G05  23720645.33916       132.82116        41.40016     24481.41516
G25  22435947.41726     -4258.58426        39.20026   -579800.50026
G31  21255923.23126     -1886.78026        40.20026   -250814.51026
G28  21762281.08616     -3470.44516        38.40016   -469694.28516
G18  21531534.72926      1113.91426        36.60026    158183.40926
G26  21612665.16315      1139.25615        35.10015    160614.41615
G04  24998144.64513     -1547.33113        20.20013   -127857.82313
C30  24425152.21917     -4014.32317        43.90017   -547411.35517
R09  19146161.08827     -2032.30227        42.00027   -270112.30327
C29  21451413.09616     -1570.75216        40.90016   -209886.64016
C08  39050707.75826      -137.24026        37.50026    -14682.59726
C13  39012402.67616       249.41516        36.90016     36226.73916
R16  22532234.45915     -5064.64215        31.80015   -689832.71015
R10  20339022.98715      1369.90515        31.00015    192960.58315
C36  24275399.59114     -4257.04114        29.00014   -580121.56014
> 2025 05 03 08 18 57.0000000  0 17                      
G29  20941720.04926     -2794.89326        41.40026   -381294.74426
G20  24393124.79127     -2267.21327        41.80027   -305868.30127
G05  23720385.71926       129.48726        41.30026     24618.02526
G25  22436524.81716     -4257.98616        39.20016   -584052.58716
G31  21256040.74916     -1884.50116        39.80016   -252693.75216
G18  21531084.14126      1113.96526        36.40026    159303.24726
G26  21612212.77615      1142.35215        35.10015    161761.72015
G28  21762708.89016     -3474.15116        37.50016   -473161.41316
G04  24998197.70813     -1551.98813        20.20013   -129401.06413
C30  24425687.34917     -4016.12817        44.00017   -551420.48517
C29  21451477.85116     -1572.00616        41.00016   -211452.25416
C08  39050494.60526      -138.31226        37.50026    -14814.59626
R09  19146304.08917     -2034.30617        41.70017   -272142.36917
C13  39012109.77816       245.61116        36.80016     36479.47316
R16  22532948.26515     -5067.32715        31.70015   -694913.13415
R10  20338528.92915      1367.24115        31.50015    194330.44915
C36  24275986.58414     -4258.66614        28.90014   -584375.11714
> 2025 05 03 08 18 58.0000000  0 17                      
G29  20942031.23327     -2794.97727        41.50027   -384083.79827
G05  23720139.28926       130.74526        41.20026     24754.67026
G20  24393338.54327     -2267.29627        41.70027   -308129.47427
G31  21256181.65216     -1888.67716        39.50016   -254575.34016
G18  21530654.23826      1112.70526        36.40026    160422.27626
G26  21611774.18015      1141.50815        35.10015    162909.10615
G28  21763152.88316     -3474.78416        36.60016   -476629.70116
G25  22437121.70416     -4262.54016        38.80016   -588307.69816
G04  24998283.14913     -1550.40313        20.10013   -130945.13513
C30  24426237.16817     -4011.14717        44.00017   -555429.24917
C29  21451559.09526     -1570.91426        40.90026   -213017.49226
C08  39050304.53716      -140.60816        37.40016    -14948.42516
C13  39011844.46216       244.78616        36.80016     36730.81816
R09  19146459.98216     -2029.80816        40.50016   -274142.59916
R16  22533673.46215     -5065.21115        31.70015   -699954.53815
R10  20338050.76015      1364.04315        31.60015    195712.55615
C36  24276573.27814     -4261.35214        28.90014   -588627.31914
> 2025 05 03 08 18 59.0000000  0 17                      
G29  20942328.32827     -2795.44227        41.50027   -386873.21627
G05  23719880.26916       129.61216        41.20016     24890.52416
G20  24393535.20716     -2266.71816        41.40016   -310389.94916
G31  21256305.76616     -1890.01816        39.20016   -256458.65216
G18  21530204.84926      1111.33926        36.60026    161540.07526
G26  21611325.69115      1136.22715        35.20015    164052.95015
G28  21763583.98416     -3473.05116        35.90016   -480097.27016
G25  22437694.00816     -4255.55516        37.70016   -592559.21116
G04  24998347.90413     -1544.74613        20.10013   -132485.76013
C30  24426770.49917     -4013.70117        43.80017   -559437.73417
C29  21451622.95016     -1572.54216        40.70016   -214583.73916
C08  39050091.08416      -136.04316        37.40016    -15079.86916
C13  39011559.35916       250.22116        36.70016     36985.27516
R09  19146608.97816     -2035.57016        39.10016   -276204.75616
R16  22534385.76915     -5067.69115        31.80015   -705027.32015
R10  20337552.80515      1366.52515        31.70015    197104.54115
C36  24277158.47314     -4259.22014        28.80014   -592879.76014
> 2025 05 03 08 19 00.0000000  0 17                      
G29  20942626.32117     -2795.37117        41.50017   -389662.69517
G05  23719616.45116       127.74316        41.10016     25024.87916
G20  24393724.67616     -2269.97616        41.10016   -312653.01716
G31  21256430.47916     -1884.28716        38.90016   -258338.70616
G18  21529756.66016      1111.48316        36.80016    162657.57316
G26  21610869.40615      1141.76615        35.30015    165199.31815
G28  21763998.29815     -3475.82015        35.20015   -483566.43315
G25  22438268.11016     -4263.62016        36.20016   -596814.88916
G04  24998404.86413     -1541.65713        20.00013   -134023.16513
C30  24427303.53017     -4016.85317        43.70017   -563447.71717
C29  21451690.10416     -1572.87516        40.40016   -216150.53316
C08  39049881.23026      -139.81426        37.30026    -15213.02026
C13  39011275.15616       246.88316        36.70016     37238.55616
R09  19146757.97516     -2031.57016        37.90016   -278265.38516
R16  22535095.37815     -5063.58015        31.80015   -710084.04815
R10  20337073.13715      1365.78815        31.70015    198396.61015
C36  24277738.57114     -4257.42214        28.90014   -597132.32714
> 2025 05 03 08 19 01.0000000  0 17                      
G29  20942933.30916     -2796.79916        41.40016   -392453.10916
G05  23719370.92116       129.85216        41.10016     25160.17816
G20  24393937.22926     -2269.03226        40.80026   -314916.11726
G31  21256576.77816     -1895.18316        38.70016   -260224.90116
G18  21529322.26026      1110.73026        37.10026    163774.50526
G26  21610433.50816      1133.80816        35.50016    166341.25916
G28  21764436.59415     -3475.55315        34.70015   -487035.91215
G25  22438854.20415     -4258.71915        35.10015   -601068.65015
G04  24998481.01213     -1542.44813        20.20013   -135559.98813
C30  24427853.34917     -4018.03817        43.50017   -567457.09617
C29  21451772.84716     -1574.22216        40.10016   -217718.37016
C08  39049687.56426      -138.07726        37.40026    -15345.54526
C13  39011005.94316       248.00516        36.70016     37492.23016
R09  19146914.46716     -2035.14816        37.20016   -280270.20016
R16  22535822.07515     -5068.35415        31.80015   -715133.86715
R10  20336601.56415      1365.13615        31.70015    199744.39515
C36  24278331.56114     -4258.29414        29.10014   -601383.94614
> 2025 05 03 08 19 02.0000000  0 17                      
G05  23719106.20416       129.65916        41.20016     25295.61316
G29  20943226.50616     -2799.87116        41.30016   -395245.93316
G20  24394132.39416     -2269.86116        40.60016   -317179.82916
G18  21528870.47326      1110.75326        37.70026    164891.21526
G26  21609980.82216      1137.44616        35.50016    167484.10016
G28  21764868.29515     -3471.43115        34.30015   -490502.79715
G31  21256690.99916     -1893.26216        38.00016   -262111.91216
G25  22439429.20615     -4261.50315        34.30015   -605323.67815
G04  24998525.08113     -1537.31913        20.20013   -137093.24513
C30  24428385.78017     -4015.51117        43.50017   -571466.06717
C29  21451831.90616     -1572.89316        39.90016   -219285.71716
C08  39049474.11216      -139.97416        37.80016    -15479.17516
C13  39010718.14216       248.13916        36.70016     37746.07516
R09  19147054.47016     -2035.60116        36.80016   -282283.45716
R16  22536527.78615     -5069.70215        31.80015   -720169.96015
R10  20336095.51415      1368.04315        31.60015    201178.33015
C36  24278915.85614     -4260.28214        29.10014   -605636.97514
> 2025 05 03 08 19 03.0000000  0 17                      
G29  20943522.40116     -2795.38716        41.20016   -398036.55816
G05  23718847.48416       123.66216        41.20016     25427.10916
G20  24394320.96316     -2270.21116        40.50016   -319443.96616
G18  21528423.78216      1107.24516        37.80016    166005.52516
G31  21256808.21816     -1885.35316        37.30016   -263993.91016
G26  21609522.13915      1143.43615        35.40015    168631.24815
G28  21765290.40315     -3479.55515        33.90015   -493974.22315
G25  22439997.31315     -4260.15515        33.60015   -609578.21815
G04  24998571.54913     -1536.10413        20.20013   -138624.49313
C30  24428920.31017     -4015.60617        43.40017   -575477.17317
C29  21451893.66316     -1573.67716        39.70016   -220853.41216
C08  39049261.85916      -138.75516        37.80016    -15612.34816
R09  19147196.27216     -2035.68116        36.60016   -284306.64716
C13  39010436.93616       249.04516        36.60016     38000.59416
R16  22537256.88215     -5067.13315        31.80015   -725331.40215
R10  20335613.14815      1368.12915        31.50015    202485.65315
C36  24279494.75614     -4260.03114        29.10014   -609890.09314
> 2025 05 03 08 19 04.0000001  0 17                      
G29  20943849.17516     -2801.45716        41.20016   -400830.49716
G05  23718618.14216       126.36716        41.20016     25559.09416
G20  24394544.60816     -2273.46616        40.40016   -321710.41416
G31  21256953.61716     -1889.33016        38.40016   -265876.88816
G18  21528003.17416      1111.02616        37.90016    167121.55516
G26  21609102.72916      1137.39616        35.50016    169775.80316
G28  21765744.58915     -3483.47015        33.60015   -497449.77015
G25  22440599.59615     -4261.64215        33.10015   -613833.58615
G04  24998647.39713     -1531.53513        20.20013   -140152.02313
C30  24429483.92017     -4015.67517        43.30017   -579488.81117
C29  21451991.39526     -1575.69526        39.70026   -222422.56726
C08  39049082.58316      -140.62816        37.70016    -15746.61816
R09  19147370.45116     -2037.13716        36.80016   -286342.82616
C13  39010185.41116       242.69716        36.50016     38251.10516
R16  22537983.27915     -5069.29015        31.80015   -730317.81015
R10  20335153.26615      1360.66115        31.50015    203834.16315
C36  24280101.23614     -4256.55214        29.00014   -614141.87914
> 2025 05 03 08 19 05.0000000  0 17                      
G29  20944135.17716     -2796.26216        41.10016   -403622.04116
G05  23718341.13416       127.82016        41.10016     25692.24816
G20  24394726.58216     -2271.66816        40.20016   -323976.39816
G31  21257061.24316     -1890.58016        38.90016   -267760.99016
G18  21527543.59216      1108.14016        38.30016    168236.27216
G26  21608638.35116      1140.94416        35.50016    170921.89716
G28  21766150.20815     -3469.00115        33.40015   -500917.01015
G25  22441165.00515     -4262.94515        32.60015   -618090.06215
G04  24998674.97713     -1525.50113        20.20013   -141674.25613
C30  24430004.66017     -4017.03517        43.10017   -583497.70017
C29  21452041.16116     -1573.11416        39.90016   -223990.45316
R09  19147494.26626     -2037.67426        37.00026   -288330.83226
C08  39048858.03816      -142.53316        37.60016    -15882.48716
C13  39009884.41916       245.40316        36.30016     38502.12016
R16  22538677.59815     -5066.39315        31.90015   -735356.16315
R10  20334641.22115      1360.98315        31.40015    205237.62615
C36  24280670.24214     -4256.75114        29.00014   -618394.21514
> 2025 05 03 08 19 06.0000001  0 17                      
G29  20944457.75416     -2800.49816        41.10016   -406415.65816
G20  24394953.52516     -2273.04116        40.10016   -326243.19116
G18  21527123.58226      1109.22826        38.70026    169351.22626
G31  21257211.73916     -1893.62416        38.90016   -269647.54416
G26  21608210.24716      1137.01416        35.60016    172065.83516
G05  23718107.59616       122.05516        40.80016     25821.90016
G28  21766600.19615     -3477.12815        33.20015   -504386.94715
G25  22441769.68615     -4260.04715        32.40015   -622345.02415
G04  24998759.51913     -1526.67213        20.20013   -143195.55313
C29  21452136.19516     -1576.25116        39.90016   -225560.05516
R09  19147671.14316     -2037.57616        37.10016   -290382.29216
C30  24430572.16717     -4013.41917        41.90017   -587504.21517
R16  22539412.98915     -5068.07315        32.20015   -740389.96215
C13  39009633.79216       246.09216        36.10016     38753.71516
R10  20334169.04815      1364.21315        31.40015    206650.96715
C08  39048683.25916      -139.85716        36.20016    -16017.15416
C36  24281280.02014     -4267.79614        29.20014   -622650.78414
> 2025 05 03 08 19 07.0000000  0 17                      
G18  21526661.00316      1107.68216        39.60016    170465.27916
G31  21257330.45616     -1892.67516        38.80016   -271534.23416
G20  24395142.39416     -2272.85116        39.50016   -328510.07916
G26  21607738.67416      1134.01316        35.90016    173207.10216
G05  23717832.68616       127.12016        39.60016     25953.80916
G29  20944746.45416     -2794.63116        40.20016   -409206.00816
G28  21767010.01315     -3479.32315        33.10015   -507859.19815
G25  22442321.90415     -4262.62115        32.30015   -626601.14915
G04  24998811.68313     -1529.78713        20.10013   -144718.56513
C29  21452191.35716     -1574.19616        39.70016   -227128.81116
R09  19147803.65126     -2041.03526        37.50026   -292418.43326
C30  24431095.00516     -4018.72516        40.40016   -591513.21716
R16  22540108.20825     -5067.12025        32.70025   -745432.13125
C13  39009332.50115       244.55615        35.30015     39004.52615
R10  20333660.00015      1361.91315        31.30015    208037.65015
C08  39048462.91215      -139.19015        34.70015    -16150.92615
C36  24281855.02214     -4262.62614        29.20014   -626910.84914
> 2025 05 03 08 19 08.0000001  0 17                      
G18  21526244.89116      1108.72916        39.50016    171579.67916
G20  24395367.23916     -2271.91916        39.00016   -330776.42516
G26  21607313.86816      1136.26816        36.10016    174348.93416
G05  23717599.44816       122.46316        38.20016     26083.31816
G28  21767460.90015     -3478.48815        33.00015   -511331.71215
G29  20945071.72916     -2798.04016        38.70016   -411997.58916
G31  21257487.54816     -1889.44216        38.10016   -273418.86316
G25  22442921.48915     -4259.58715        32.20015   -630855.68715
G04  24998901.32113     -1535.79813        20.10013   -146246.20513
C29  21452281.29516     -1574.83416        39.60016   -228697.75816
R09  19147979.92916     -2038.28416        37.70016   -294465.30816
C30  24431658.01516     -4010.66516        39.00016   -595524.24616
R16  22540857.08925     -5068.25725        33.20025   -750540.07225
C13  39009084.27315       244.60915        34.60015     39255.06415
R10  20333193.52315      1358.03015        31.40015    209419.71915
C36  24282457.30514     -4261.74114        29.30014   -631163.33114
C08  39048280.33815      -138.60715        33.50015    -16284.06115
> 2025 05 03 08 19 08.9999998  0 17                      
G18  21525706.76326      1107.20626        39.70026    172693.19326
G20  24395462.27326     -2271.46226        38.50026   -333042.27426
G26  21606767.64616      1140.38516        36.30016    175493.71116
G05  23717250.78916       126.81116        37.30016     26214.93716
G28  21767796.66815     -3480.07515        33.00015   -514805.36015
G31  21257516.32816     -1892.28716        37.10016   -275304.69016
G29  20945279.48516     -2795.58916        37.30016   -414787.93516
G25  22443411.35015     -4265.55515        32.20015   -635113.66315
G04  24998865.64513     -1536.98013        20.00013   -147776.16413
C29  21452261.20926     -1574.82826        39.40026   -230266.75426
R09  19148038.08916     -2038.69316        37.70016   -296522.11616
C30  24432097.51116     -4015.66816        37.90016   -599531.40616
R16  22541480.35815     -5071.02815        33.20015   -755615.90915
C13  39008699.63915       247.26815        34.00015     39507.29615
R10  20332610.12715      1361.82115        31.70015    210786.53615
C08  39047976.04915      -137.15915        32.50015    -16416.00615
C36  24282938.77114     -4260.63114        29.30014   -635417.50714
> 2025 05 03 08 19 09.9999998  0 17                      
G18  21525260.37226      1104.35326        40.10026    173804.50926
G20  24395664.63316     -2275.06616        38.10016   -335310.36016
G26  21606320.65516      1134.72616        36.30016    176635.69616
G05  23716989.37016       123.10216        36.70016     26344.78716
G31  21257636.84416     -1895.18416        36.10016   -277192.84716
G28  21768218.77615     -3481.96315        33.00015   -518280.64415
G29  20945576.57916     -2796.15116        36.20016   -417578.24316
G25  22443990.24915     -4260.57915        32.20015   -639369.46815
G04  24998926.20413     -1542.00013        20.00013   -149310.24213
C29  21452325.66426     -1578.09526        39.30026   -231837.94326
R09  19148177.49316     -2042.87316        37.70016   -298531.55416
C30  24432626.34516     -4017.55116        37.10016   -603541.48916
R16  22542190.56615     -5072.00315        33.20015   -760675.70415
C13  39008419.03315       250.42215        33.60015     39762.19415
R10  20332122.66415      1360.48315        32.10015    212121.31615
C08  39047764.09515      -139.24015        31.80015    -16548.94115
C36  24283520.06914     -4264.85214        29.30014   -639673.00214
> 2025 05 03 08 19 11.0000001  0 17                      
G18  21524919.20916      1107.17716        40.10016    174917.01116
G20  24395966.22416     -2272.80116        37.80016   -337577.64516
G26  21605979.49216      1137.16716        36.20016    177778.41616
G05  23716838.27516       123.48916        36.30016     26474.34216
G31  21257863.48716     -1892.11216        35.60016   -279079.69616
G28  21768761.10015     -3475.61615        33.30015   -521752.20515
G29  20945978.00115     -2798.84515        35.40015   -420370.29815
G25  22444665.08215     -4262.12515        32.10015   -643625.54315
G04  24999094.98713     -1551.90613        19.90013   -150852.26113
C29  21452497.74526     -1576.09926        39.40026   -233408.49726
R09  19148431.41716     -2040.00716        38.10016   -300576.09916
C30  24433270.89916     -4014.74116        36.40016   -607552.90516
R16  22543004.50315     -5072.70815        33.10015   -765712.51615
C13  39008237.95915       242.17215        33.30015     40012.51815
R10  20331744.92615      1360.26215        32.10015    213449.27115
C08  39047661.86615      -141.70015        31.30015    -16683.81015
C36  24284208.39214     -4263.17214        29.20014   -643931.02014
> 2025 05 03 08 19 11.9999998  0 17                      
G18  21524375.98526      1106.17326        40.30026    176029.19226
G20  24396067.25416     -2277.23616        37.50016   -339847.66916
G26  21605438.96616      1138.92616        36.10016    178922.50316
G05  23716485.71916       120.83716        36.20016     26601.98116
G31  21257900.96115     -1897.57115        35.40015   -280969.79715
G28  21769094.17015     -3480.86215        33.60015   -525226.07315
G29  20946180.66115     -2800.50015        34.90015   -423164.08915
G25  22445145.64915     -4259.97315        32.20015   -647880.32315
G04  24999062.30913     -1555.24413        19.90013   -152399.20013
C29  21452471.66316     -1578.17716        39.50016   -234980.27216
R09  19148481.18226     -2042.03026        38.50026   -302587.82926
C30  24433711.59316     -4017.48016        36.00016   -611563.59416
R16  22543621.77515     -5069.74115        33.30015   -770755.48815
C13  39007866.21625       243.92125        33.20025     40262.43425
R10  20331152.23615      1357.88015        32.20015    214864.90015
C08  39047361.47415      -137.92015        31.00015    -16816.85215
C36  24284707.54714     -4260.31014        29.20014   -648186.48014
> 2025 05 03 08 19 12.9999999  0 17                      
G29  20946499.64016     -2800.20716        38.90016   -425958.24916
G18  21523958.37416      1104.86316        40.40016    177140.40316
G20  24396292.39816     -2272.87516        37.20016   -342115.68616
G31  21258048.45915     -1899.36815        35.30015   -282862.16915
G26  21605010.26316      1134.59216        36.00016    180064.17016
G05  23716258.77616       121.47616        36.00016     26729.42116
G28  21769543.85815     -3482.11615        33.80015   -528701.53215
G25  22445747.63215     -4261.14315        32.60015   -652135.43815
G04  24999153.74613     -1563.60113        19.90013   -153953.34013
C29  21452570.29516     -1575.21916        39.60016   -236550.47116
R09  19148656.26116     -2042.51916        38.80016   -304629.35616
C30  24434283.59716     -4014.81816        35.80016   -615572.98016
R16  22544367.95915     -5066.22815        33.40015   -775848.90515
C13  39007612.59215       241.69615        33.10015     40510.74415
R10  20330699.84915      1359.62815        32.30015    216172.98615
C08  39047180.10015      -139.75415        30.80015    -16950.49515
C36  24285305.63314     -4262.91114        29.10014   -652441.22414
> 2025 05 03 08 19 13.9999998  0 17                      
G18  21523498.19216      1101.66216        40.40016    178249.19516
G29  20946776.34816     -2802.18916        40.40016   -428753.81816
G31  21258168.37616     -1895.48216        37.50016   -284752.66916
G20  24396478.56916     -2273.08516        37.00016   -344383.13716
G26  21604543.78616      1132.70116        35.90016    181203.80516
G05  23715982.66716       123.80316        35.80016     26858.38216
G28  21769957.57215     -3484.62815        33.80015   -532179.16015
G25  22446308.24415     -4264.73315        32.70015   -656393.02215
G04  24999200.21413     -1560.37913        19.90013   -155507.69413
C29  21452621.25916     -1579.25116        39.60016   -238122.79516
R09  19148791.76716     -2044.50916        39.10016   -306680.01416
C30  24434803.73716     -4017.06716        35.70016   -619583.74516
R16  22545070.07315     -5070.05815        33.50015   -780927.76015
C13  39007319.09515       246.21415        33.00015     40761.56615
R10  20330182.70715      1355.90915        32.40015    217603.14415
C08  39046951.65815      -145.70015        30.80015    -17088.26715
C36  24285883.03314     -4263.65114        29.10014   -656700.60714
> 2025 05 03 08 19 14.9999999  0 17                      
G18  21523079.38216      1106.50416        40.50016    179360.35816
G31  21258314.07516     -1900.23416        38.50016   -286645.76216
G29  20947105.22116     -2801.22716        40.20016   -431549.26416
G26  21604115.68216      1134.60216        36.00016    182343.98216
G05  23715748.52916       123.69916        35.70016     26987.73116
G28  21770409.05915     -3477.92215        33.80015   -535653.08915
G25  22446914.12515     -4258.83715        32.80015   -660647.54615
G20  24396712.10816     -2273.94616        36.70016   -346651.02316
G04  24999288.65313     -1558.16013        19.80013   -157060.69013
C29  21452713.29626     -1578.68126        39.90026   -239695.49726
R09  19148966.54616     -2043.63616        39.40016   -308719.24916
C30  24435363.45016     -4015.80416        35.60016   -623593.50316
R16  22545807.26225     -5068.70125        33.70025   -785972.26425
R10  20329718.32915      1356.34715        32.70015    218975.29815
C13  39007067.86915       246.75715        32.90015     41013.53915
C08  39046771.18315      -136.70715        30.90015    -17221.46815
C36  24286487.11514     -4262.12214        29.00014   -660957.19714
> 2025 05 03 08 19 15.9999999  0 17                      
G18  21522633.59116      1102.86616        40.70016    180469.90016
G31  21258433.69316     -1902.03616        40.00016   -288540.91016
G29  20947400.21716     -2799.35116        39.90016   -434343.40616
G26  21603664.19416      1134.49116        36.40016    183484.27816
G05  23715491.00716       120.11916        35.80016     27114.83616
G28  21770841.06015     -3486.48215        33.80015   -539131.47915
G25  22447490.62615     -4266.62515        32.80015   -664906.23115
G20  24396893.48216     -2270.98416        35.90016   -348917.06616
G04  24999358.20413     -1553.38313        19.80013   -158610.03613
C29  21452779.85026     -1577.13026        40.30026   -241267.27826
R09  19149112.54526     -2044.51926        39.70026   -310765.36026
C30  24435904.57516     -4015.62316        35.60016 -31849562.92016
R16  22546523.46725     -5069.73325        34.00025   -791063.38825
R10  20329236.56215      1359.27515        33.10015    220279.57115
C13  39006774.07215       248.02315        32.80015     41266.75215
C08  39046565.82515      -134.61415        30.90015    -17351.73815
C36  24287066.01414     -4259.60214        29.00014   -665212.12414
> 2025 05 03 08 19 16.9999998  0 17                      
G18  21522173.70916      1103.90616        40.70016    181579.63116
G31  21258543.41716     -1900.35016        40.40016   -290435.58116
G29  20947682.92126     -2803.64526        39.70026   -437139.93926
G26  21603195.61916      1131.92216        36.60016    184622.93816
G05  23715213.10016       119.87216        36.30016     27241.06416
G28  21771253.27515     -3483.34415        33.80015   -542609.22915
G25  22448045.24215     -4261.42215        33.10015   -669162.79715
G20  24397081.45215     -2275.69115        34.90015   -351185.59715
G04  24999398.97613     -1546.48413        19.90013   -160153.52913
C29  21452833.21316     -1580.25516        40.90016   -242840.80016
R09  19149243.25526     -2047.59526        39.90026   -312790.80626
C30  24436422.91616     -4017.75516        35.80016 -31853574.83216
R16  22547235.47415     -5073.70515        34.00015   -796196.51715
R10  20328722.71815      1355.97015        33.60015    221692.18715
C13  39006476.07915       243.76015        32.80015     41517.57315
C08  39046339.78115      -143.20215        30.80015    -17486.72015
C36  24287644.91314     -4264.44214        29.00014   -669468.58614
> 2025 05 03 08 19 17.9999999  0 17                      
G31  21258699.00916     -1898.01016        40.70016   -292328.58216
G18  21521754.30016      1102.04716        40.70016    182688.13616
G25  22448649.92316     -4263.58816        37.30016   -673420.15016
G29  20948008.19616     -2801.10416        39.60016   -439935.62416
G26  21602770.81316      1131.42116        37.00016    185760.66916
G05  23714982.85916       118.28716        36.40016     27365.89516
G20  24397301.79915     -2281.43015        34.40015   -353458.83215
G28  21771702.96415     -3484.70615        33.70015   -546087.72115
G04  24999484.71713     -1541.88013        20.20013   -161692.05113
C29  21452930.94516     -1580.43416        41.10016   -244415.06916
R09  19149417.13416     -2045.55716        40.00016   -314825.45616
C30  24436984.12816     -4014.74916        35.90016 -31857584.77716
R10  20328265.83415      1355.77215        34.00015    223023.15415
R16  22547961.27115     -5071.34715        34.10015   -801179.10515
C13  39006219.45615       244.05115        33.00015     41767.74315
C08  39046162.30415      -144.32815        31.10015    -17624.07215
C36  24288250.49414     -4260.49014        29.10014   -673725.12714
> 2025 05 03 08 19 18.9999999  0 17                      
G31  21258828.51916     -1903.37116        40.70016   -294224.58916
G18  21521307.30916      1102.03816        40.60016    183796.24016
G29  20948307.68816     -2804.61516        39.50016   -442733.35616
G25  22449221.32716     -4262.24816        38.60016   -677676.86016
G26  21602317.52716      1132.60516        37.40016    186898.89216
G05  23714725.03716       116.36816        36.70016     27488.99316
G20  24397498.76315     -2280.90015        34.40015   -355733.26915
G28  21772128.66915     -3484.75115        33.60015   -549566.47815
G04  24999532.38413     -1538.69013        20.40013   -163226.77713
C29  21452994.50117     -1581.93917        41.50017   -245990.58017
R09  19149563.43326     -2049.88226        40.20026   -316872.33126
C30  24437521.05616     -4019.90816        35.90016 -31861597.49216
R10  20327772.97615      1354.11015        34.40015    224386.91915
R16  22548678.67515     -5071.92815        34.20015   -806278.63915
C13  39005928.05815       240.63815        33.30015     42015.43115
C08  39045947.95315      -142.07915        31.50015    -17760.70215
C36  24288826.99514     -4261.51214        29.20014   -677979.86614
> 2025 05 03 08 19 19.9999999  0 17                      
G31  21258970.32116     -1899.68116        40.60016   -296119.10016
G29  20948621.87116     -2801.76016        39.50016   -445529.82816
G26  21601883.12716      1134.51516        37.80016    188038.58816
G25  22449814.61716     -4264.29416        38.40016   -681934.68216
G05  23714475.31016       121.00816        36.90016     27614.64416
G18  21520878.00616      1098.75516        40.00016    184902.05716
G28  21772572.96115     -3484.48315        33.70015   -553045.10915
G20  24397711.01615     -2277.76215        34.30015   -358005.97915
G04  24999597.73913     -1541.42913        20.80013   -164762.02713
C29  21453078.44317     -1579.21617        41.50017   -247564.65217
R09  19149725.92126     -2048.67426        40.60026   -318909.23826
C30  24438072.07516     -4012.77816        35.80016 -31865606.34216
R10  20327295.10615      1354.77615        34.70015    225769.02615
R16  22549403.27315     -5074.10315        34.20015   -811316.98615
C13  39005671.13615       241.96915        33.30015     42263.21715
C08  39045754.58715      -141.94115        31.60015    -17896.96315
C36  24289430.77714     -4265.34214        29.20014   -682237.02214
> 2025 05 03 08 19 20.9999999  0 17                      
G31  21259093.53616     -1903.53916        40.50016   -298015.73516
G29  20948918.36616     -2803.66616        39.50016   -448327.20216
G26  21601426.54416      1130.81416        37.90016    189176.26116
G25  22450384.82216     -4264.03116        38.20016   -686192.74916
G05  23714220.18716       116.32216        36.90016     27737.97216
G18  21520428.91716      1102.14216        39.30016    186009.32116
G28  21773004.36315     -3485.09915        33.90015   -556524.15715
G20  24397911.57715     -2279.22015        34.20015   -360279.13415
G04  24999652.60113     -1545.41013        21.10013   -166300.15513
C29  21453142.29916     -1579.74916        41.40016   -249138.64816
R09  19149869.52126     -2048.13826        40.70026   -320942.35926
R10  20326806.14525      1352.28925        35.30025    227111.43425
C30  24438601.80816     -4016.28516        35.60016 -31869616.29016
R16  22550116.77925     -5070.03325        34.60025   -816395.11825
C13  39005386.63315       246.70415        33.30015     42514.14215
C08  39045544.43215      -144.47015        32.30015    -18034.83615
C36  24290013.87314     -4264.47614        29.20014   -686497.66014
> 2025 05 03 08 19 21.9999999  0 17                      
G29  20949208.26516     -2803.67016        39.50016   -451124.86616
G26  21600973.25726      1129.57326        38.20026    190312.44326
G31  21259225.44416     -1903.12616        40.20016   -299912.78916
G25  22450961.62316     -4263.57116        38.10016   -690450.57916
G05  23713961.46616       117.17916        36.90016     27861.11016
G18  21519987.62316      1102.35216        38.80016    187117.22016
G28  21773421.67425     -3486.27025        34.00025   -560004.11225
G20  24398111.53915     -2279.52815        34.00015   -362552.62915
G04  24999729.34813     -1546.66813        21.10013   -167840.06813
C29  21453208.85326     -1582.04726        41.30026   -250714.13926
R09  19150020.61726     -2051.09526        40.80026   -323015.21326
C30  24439131.24216     -4017.72616        35.60016 -31873627.55116
R10  20326317.18316      1353.10216        35.50016    228454.60616
R16  22550827.28715     -5075.94015        34.70015   -821456.43215
C13  39005096.73315       243.08115        33.20015     42763.71215
C08  39045333.07815      -140.56015        32.50015    -18170.62615
C36  24290600.56714     -4260.28914        29.20014   -690753.97914
> 2025 05 03 08 19 22.9999999  0 17                      
G29  20949525.74516     -2800.17916        39.40016   -453920.26216
G26  21600539.45816      1130.33616        38.40016    191448.67316
G25  22451547.11716     -4267.71216        37.90016   -694711.05316
G31  21259369.34516     -1904.51016        39.70016   -301810.86916
G05  23713718.93416       113.83016        37.00016     27981.98816
G18  21519559.21916      1101.54516        38.20016    188224.83016
G28  21773862.96815     -3486.25315        34.00015   -563484.32215
G20  24398334.88415     -2282.40315        33.90015   -364828.11915
G04  24999807.89313     -1548.49613        21.10013   -169381.75913
C29  21453292.79426     -1581.88326        41.20026   -252289.98326
R09  19150183.70426     -2051.36226        40.80026   -325052.88226
C30  24439682.26016     -4018.90916        35.60016 -31877640.00316
R10  20325842.01216      1355.20416        35.50016    229820.69516
R16  22551554.28415     -5069.60715        34.90015   -826508.53915
C13  39004830.81815       238.69315        33.10015     43009.94015
C08  39045139.11315      -134.65715        32.40015    -18301.75215
C36  24291185.16214     -4262.72114        29.20014   -695009.53314
> 2025 05 03 08 19 23.9999999  0 17                      
G26  21600086.77116      1133.55316        38.60016    192587.01616
G05  23713461.41226       114.40626        37.10026     28102.44826
G31  21259486.56416     -1903.26316        39.10016   -303708.50916
G25  22452120.32116     -4266.15016        37.70016   -698971.41716
G18  21519109.83016      1096.93116        37.70016    189329.21716
G28  21774287.77415     -3486.22115        34.30015   -566964.64415
G20  24398528.85015     -2280.46515        33.80015   -367103.03015
G29  20949825.23816     -2808.26216        38.80016   -456720.34016
G04  24999850.76313     -1550.92213        21.20013   -170925.70813
C29  21453358.44916     -1584.05216        41.10016   -253867.43816
R09  19150331.20216     -2051.63016        40.80016   -327107.39916
R10  20325351.85226      1353.98626        35.50026    231169.96926
R16  22552257.89715     -5075.82515        35.10015   -831533.93515
C30  24440226.68316     -4019.81216        35.50016 -31881653.50316
C13  39004543.31715       242.20615        33.30015     43257.34815
C08  39044938.25215      -141.79515        32.30015    -18436.13015
C36  24291767.65914     -4266.86514        29.40014   -699267.93614
> 2025 05 03 08 19 24.9999999  0 17                      
G26  21599634.98416      1131.82516        38.80016    193724.92316
G05  23713197.29526       115.00426        37.20026     28223.18026
G25  22452695.92216     -4264.77816        37.60016   -703230.81716
G31  21259606.78016     -1903.00916        38.60016   -305605.82116
G18  21518654.74516      1101.85516        37.20016    190435.82616
G28  21774711.68115     -3485.40815        34.50015   -570444.45015
G20  24398731.21015     -2273.39415        33.70015   -369373.02215
G29  20950122.03216     -2803.00716        37.40016   -459518.46416
G04  24999912.52113     -1555.46513        21.50013   -172473.42713
C29  21453426.80216     -1582.43416        41.00016   -255444.34016
R09  19150478.40016     -2052.87916        40.70016   -329159.62316
R10  20324861.39126      1351.93226        35.50026    232520.76726
R16  22552980.09715     -5077.49515        35.10015   -836658.69015
C13  39004265.70915       239.67615        34.00015     43503.47515
C30  24440760.61415     -4019.65015        35.00015 -31885667.23215
C36  24292342.66115     -4263.91615        29.80015   -703527.33115
C08  39044725.09915      -145.28015        31.70015    -18573.90215
> 2025 05 03 08 19 25.9999999  0 17                      
G26  21599202.98316      1132.12116        38.80016    194862.91816
G05  23712955.96226       110.33926        37.50026     28340.92926
G25  22453288.61216     -4266.11216        37.50016   -707490.74916
G31  21259753.07916     -1905.87016        38.10016   -307504.89316
G18  21518233.23716      1095.99516        36.70016    191539.30516
G28  21775160.47015     -3488.46315        34.50015   -573926.08415
G20  24398939.56615     -2284.07415        33.50015   -371648.45715
G29  20950433.21716     -2803.93816        36.00016   -462316.51916
G04  24999976.97613     -1557.30013        21.70013   -174023.58813
C29  21453511.94316     -1586.12816        40.80016   -257023.48416
R09  19150638.48916     -2053.33816        40.20016   -331182.77616
R10  20324382.02315      1351.35715        35.40015    233909.73915
C13  39003998.89315       239.81015        35.10015     43749.30015
R16  22553718.18615     -5075.74915        35.00015   -841768.88815
C30  24441323.02415     -4017.63515        34.70015 -31889679.65815
C36  24292941.34715     -4265.44815        30.60015   -707784.48615
C08  39044535.63015      -150.86315        31.10015    -18716.49215
> 2025 05 03 08 19 26.9999999  0 17                      
G28  21775583.47726     -3488.21226        38.20026   -577408.20926
G26  21598746.09916      1136.84116        38.80016    196004.04216
G05  23712701.73816       109.59216        37.50016     28457.13616
G25  22453865.41216     -4275.28116        37.30016   -711757.01916
G31  21259879.59216     -1906.04716        37.60016   -309404.72016
G18  21517794.04116      1092.48716        36.30016    192639.35316
G20  24399144.02415     -2276.86015        33.40015   -373920.94715
G29  20950729.71215     -2806.63215        35.10015   -465116.39715
G04  25000028.24113     -1565.96913        21.70013   -175580.39213
R10  20323882.56916      1359.19616        35.60016    235308.58816
C29  21453582.99416     -1584.29116        40.40016   -258602.19916
C13  39003719.18715       237.95415        35.10015     43993.74015
R16  22554430.19315     -5084.86315        35.00015   -846839.37915
R09  19150795.28016     -2056.05316        39.10016   -333285.42716
C30  24441850.35915     -4021.46915        34.40015 -31893694.25315
C36  24293518.14715     -4269.41315        30.80015   -712044.86415
C08  39044327.27515      -145.55215        30.60015    -18857.19615
> 2025 05 03 08 19 28.0000000  0 17                      
G28  21776038.56226     -3493.82726        41.30026   -580894.22726
G26  21598317.09616      1134.17616        38.80016    197144.44316
G05  23712471.19816       107.53216        37.50016     28571.46916
G31  21260033.68516     -1902.94816        37.20016   -311302.72016
G18  21517370.13516      1089.40716        36.00016    193736.21716
G20  24399378.76215     -2280.44915        33.20015   -376194.83515
G29  20951058.88415     -2805.88915        34.30015   -467916.37515
G25  22454480.88616     -4275.65416        35.70016   -716025.63816
G04  25000119.97713     -1572.36413        21.60013   -177143.66113
C29  21453673.53116     -1585.49816        39.20016   -260181.56416
R10  20323428.98326      1358.19326        35.70026    236622.01526
C13  39003463.46415       235.02915        35.00015     44235.77915
R16  22555173.67815     -5082.95315        34.80015   -851917.50815
R09  19150968.26116     -2058.72616        37.90016   -335314.73016
C30  24442410.37115     -4020.04615        34.00015 -31897708.61115
C36  24294138.11815     -4271.50915        30.90015   -716311.40315
C08  39044153.99515      -143.19615        30.10015    -18995.68815
> 2025 05 03 08 19 28.9999999  0 17                      
G28  21776457.07217     -3493.97117        41.50017   -584381.60417
G26  21597855.41616      1135.88116        38.70016    198285.77616
G05  23712201.98416       110.38816        37.40016     28687.11816
G31  21260139.51216     -1906.78316        36.90016   -313202.63116
G18  21516911.45216      1088.53116        35.70016    194831.47216
G29  20951347.88415     -2802.70615        33.80015   -470714.22715
G20  24399557.73815     -2288.64715        32.60015   -378474.61815
G25  22455046.59515     -4270.89115        33.60015   -720291.82915
G04  25000169.74313     -1567.47813        21.50013   -178705.79213
C29  21453727.79316     -1585.01916        38.40016   -261760.78916
R10  20322919.33626      1361.03726        36.10026    238012.51226
C13  39003168.46815       240.26615        34.90015     44480.54515
R09  19151101.96816     -2055.11316        37.00016   -337357.74716
C30  24442938.60615     -4009.27915        33.70015 -31901715.67615
C36  24294713.12015     -4273.65415        30.90015   -720578.55315
R16  22555893.18015     -5077.81315        33.70015   -857088.84715
C08  39043941.74215      -134.32115        29.60015    -19127.48915
> 2025 05 03 08 19 29.9999999  0 17                      
G28  21776883.07816     -3496.69916        41.40016   -587871.30116
G26  21597397.63326      1136.86626        38.90026    199428.02926
G05  23711944.46216       108.35616        37.30016     28801.80116
G31  21260267.22316     -1910.66516        36.80016   -315105.81516
G18  21516469.85816      1091.43616        35.50016    195928.07816
G29  20951643.47915     -2803.81315        33.30015   -473512.15815
G20  24399751.40415     -2280.42615        31.80015   -380750.93515
G25  22455635.98715     -4276.44215        32.20015   -724560.95915
G04  25000224.60513     -1561.76913        21.40013   -180263.78613
C29  21453791.05016     -1587.02516        38.30016   -263341.35316
R10  20322428.27616      1357.80016        36.20016    239367.12316
R09  19151248.56716     -2061.09116        36.30016   -339406.15116
C13  39002881.56715       241.31415        34.80015     44726.87215
C30  24443475.23415     -4020.30615        33.40015 -31905727.70915
C36  24295295.61715     -4270.41115        30.90015   -724845.63415
R16  22556598.29215     -5085.26815        32.50015   -862121.88915
C08  39043730.08814      -141.50414        29.20014    -19261.89814
> 2025 05 03 08 19 31.0000000  0 17                      
G28  21777340.86116     -3494.32016        41.10016   -591360.17316
G26  21596973.72626      1136.76126        39.30026    200570.03026
G31  21260424.01516     -1910.00516        36.70016   -317009.63916
G05  23711719.31816       109.85016        37.10016     28917.17216
G18  21516055.24515      1087.71015        35.30015    197022.66315
G29  20951965.15615     -2805.07715        33.00015   -476310.94615
G25  22456238.57015     -4272.85515        31.30015   -728828.66615
G20  24399981.64415     -2280.23215        31.20015   -383025.95315
G04  25000316.94113     -1553.65513        21.20013   -181814.97913
C29  21453888.78216     -1587.66816        38.50016   -264922.78116
R10  20321966.59516      1356.40016        36.40016    240724.78616
R09  19151425.44426     -2060.58226        35.90026   -341456.84726
C30  24444031.34915     -4019.01515        33.20015 -31909740.52515
C36  24295907.49315     -4267.66115        30.80015   -729110.23315
C13  39002626.44415       237.40515        34.00015     44971.12415
R16  22557353.16915     -5083.61115        31.70015   -867260.39815
C08  39043552.01114      -149.13814        28.80014    -19402.25314
> 2025 05 03 08 19 31.9999999  0 17                      
G26  21596506.65026      1136.55326        39.70026    201712.51126
G28  21777756.97326     -3494.81826        40.80026   -594849.06526
G31  21260538.83516     -1908.64016        36.70016   -318912.72916
G05  23711448.60616       103.77716        37.00016     29028.75916
G18  21515595.06315      1084.34015        35.20015    198114.36415
G29  20952248.16015     -2807.14615        32.90015   -479111.36215
G25  22456785.69115     -4274.91315        30.80015   -733097.23315
G20  24400160.02115     -2283.87115        30.70015   -385302.92915
G04  25000359.51113     -1546.80413        21.20013   -183359.30113
C29  21453947.24116     -1584.91616        38.90016   -266502.62516
R10  20321465.04216      1357.30516        36.70016    242071.80916
R09  19151563.34916     -2060.31916        35.90016   -343520.49416
C30  24444549.09115     -4013.69015        32.90015 -31913750.01715
C13  39002333.54615       239.84615        33.30015     45216.34815
C36  24296490.29015     -4269.46615        30.70015   -733370.59015
R16  22558063.37815     -5079.95315        31.00015   -872383.58415
C08  39043320.27214      -143.92914        28.50014    -19541.08114
> 2025 05 03 08 19 33.0000000  0 17                      
G26  21596083.34316      1134.17216        39.80016    202853.85116
G28  21778209.95916     -3498.77816        40.50016   -598340.65216
G29  20952571.03715     -2806.82115        34.80015   -481912.15215
G31  21260687.83216     -1909.93516        36.60016   -320816.48716
G05  23711227.35916       108.90516        36.80016     29142.45516
G18  21515181.65015      1086.66815        35.10015    199206.60715
G25  22457392.47115     -4277.26915        30.50015   -737367.70715
G20  24400375.87115     -2283.50715        30.30015   -387580.36315
G04  25000456.04413     -1546.40613        21.10013   -184901.11713
C29  21454041.97616     -1586.45216        39.30016   -268083.01416
R10  20320994.36816      1356.63516        36.80016    243476.75916
R09  19151743.22426     -2064.08926        36.40026   -345587.99926
C30  24445114.49915     -4023.62715        32.80015 -31917765.07315
C13  39002085.91815       237.44215        32.70015     45460.24515
C36  24297109.96115     -4269.42615        30.50015   -737634.65815
R16  22558790.97415     -5081.58415        30.50015   -877376.87815
C08  39043137.99814      -142.03214        28.30014    -19678.18414
> 2025 05 03 08 19 34.0000000  0 17                      
G26  21595632.15516      1135.43316        39.80016    203994.99516
G28  21778638.06316     -3498.26616        40.30016   -601832.78516
G29  20952862.13516     -2803.37316        37.50016   -484710.75616
G31  21260813.14526     -1912.01726        36.60026   -322721.84326
G05  23710962.04316       112.89716        36.60016     29259.52716
G18  21514736.45815      1085.37715        35.10015    200298.18215
G25  22457971.07015     -4275.18715        30.20015   -741637.41615
G20  24400577.33215     -2283.73315        30.00015   -389858.09015
G04  25000509.70713     -1544.75113        21.10013   -186440.98213
R09  19151887.12426     -2061.88526        40.00026   -347623.41426
C29  21454106.73116     -1585.83016        39.50016   -269663.15816
R10  20320505.40716      1355.34916        37.00016    244817.64216
C30  24445652.62715     -4015.70615        32.60015 -31921776.69115
C13  39001808.61015       235.90815        32.40015     45702.69015
C36  24297684.96315     -4276.92015        30.30015   -741901.64015
R16  22559498.78415     -5087.12515        30.00015   -882425.20215
C08  39042923.94614      -147.85314        28.20014    -19818.58014
> 2025 05 03 08 19 35.0000000  0 16                      
G31  21260958.24516     -1908.72316        37.90016   -324625.49916
G26  21595194.75816      1134.06216        39.80016    205135.36416
G29  20953174.21916     -2812.20016        37.90016   -487514.48016
G05  23710723.70816       107.38716        36.40016     29374.08816
G18  21514308.65415      1083.56015        35.30015    201388.36015
G25  22458567.05815     -4274.35215        30.10015   -745906.27615
G20  24400790.18415     -2284.21415        29.80015   -392136.19615
G04  25000571.46513     -1547.21913        21.20013   -187981.80413
R09  19152055.00826     -2063.97926        40.70026   -349686.29726
C29  21454189.17416     -1588.76016        39.80016   -271245.13716
R10  20320028.43716      1357.19416        37.20016    246195.93616
C30  24446201.54715     -4018.16315        32.50015 -31925788.76515
C13  39001539.69615       237.94815        32.00015     45946.04615
C36  24298293.24215     -4268.72815        30.10015   -746168.02915
R16  22560253.36215     -5084.39415        29.70015   -887624.05415
C08  39042729.08114      -150.44414        28.10014    -19961.76614
> 2025 05 03 08 19 36.0000000  0 17                      
G31  21261085.35727     -1911.37227        44.40027   -326530.40427
G26  21594741.47216      1133.57216        39.80016    206275.09916
G29  20953468.61616     -2808.73916        38.20016   -490317.65316
G18  21513868.85915      1086.65815        35.30015    202480.08815
G05  23710463.48816       100.79016        36.20016     29483.36516
G28  21779506.56116     -3497.85616        38.40016   -608817.29116
G25  22459145.35715     -4270.09115        30.00015   -750172.06315
G20  24400985.64915     -2290.83215        29.60015   -394418.89115
G04  25000635.62013     -1558.98313        21.50013   -189530.83813
R09  19152201.90716     -2065.60916        40.60016   -351737.75816
C29  21454259.32516     -1587.96416        40.00016   -272827.24516
R10  20319539.47616      1352.68916        37.20016    247537.58116
C30  24446733.07915     -4017.14715        32.30015 -31929800.36215
C13  39001248.29815       237.43615        31.60015     46189.31715
C36  24298876.93815     -4271.44415        30.00015   -750429.51515
R16  22560978.26015     -5078.05115        29.50015   -892764.09815
C08  39042508.13414      -148.45914        28.10014    -20104.60614
> 2025 05 03 08 19 37.0000000  0 17                      
G31  21261207.37227     -1909.26427        44.30027   -328434.30727
G29  20953763.61126     -2807.77126        39.70026   -493119.98326
G26  21594284.58816      1135.23716        39.70016    207415.74416
G05  23710198.77116       101.42316        36.10016     29591.31516
G18  21513426.36516      1085.27016        35.60016    203571.42016
G28  21779938.56216     -3496.69316        37.50016   -612308.12416
G25  22459723.95715     -4276.77615        29.90015   -754441.26915
G20  24401185.31115     -2285.16915        29.50015   -396699.32815
G04  25000694.37913     -1566.87013        21.50013   -191087.85513
R09  19152351.80316     -2062.98716        40.60016   -353805.26216
C29  21454326.77916     -1589.80816        40.20016   -274410.61416
R10  20319040.32116      1356.31316        37.30016    248934.14316
C30  24447261.61315     -4021.36415        32.20015 -31933814.59815
C13  39000966.19315       233.24515        31.20015     46429.77715
C36  24299462.43215     -4273.01615        29.80015   -754694.91615
C08  39042303.07614      -144.48914        28.60014    -20244.67114
R16  22561687.86914     -5087.36714        29.30014   -897820.06514
> 2025 05 03 08 19 38.0000000  0 17                      
G31  21261353.37117     -1912.29017        44.20017   -330339.85717
G29  20954081.09216     -2810.90416        40.10016   -495924.08516
G26  21593854.38616      1133.99016        39.60016    208555.89916
G18  21512994.96316      1084.21316        36.10016    204661.95216
G05  23709963.43416       101.43516        36.00016     29698.86716
G28  21780380.75616     -3494.28316        37.00016   -615797.31316
G25  22460320.84315     -4277.32815        29.80015   -758711.94615
G20  24401404.45914     -2289.91714        29.40014   -398982.14014
G04  25000773.82413     -1568.67113        21.50013   -192648.69613
R09  19152516.98816     -2067.44216        40.60016   -355854.39316
C29  21454409.82116     -1589.32616        40.30016   -275994.04516
R10  20318571.74516      1351.83216        37.50016    250265.91016
C30  24447818.62715     -4018.94915        32.20015 -31937828.06915
C36  24300049.72615     -4276.89415        29.80015   -758965.52215
C13  39000700.57715       238.47415        30.90015     46672.82315
C08  39042114.20714      -148.32314        28.90014    -20386.33214
R16  22562406.17114     -5087.68714        29.10014   -902826.31014
> 2025 05 03 08 19 39.0000000  0 17                      
G31  21261478.08517     -1908.58117        44.10017   -332243.53217
G29  20954379.38516     -2809.89616        40.20016   -498728.15516
G26  21593396.90226      1134.76526        39.50026    209696.35826
G28  21780808.86016     -3496.69416        36.70016   -619287.61116
G18  21512553.96916      1084.74616        36.20016    205752.52416
G05  23709706.81216       103.95216        35.90016     29807.91616
G20  24401598.72515     -2291.10915        30.00015   -401266.58815
G25  22460899.74315     -4282.23315        29.80015   -762986.43315
G04  25000832.28413     -1569.84113        21.40013   -194211.64113
C29  21454477.87426     -1588.97626        40.50026   -277577.31326
R09  19152664.78616     -2063.42716        40.60016   -357910.43716
R10  20318080.68516      1353.17816        37.50016    251618.99616
C30  24448348.06115     -4023.48315        32.10015 -31941844.35515
C13  39000421.47015       232.35415        30.70015     46912.60215
C36  24300627.12615     -4274.91515        30.00015   -763234.49115
C08  39041910.64814      -151.78614        29.40014    -20530.88214
R16  22563116.08014     -5081.81714        29.00014   -907884.57214
> 2025 05 03 08 19 40.0000000  0 17                      
G31  21261605.19717     -1914.68017        44.00017   -334150.63717
G28  21781240.56127     -3496.94927        42.10027   -622778.43627
G29  20954676.77916     -2811.37216        40.50016   -501533.18616
G26  21592941.81726      1134.24326        39.30026    210836.58326
G18  21512105.47916      1085.38716        36.20016    206843.54816
G05  23709448.09116        96.97616        35.90016     29912.82516
G20  24401789.39315     -2287.71515        30.30015   -403549.30615
G25  22461469.94815     -4269.61615        29.70015   -767253.76615
G04  25000878.75213     -1567.94913        21.30013   -195774.01513
C29  21454545.02826     -1591.39126        40.70026   -279162.12326
R09  19152814.68216     -2069.46516        40.60016   -359976.41416
R10  20317596.82016      1351.38416        37.50016    252935.47316
C30  24448879.59315     -4021.22515        32.70015 -31945860.06315
C36  24301209.02315     -4273.08515        30.10015   -767503.93215
C13  39000136.06815       231.32415        30.50015     47150.61815
C08  39041699.89414      -147.94614        29.40014    -20673.82214
R16  22563816.99514     -5086.48414        28.90014   -912895.44014
> 2025 05 03 08 19 41.0000000  0 17                      
G28  21781683.95427     -3496.97627        43.70027   -626269.41727
G31  21261746.99927     -1909.74127        43.90027   -336055.55427
G29  20954989.76216     -2811.00516        40.70016   -504338.25516
G26  21592505.61916      1133.74216        39.20016    211976.43216
G18  21511676.77616      1083.73516        36.20016    207933.65916
G05  23709202.86016       101.09716        35.80016     30019.13816
G20  24402007.04215     -2290.76915        30.60015   -405833.44715
G25  22462072.53115     -4276.62115        29.70015   -771523.34815
G04  25000951.00213     -1566.24113        21.30013   -197335.02213
R09  19152980.46816     -2068.16716        40.60016   -362030.12816
C29  21454631.36816     -1590.25416        40.70016   -280746.65416
R10  20317116.55316      1353.73316        37.50016    254328.25716
C30  24449441.40415     -4023.25515        33.50015 -31949876.89415
C36  24301814.00415     -4274.76415        30.20015   -771769.94915
C13  38999865.65515       231.65815        30.40015     47388.30515
C08  39041507.72714      -145.82114        29.30014    -20814.77414
R16  22564550.28714     -5078.08914        28.80014   -917981.17414
> 2025 05 03 08 19 42.0000000  0 17                      
G28  21782109.65927     -3498.09727        43.70027   -629761.24827
G31  21261873.51127     -1913.22727        43.80027   -337962.11527
G29  20955285.05816     -2813.16016        40.90016   -507144.82316
G26  21592055.33116      1134.25516        39.10016    213116.44816
G18  21511233.38316      1084.88616        36.10016    209024.18416
G05  23708952.83316       105.89116        35.70016     30129.06616
G20  24402206.40415     -2291.65315        30.70015   -408118.70115
G25  22462634.04215     -4279.18715        29.60015   -775795.43815
G04  25001006.46313     -1560.71413        21.20013   -198891.93813
R09  19153131.86316     -2068.31216        40.60016   -364104.51016
C29  21454697.62226     -1591.85826        40.70026   -282332.20926
R10  20316627.59116      1349.21916        37.40016    255672.19216
C30  24449972.33615     -4024.08615        33.60015 -31953894.70315
C36  24302394.10315     -4275.98315        30.60015   -776042.33315
C13  38999588.64715       236.56215        30.30015     47629.10415
C08  39041298.47114      -153.30014        29.40014    -20960.09614
R16  22565269.78914     -5086.27114        28.80014   -923091.40914
> 2025 05 03 08 19 43.0000000  0 17                      
G28  21782537.76327     -3502.31027        43.70027   -633256.65827
G31  21262001.52327     -1915.17627        43.70027   -339870.51227
G29  20955582.45216     -2806.94416        41.00016   -509947.73516
G18  21510789.99016      1080.32616        36.00016    210111.81916
G05  23708698.31016        97.45316        35.50016     30234.58716
G26  21591599.04716      1130.06516        38.40016    214253.74016
G20  24402406.66515     -2290.53315        30.70015   -410403.56615
G25  22463209.64415     -4273.85315        29.60015   -780064.79815
G04  25001069.42013     -1558.56813        21.20013   -200446.04813
C29  21454766.57426     -1591.50426        40.60026   -283917.85826
R09  19153280.86016     -2070.50816        40.50016   -366165.90316
R10  20316129.33616      1351.74416        37.30016    257063.41516
C30  24450509.56415     -4017.77415        33.60015 -31957908.61715
C36  24302982.59515     -4282.55915        30.70015   -780316.26415
C13  38999307.44115       238.88915        30.50015     47872.50315
C08  39041087.71714      -148.35814        29.40014    -21103.56914
R16  22565997.98514     -5089.42614        28.80014   -928247.50414
> 2025 05 03 08 19 44.0000000  0 17                      
G28  21782985.65317     -3499.66917        43.70017   -636750.29717
G31  21262142.72517     -1916.24917        43.60017   -341780.19817
G29  20955899.03316     -2811.34716        41.00016   -512752.32616
G18  21510366.68316      1081.73316        35.90016    211199.46516
G26  21591161.05016      1134.49416        37.40016    215393.11216
G05  23708462.37315       100.72115        35.30015     30340.85315
G20  24402623.11615     -2289.12215        30.70015   -412687.32515
G25  22463803.83215     -4277.27215        29.70015   -784335.48915
G04  25001158.75813     -1557.67913        21.10013   -201998.59213
R09  19153457.13816     -2068.40116        40.50016   -368276.15716
C29  21454853.51426     -1591.91226        40.50026   -285503.77326
C30  24451061.18315     -4016.66415        33.60015 -31961920.45715
C36  24303584.27915     -4272.21815        30.70015   -784585.38815
R10  20315664.95816      1355.66716        37.00016    258373.82616
C13  38999052.31815       233.80015        30.50015     48113.41215
C08  39040887.75614      -145.02914        29.40014    -21244.17014
R16  22566728.87914     -5086.76114        28.80014   -933319.48114
> 2025 05 03 08 19 45.0000000  0 17                      
G28  21783411.05817     -3503.07817        43.60017   -640246.50117
G31  21262271.03627     -1917.27527        43.50027   -343691.04827
G29  20956194.92826     -2811.00026        40.90026   -515557.29426
G18  21509918.49316      1083.53316        35.90016    212288.26616
G26  21590706.56516      1132.15316        36.80016    216531.56916
G05  23708210.54715       106.67615        35.10015     30451.28915
G20  24402813.18415     -2287.98115        30.60015   -414970.00415
G25  22464374.33715     -4271.03415        29.70015   -788602.51415
G04  25001217.51713     -1557.46313        21.10013   -203550.52013
C29  21454921.26726     -1591.69626        40.40026   -287089.68126
R09  19153601.33816     -2073.54816        40.40016   -370312.33616
R10  20315166.70316      1350.22016        36.20016    259765.04816
C30  24451599.61015     -4015.19915        33.50015 -31965930.67815
C36  24304168.27415     -4273.73015        30.70015   -788853.43315
C13  38998773.81115       239.49915        30.40015     48357.24315
R16  22567452.27814     -5083.78714        29.00014   -938450.34814
C08  39040684.79614      -147.60114        29.30014    -21385.57614
> 2025 05 03 08 19 46.0000001  0 18                      
G28  21783868.84127     -3502.36327        43.50027   -643742.90427
G29  20956520.80316     -2809.21416        40.80016   -518361.18516
G31  21262427.52817     -1917.90017        42.80017   -345602.69117
G18  21509504.18016      1080.24516        36.00016    213375.27316
G26  21590284.45726      1131.40326        36.60026    217669.23326
G05  23707979.10815       101.57815        34.30015     30559.72915
G25  22464981.11715     -4281.88015        30.20015   -792875.53515
G20  24403050.32015     -2291.13015        30.60015   -417254.40915
G04  25001301.45913     -1552.92913        21.10013   -205099.20713
C29  21455017.20126     -1593.34026        40.40026   -288676.67226
R09  19153779.71416     -2069.57416        40.30016   -372370.67216
C26  23668968.91416      1077.86916        35.70016 -31028211.69616
R10  20314709.51916      1347.36016        35.50016    261098.30416
C30  24452160.52215     -4018.39315        33.30015 -31969942.47515
C36  24304779.55115     -4277.31415        30.60015   -793122.12915
C13  38998509.09415       236.04815        30.30015     48599.75915
R16  22568197.86214     -5082.19914        29.00014   -943539.94314
C08  39040517.81214      -157.06314        29.10014    -21533.54714
> 2025 05 03 08 19 47.0000000  0 18                      
G28  21784284.95327     -3506.00827        43.60027   -647241.76627
G29  20956808.00416     -2810.58916        40.80016   -521165.59816
G31  21262543.84717     -1917.04017        41.60017   -347513.98717
G26  21589820.37826      1131.78326        36.40026    218806.92226
G18  21509052.09316      1078.92016        36.00016    214460.83516
G25  22465546.82615     -4282.57115        32.80015   -797150.98015
G05  23707702.09915        97.31615        33.50015     30664.69815
G20  24403239.48915     -2292.75615        30.60015   -419540.43715
G04  25001358.12013     -1549.92713        21.00013   -206644.77613
C29  21455074.16116     -1592.98816        40.30016   -290263.75216
R09  19153917.01916     -2071.39516        40.10016   -374431.26416
C26  23668511.73016      1078.31416        35.50016 -31027127.53516
R10  20314203.17015      1349.73115        35.10015    262471.25815
C30  24452691.15415     -4019.33615        33.10015 -31973955.39115
C36  24305358.45015     -4274.43015        30.50015   -797393.80015
C13  38998206.60315       233.31615        30.20015     48840.05115
R16  22568902.07414     -5092.40214        29.10014   -948630.27014
C08  39040297.16514      -152.69614        28.90014    -21680.75814
> 2025 05 03 08 19 48.0000000  0 18                      
G28  21784716.95427     -3504.58027        43.60027   -650740.54627
G29  20957106.89716     -2813.83116        40.60016   -523972.39516
G26  21589366.49316      1129.71116        36.60016    219943.19016
G31  21262677.85416     -1920.24916        40.50016   -349427.35616
G18  21508601.50516      1077.94916        36.00016    215545.21916
G25  22466120.02915     -4280.62215        34.10015   -801425.98115
G05  23707452.67215        97.34015        33.00015     30768.47715
G20  24403434.95415     -2291.32815        30.60015   -421826.10315
G04  25001418.67813     -1548.06413        21.00013   -208188.11213
C29  21455143.41316     -1593.35216        40.20016   -291851.15316
R09  19154065.11726     -2074.28826        40.00026   -376488.07326
C26  23668068.93715      1078.18215        35.40015 -31026043.49915
R10  20313717.50615      1346.93115        34.80015    263797.64915
C30  24453224.78515     -4018.80115        32.90015 -31977968.37115
C36  24305939.14815     -4275.37415        30.50015   -801660.83215
C13  38997922.10015       234.30815        30.20015     49080.21515
R16  22569600.89015     -5092.66815        29.50015   -953630.44115
C08  39040095.10514      -154.09714        28.70014    -21828.69914
> 2025 05 03 08 19 49.0000001  0 18                      
G28  21785175.93727     -3507.73827        43.60027   -654241.39027
G29  20957435.46916     -2809.70116        40.50016   -526777.22016
G26  21588945.58416      1129.67016        37.00016    221078.96916
G31  21262832.24816     -1923.45416        39.60016   -351343.54016
G18  21508185.09316      1081.82016        36.00016    216631.80216
G25  22466725.31015     -4279.96015        35.00015   -805700.38115
G05  23707226.92815       101.49315        32.60015     30874.64115
G20  24403657.40015     -2291.64415        30.60015   -424111.84715
G04  25001495.42513     -1548.13613        20.90013   -209730.74113
R09  19154247.09116     -2075.07716        39.90016   -378566.27416
C29  21455239.34716     -1592.33716        40.00016   -293437.97216
C26  23667652.52526      1076.94326        36.60026 -31024960.31726
R10  20313256.72515      1351.19315        34.60015    265149.21115
C30  24453778.80115     -4020.58115        32.70015 -31981982.54715
C36  24306554.32315     -4277.41915        30.40015   -805932.08815
C13  38997678.36915       236.23215        30.10015     49321.63115
R16  22570358.16615     -5089.40115        29.60015   -958780.42015
C08  39039910.13314      -142.17014        28.50014    -21968.91914
> 2025 05 03 08 19 49.9999998  0 18                      
G29  20957639.02816     -2808.98616        40.30016   -529580.91216
G26  21588402.36026      1129.44726        37.30026    222214.43626
G31  21262870.32116     -1921.87316        38.90016   -353259.60916
G18  21507658.35816      1077.80016        36.00016    217716.44016
G25  22467213.97116     -4279.59416        35.50016   -809974.33816
G28  21785519.19917     -3505.82817        42.70017   -657741.65017
G20  24403766.52415     -2293.27715        30.70015   -426398.70515
G05  23706882.46715        98.30615        32.20015     30979.47515
G04  25001467.84413     -1554.24313        20.90013   -211277.20413
C29  21455221.95916     -1598.86416        39.80016   -295028.94916
C26  23667119.79426      1075.42326        37.20026 -31023878.43426
R10  20312681.12315      1339.80515        34.40015    266474.83815
C30  24454218.89715     -4018.77915        32.60015 -31985995.92215
R09  19154316.64316     -2068.52116        39.40016   -380682.67816
C36  24307046.88215     -4273.89815        30.40015   -810203.07715
R16  22570977.23815     -5096.20415        29.80015   -963834.09015
C13  38997300.03115       235.35415        30.00015     49562.88015
C08  39039612.43914      -138.89014        28.30014    -22104.38014
> 2025 05 03 08 19 51.0000001  0 17                      
G26  21588061.19616      1126.22016        37.40016    223347.68416
G29  20958050.34416     -2814.60216        39.50016   -532387.93316
G31  21263107.75716     -1925.91516        38.40016   -355178.29816
G28  21786057.02716     -3507.65116        41.20016   -661242.89416
G18  21507330.68516      1075.06716        36.00016    218798.64316
G25  22467899.59716     -4281.90016        35.70016   -814249.64616
G20  24404072.31215     -2290.85915        30.70015   -428684.28615
G05  23706734.36915        98.48215        31.80015     31084.02015
C29  21455399.13616     -1591.77716        39.50016   -296616.55016
C26  23666780.12926      1077.42126        37.60026 -31022795.61526
R10  20312294.39115      1345.89015        34.20015    267849.31915
C30  24454862.55115     -4019.78215        32.80015 -31990009.66015
R09  19154570.56716     -2073.94516        38.40016   -382727.22516
C36  24307742.70015     -4279.79215        30.40015   -814474.25715
R16  22571792.67315     -5087.32015        30.00015   -968878.55015
C13  38997133.94615       241.25515        29.90015     49808.04215
C08  39039497.31814      -153.74714        28.10014    -22248.12214
> 2025 05 03 08 19 51.9999998  0 17                      
G29  20958255.40216     -2813.26216        39.10016   -535195.22016
G26  21587520.67016      1128.65916        37.40016    224481.77016
G31  21263137.73616     -1922.68116        37.90016   -357095.75316
G28  21786395.79216     -3506.82616        40.10016   -664743.96516
G18  21506794.35616      1076.03516        36.00016    219880.63116
G25  22468387.95916     -4279.26516        35.70016   -818523.69916
G20  24404181.13715     -2296.73615        30.70015   -430973.40915
G05  23706392.60615        97.94715        31.40015     31188.06315
C29  21455371.85516     -1596.02116        39.10016   -298205.90416
C26  23666246.19916      1073.63816        37.60016 -31021715.05516
R09  19154627.22816     -2077.34116        37.30016   -384775.62816
R10  20311721.18815      1345.18515        34.00015    269161.98215
C30  24455301.74715     -4019.69415        33.00015 -31994023.50915
C36  24308231.36215     -4280.95515        30.40015   -818745.78215
R16  22572416.24115     -5087.35315        30.10015   -973957.44815
C13  38996757.40715       232.53915        29.80015     50048.65115
C08  39039199.92414      -152.29214        28.00014    -22393.70314
> 2025 05 03 08 19 52.9999999  0 17                      
G29  20958581.87626     -2813.09426        39.00026   -538002.47026
G26  21587095.56516      1128.10516        37.40016    225615.77816
G31  21263298.12526     -1921.90226        37.70026   -359012.26526
G28  21786852.07616     -3506.34416        39.30016   -668244.64316
G18  21506383.64016      1079.48816        35.90016    220964.86216
G25  22468993.83916     -4284.02716        35.60016   -822800.49416
G20  24404408.08015     -2294.00815        31.00015   -433261.88115
G05  23706156.96915        95.01415        31.10015     31289.99515
C29  21455471.38616     -1596.10916        38.80016   -299795.88816
C26  23665835.48316      1072.83216        37.50016 -31020635.77316
C30  24455871.95215     -4018.76315        33.30015 -31998036.76315
R09  19154807.40316     -2075.21716        36.50016   -386844.66116
R10  20311254.71115      1346.76715        33.90015    270544.81415
C36  24308844.73715     -4280.12915        30.40015   -823019.07715
R16  22573175.91515     -5089.28215        30.10015   -979120.41515
C13  38996500.18515       237.03715        29.70015     50290.75215
C08  39039013.15414      -149.05014        28.40014    -22537.72414
> 2025 05 03 08 19 53.9999998  0 17                      
G29  20958866.67916     -2814.17816        39.00016   -540810.39516
G26  21586625.79016      1127.57116        37.50016    226749.44116
G31  21263415.64416     -1924.10316        37.60016   -360929.89316
G28  21787271.78616     -3508.21716        38.70016   -671746.40316
G18  21505927.65616      1078.47016        35.90016    222049.19816
G25  22469561.64616     -4282.17716        35.70016   -827076.93316
G20  24404592.45215     -2297.10015        31.40015   -435552.16115
G05  23705894.05115        98.16315        30.90015     31393.36015
C29  21455523.85016     -1596.46016        38.50016   -301386.28116
C26  23665378.30016      1075.11716        37.30016 -31019555.35816
C30  24456391.49215     -4020.25615        34.40015 -32002050.77715
R09  19154948.30516     -2079.81716        35.90016   -388925.11816
C08  39038796.40415      -151.84615        32.50015    -22683.05215
C13  38996208.78615       232.67415        30.50015     50530.47815
C36  24309421.23815     -4280.96115        30.50015   -827293.02215
R16  22573870.53515     -5087.56215        30.20015   -984160.29815
R10  20310750.76015      1334.15815        33.40015    271904.79915
> 2025 05 03 08 19 54.9999999  0 17                      
G29  20959197.94926     -2814.95926        39.10026   -543619.11426
G31  21263573.03516     -1925.28916        37.90016   -362848.73316
G26  21586205.18116      1126.28716        37.60016    227882.08316
G28  21787735.56516     -3510.71216        38.40016   -675250.23616
G25  22470161.23116     -4281.58516        35.70016   -831352.90916
G18  21505515.74116      1077.59116        35.80016    223132.93416
G20  24404826.29015     -2293.91715        31.90015   -437840.97015
G05  23705665.30915        92.38315        30.80015     31493.30015
C29  21455625.77916     -1595.98116        38.40016   -302976.53916
C26  23664962.48716      1067.90716        37.10016 -31018479.42016
C30  24456953.00415     -4023.02915        34.80015 -32006066.94215
R09  19155131.17926     -2077.92526        35.50026   -391007.14026
C08  39038618.92615      -151.57515        33.40015    -22828.68315
C13  38995945.56915       232.42315        30.90015     50769.19715
C36  24310036.71215     -4281.75015        30.50015   -831568.25315
R16  22574611.32215     -5097.56315        30.30015   -989223.14215
R10  20310295.97515      1337.67515        32.20015    273224.32815
> 2025 05 03 08 19 55.9999999  0 17                      
G29  20959492.34516     -2816.24616        39.10016   -546428.94316
G31  21263702.24516     -1929.02716        38.10016   -364770.45616
G28  21788161.27016     -3511.83916        38.10016   -678755.50016
G26  21585755.49216      1114.88216        37.50016    229006.79516
G25  22470746.72616     -4283.92416        35.60016   -835630.27716
G05  23705400.89215        92.26515        35.30015     31592.03315
G18  21505084.64016      1067.94616        35.70016    224210.05416
G20  24405016.05915     -2296.46515        32.30015   -440130.97515
C29  21455695.93116     -1597.63016        38.40016   -304567.83916
R16  22575325.72715     -5096.25515        33.10015   -994305.86215
C30  24457493.23015     -4023.36815        34.80015 -32010084.03815
R09  19155283.47325     -2080.65025        35.20025   -393086.87025
C08  39038411.47015      -151.02515        34.10015    -22974.03715
C26  23664521.49316      1073.05016        36.20016 -31017401.53316
C13  38995669.16015       234.88515        30.90015     51009.23315
C36  24310618.90915     -4280.90115        30.50015   -835844.94515
R10  20309822.90215      1339.19915        30.90015    274483.60015
> 2025 05 03 08 19 56.9999998  0 17                      
G29  20959778.04816     -2818.00116        39.00016   -549240.27716
G31  21263821.26316     -1929.10916        38.20016   -366693.15916
G28  21788580.67916     -3512.62016        37.90016   -682261.72416
G26  21585288.71616      1125.34216        37.40016    230135.87216
G05  23705136.17616        94.58116        36.10016     31691.94316
G25  22471309.73616     -4283.57716        35.60016   -839907.84116
G18  21504624.75816      1075.22516        35.60016    225289.85616
G20  24405203.12915     -2297.50615        32.60015   -442422.03715
C29  21455754.09116     -1599.75116        38.80016   -306160.86516
C30  24458010.07215     -4021.80215        34.80015 -32014100.36415
R16  22576026.04215     -5093.80315        35.40015   -999376.31015
R09  19155420.77825     -2081.26525        35.10025   -395147.46125
C08  39038192.32215      -145.70215        34.00015    -23115.71415
C26  23664066.70815      1072.69115        35.20015 -31016323.20015
C13  38995377.16215       230.90615        31.10015     51247.09215
C36  24311189.11415     -4282.14015        30.50015   -840119.71015
R10  20309307.25915      1341.74515        30.10015    275905.36915
> 2025 05 03 08 19 57.9999999  0 17                      
G29  20960102.42316     -2817.49016        38.80016   -552051.81916
G31  21263977.75516     -1925.81616        38.20016   -368614.04216
G05  23704909.83216        94.22116        36.70016     31791.95716
G28  21789036.66416     -3510.01916        37.70016   -685766.58316
G25  22471914.41726     -4285.36426        35.70026   -844186.71026
G26  21584872.60416      1123.40516        37.20016    231265.06616
G18  21504210.74516      1073.72216        35.50016    226369.50316
G20  24405435.76815     -2300.17015        32.80015   -444715.27515
C29  21455851.22316     -1598.45016        39.00016   -307753.64616
R09  19155600.65415     -2083.30815        35.00015   -397214.96615
C30  24458576.08015     -4022.44915        34.80015 -32018116.91215
R16  22576777.32215     -5094.68415        35.30015  -1004494.95015
C26  23663649.09715      1068.46415        34.50015 -31015247.58515
C08  39038014.84515      -150.10815        33.80015    -23259.15015
C13  38995121.73915       233.91515        31.70015     51486.18315
C36  24311799.79115     -4284.80615        31.00015   -844393.49915
R10  20308852.77415      1340.47115        29.50015    277224.13315
> 2025 05 03 08 19 58.9999999  0 17                      
G29  20960391.72316     -2815.41616        38.70016   -554862.03716
G31  21264112.36116     -1926.89516        38.10016   -370535.02516
G05  23704654.70916        93.08916        36.70016     31891.26416
G25  22472494.21616     -4286.83616        35.90016   -848466.98416
G18  21503758.95715      1073.48915        35.30015    227448.95315
G20  24405641.42615     -2297.92115        33.20015   -447007.72815
G28  21789470.46316     -3512.44016        37.10016   -689272.58916
G26  21584419.61716      1127.22916        36.50016    232396.85916
C29  21455920.47516     -1601.92516        39.00016   -309348.65016
R09  19155753.24815     -2082.37315        35.10015   -399295.46015
C30  24459108.21215     -4022.76915        34.90015 -32022133.73715
R16  22577488.73015     -5097.39215        35.10015  -1009562.38315
C26  23663201.80615      1074.35515        34.10015 -31014168.93615
C13  38994835.73715       234.43515        32.20015     51726.04415
C08  39037804.09115      -151.33415        33.60015    -23403.97815
C36  24312389.78315     -4280.14915        31.20015   -848671.05415
R10  20308351.82114      1340.84714        29.10014    278631.37214
> 2025 05 03 08 19 59.9999999  0 17                      
G29  20960696.01216     -2817.01216        38.60016   -557672.87716
G31  21264240.67316     -1930.63716        38.00016   -372458.53616
G25  22473069.81816     -4282.53616        36.10016   -852744.85916
G05  23704400.78516        89.25616        36.50016     31987.77916
G28  21789897.66816     -3513.19516        36.50016   -692779.48016
G18  21503328.75515      1068.73315        35.20015    228525.16915
G20  24405841.38815     -2298.13315        33.50015   -449300.06015
G26  21583970.22816      1123.60916        35.70016    233527.10616
C29  21455993.92416     -1602.30216        38.80016   -310944.64716
C30  24459640.04415     -4023.33915        35.10015 -32026151.03315
R09  19155904.64315     -2085.39815        35.10015   -401369.84215
R16  22578207.33215     -5095.30915        34.90015  -1014667.26115
C13  38994552.43315       229.98815        32.90015     51963.19715
C26  23662758.41315      1073.04115        33.80015 -31013090.15115
C08  39037591.83815      -149.74015        33.30015    -23548.20715
C36  24312971.98015     -4285.42315        31.30015   -852946.13415
R10  20307864.35814      1345.40814        28.80014    279965.39314
> 2025 05 03 08 20 00.9999998  0 17                      
G29  20961016.19016     -2819.06216        38.50016   -560485.25416
G31  21264382.47416     -1928.60716        37.90016   -374381.50016
G25  22473665.50516     -4285.11616        36.10016   -857023.61816
G05  23704167.24616        91.93816        36.30016     32085.18916
G18  21502898.25315      1071.76815        35.10015    229602.36515
G28  21790354.55116     -3512.64516        36.00016   -696286.26416
G26  21583537.92815      1121.71815        35.10015    234655.61315
G20  24406059.03715     -2300.90115        33.50015   -451594.16015
C29  21456078.76616     -1600.30516        38.60016   -312539.60716
R10  20307384.69015      1338.79515        32.40015    281355.88715
C30  24460197.95716     -4022.09516        35.90016 -32030167.62116
R09  19156078.82315     -2085.95415        35.00015   -403467.10715
C13  38994288.91615       232.08115        33.80015     52200.87815
R16  22578941.82415     -5091.91515        34.70015  -1019759.11515
C26  23662335.40615      1070.78015        33.70015 -31012012.79315
C08  39037405.36715      -156.80815        33.10015    -23696.91315
C36  24313573.66315     -4281.32215        31.30015   -857225.83115
> 2025 05 03 08 20 01.9999999  0 17                      
G31  21264511.08516     -1930.38116        38.10016   -376305.51316
G29  20961312.68516     -2816.91416        38.40016   -563296.76016
G25  22474243.50516     -4288.09516        36.20016   -861304.70716
G05  23703905.82716        91.68516        36.10016     32182.67816
G18  21502465.35315      1074.05915        34.90015    230681.36715
G28  21790781.15616     -3510.89216        35.60016   -699791.89216
G26  21583080.14515      1127.10015        34.80015    235787.07915
G20  24406257.20015     -2299.61115        33.40015   -453888.03915
C30  24460729.78916     -4022.83616        36.80016 -32034184.51416
R10  20306890.03316      1340.39716        36.10016    282729.56816
C13  38994006.51115       230.38415        34.80015     52437.55615
R09  19156232.31615     -2082.71015        34.90015   -405553.71415
R16  22579658.02815     -5100.56715        34.60015  -1024851.00515
C26  23661890.81415      1073.82015        33.80015 -31010933.93215
C08  39037191.91415      -149.06215        33.00015    -23841.99515
C29  21456151.61516     -1597.65016        37.60016   -314132.50016
C36  24314159.75715     -4280.61115        31.30015   -861503.09715
> 2025 05 03 08 20 02.9999998  0 17                      
G31  21264639.39616     -1932.39816        38.70016   -378231.20816
G29  20961613.67716     -2819.30516        38.40016   -566109.55816
G25  22474817.90716     -4284.49216        36.20016   -865584.15816
G05  23703652.80316        87.21716        36.10016     32277.22916
G28  21791211.95815     -3514.82715        35.40015   -703299.74615
G26  21582630.15615      1125.35915        34.60015    236918.38315
G18  21502018.96215      1068.58315        34.80015    231757.33215
G20  24406456.86215     -2305.34715        33.40015   -456185.65615
C30  24461265.21816     -4020.52916        36.80016 -32038199.96016
C29  21456216.97016     -1599.98416        36.80016   -315726.24816
R10  20306398.97316      1339.55516        36.00016    284083.41716
C13  38993724.40615       233.00115        34.90015     52675.65615
R09  19156380.41415     -2084.46215        34.80015   -407609.75815
C26  23661447.42115      1069.83315        34.10015 -31009857.21515
R16  22580371.83415     -5103.43315        34.40015  -1029931.43115
C08  39036982.65915      -154.25215        32.90015    -23989.31815
C36  24314743.15415     -4280.86015        31.20015   -865775.82615
> 2025 05 03 08 20 03.9999998  0 17                      
G29  20961931.15716     -2816.23216        38.50016   -568920.70116
G31  21264786.89416     -1931.94216        38.70016   -380157.12416
G05  23703412.66916        90.91516        36.20016     32373.30116
G25  22475407.59916     -4286.87616        36.20016   -869864.61516
G26  21582191.56015      1124.75815        34.70015    238049.26915
G28  21791657.74915     -3509.00615        35.20015   -706804.42415
G18  21501589.65915      1072.37615        34.70015    232834.85115
G20  24406674.81115     -2304.57615        33.20015   -458483.96715
C30  24461817.73616     -4023.64516        36.70016 -32042216.96416
C29  21456302.71116     -1604.12316        36.50016   -317323.00416
C26  23661018.71815      1072.13715        34.90015 -31008779.64215
R10  20305944.48716      1337.45316        35.90016    285340.43816
C13  38993461.48815       228.33015        34.90015     52911.15215
R09  19156558.49115     -2092.03115        34.70015   -409729.18215
R16  22581121.91515     -5099.32815        34.30015  -1035106.59115
C08  39036796.48815      -154.42815        32.80015    -24137.46715
C36  24315347.83515     -4283.37615        31.10015   -870052.61315
> 2025 05 03 08 20 04.9999999  0 17                      
G29  20962226.45316     -2817.58316        38.80016   -571732.24316
G31  21264916.40516     -1932.40316        38.70016   -382083.46816
G05  23703160.54316        88.56616        36.30016     32468.26616
G25  22475996.39116     -4286.10316        36.20016   -874144.94316
G26  21581739.17315      1119.52915        35.20015    239176.48115
G28  21792089.15115     -3504.33015        35.10015   -710304.97515
G18  21501152.56215      1069.95915        34.50015    233911.22715
G20  24406871.47415     -2304.64115        33.10015   -460782.60315
C30  24462354.36416     -4024.60216        36.70016 -32046235.17516
C26  23660577.72316      1070.77016        35.50016 -31007702.74216
R10  20305438.73716      1337.75616        35.80016    286772.08516
C29  21456373.76216     -1604.67316        36.30016   -318921.17716
C13  38993179.38425       231.83325        34.90025     53148.06825
R09  19156710.18615     -2087.67915        34.60015   -411805.09115
R16  22581825.22815     -5096.79615        34.30015  -1040128.92515
C08  39036585.73415      -148.51915        32.80015    -24282.00215
C36  24315932.73015     -4284.04215        31.00015   -874330.28415
> 2025 05 03 08 20 06.0000000  0 17                      
G29  20962558.02316     -2817.34216        39.00016   -574543.74416
G31  21265077.39316     -1933.94016        38.70016   -384010.96916
G26  21581319.46316      1122.66716        36.50016    240304.57316
G25  22476600.77316     -4286.23216        36.40016   -878425.29916
G05  23702935.39926        84.99626        36.40026     32560.49426
G28  21792554.12915     -3517.29415        34.90015   -713812.78115
G18  21500748.74115      1066.29515        34.30015    234984.79215
G20  24407109.21015     -2306.32115        33.10015   -463082.45415
C29  21456472.09316     -1602.04316        36.30016   -320518.05816
C26  23660161.61116      1072.32216        36.00016 -31006625.02116
C30  24462915.87616     -4025.57916        36.60016 -32050254.42616
R10  20304985.75116      1341.83816        35.70016    288082.45916
R09  19156884.06515     -2088.18215        34.80015   -413839.74215
C13  38992929.35715       229.23315        34.90015     53383.73515
R16  22582573.80915     -5095.55715        34.20015  -1045234.57315
C08  39036412.15415      -157.54315        32.70015    -24431.33615
C36  24316551.20215     -4281.24615        30.90015   -878605.95815
> 2025 05 03 08 20 06.9999999  0 17                      
G29  20962841.02716     -2822.85416        39.00016   -577358.87016
G26  21580854.48516      1122.14616        38.50016    241432.64716
G31  21265191.31416     -1931.54516        38.70016   -385937.22116
G05  23702666.78516        86.11716        36.60016     32652.59316
G25  22477166.78116     -4289.45016        36.60016   -882707.77616
G28  21792971.14015     -3515.72015        34.80015   -717321.92015
G18  21500293.65615      1069.50915        34.10015    236059.59815
G20  24407286.68715     -2302.23915        32.90015   -465379.95315
C29  21456530.55316     -1603.14516        37.50016   -322115.20716
C26  23659706.52616      1070.42116        36.70016 -31005548.25616
C30  24463439.91316     -4022.58116        36.50016 -32054271.99016
R10  20304482.99916      1337.97216        35.70016    289436.34416
R09  19157025.56715     -2094.99815        34.90015   -415924.01915
C13  38992634.06125       227.92225        34.90025     53618.14825
R16  22583281.91915     -5103.63115        34.10015  -1050345.53315
C08  39036183.41315      -156.49615        32.70015    -24581.53515
C36  24317119.00915     -4280.71415        30.80015   -882879.68715
> 2025 05 03 08 20 08.0000000  0 17                      
G29  20963171.69816     -2818.35716        39.10016   -580172.25416
G26  21580433.27716      1124.53416        39.20016    242562.25816
G31  21265353.80216     -1933.57516        38.80016   -387864.46016
G05  23702443.74016        87.14716        36.60016     32745.28816
G25  22477778.65816     -4286.35416        36.60016   -886988.94216
G28  21793430.72215     -3518.62015        34.80015   -720833.48515
G20  24407512.73115     -2305.32215        32.80015   -467678.77215
G18  21499888.33715      1072.47915        33.70015    237136.75115
C29  21456633.68216     -1602.62116        37.70016   -323712.14316
C26  23659291.91316      1071.57316        37.10016 -31004471.09016
R10  20304030.91216      1339.02216        35.80016    290743.66916
C30  24464010.11816     -4026.18816        36.30016 -32058291.44316
R09  19157206.04215     -2087.04615        34.90015   -417992.28715
C13  38992381.63615       233.27015        34.80015     53855.66015
R16  22584028.10315     -5103.50015        34.10015  -1055438.95315
C08  39036009.23315      -153.51515        32.70015    -24730.08415
C36  24317739.27915     -4284.18415        30.60015   -887158.66015
> 2025 05 03 08 20 09.0000000  0 17                      
G29  20963470.89116     -2818.83416        39.30016   -582985.36416
G26  21579979.69116      1123.21116        39.20016    243691.51216
G31  21265487.21016     -1935.16216        38.80016   -389793.07316
G05  23702192.51416        87.33416        36.60016     32838.31716
G25  22478348.86316     -4285.04616        36.60016   -891268.78916
G28  21793865.12115     -3516.52215        34.80015   -724344.44815
G20  24407715.99015     -2300.71715        32.70015   -469974.94915
G18  21499448.54115      1073.98515        33.10015    238215.70115
C29  21456698.73716     -1602.65916        37.90016   -325309.02216
C26  23658850.61926      1068.43926        37.50026 -31003395.86826
R10  20303531.45816      1336.81316        36.10016    292141.75616
C30  24464539.25216     -4025.29916        36.00016 -32062310.92316
R09  19157364.33315     -2090.66315        34.80015   -420103.34315
C13  38992095.33415       229.58415        34.70015     54091.76115
R16  22584742.80815     -5099.85315        34.10015  -1060521.66715
C08  39035800.57815      -154.00615        32.60015    -24878.39715
C36  24318322.67615     -4282.19515        30.40015   -891434.63215
> 2025 05 03 08 20 09.9999999  0 17                      
G29  20963759.29116     -2822.07416        39.30016   -585800.50616
G26  21579515.91216      1124.50016        39.10016    244821.54316
G31  21265603.52916     -1933.37916        38.80016   -391720.91916
G05  23701925.39816        83.41016        36.60016     32928.88016
G25  22478924.46416     -4290.58316        36.50016   -895551.84916
G28  21794285.43015     -3517.68815        34.80015   -727855.95015
G20  24407901.86115     -2309.35915        32.50015   -472275.97015
G18  21498996.15515      1066.18215        32.40015    239290.08515
C29  21456758.69516     -1605.42016        38.20016   -326907.68716
C26  23658399.13116      1067.70616        37.50016 -31002321.74616
R10  20303028.40616      1337.33916        36.30016    293497.16816
R09  19157500.43815     -2091.39015        34.80015   -422159.35115
C30  24465061.19116     -4025.64916        35.80016 -32066330.60816
C13  38991804.53515       229.07615        34.60015     54327.08815
R16  22585458.41215     -5102.59115        34.10015  -1065673.13615
C08  39035584.42715      -155.55015        32.40015    -25027.62615
C36  24318892.28115     -4279.30215        30.20015   -895709.57215
> 2025 05 03 08 20 11.0000000  0 17                      
G29  20964087.26416     -2822.90016        39.20016   -588616.92516
G26  21579095.90316      1123.50216        39.10016    245951.11816
G31  21265766.31616     -1938.96216        38.80016   -393652.28016
G25  22479528.24616     -4289.55116        36.40016   -899835.34216
G05  23701703.55216        84.19616        36.50016     33019.09516
G28  21794754.30615     -3516.68115        34.80015   -731367.01015
G20  24408136.89815     -2308.21915        32.40015   -474577.89315
G18  21498582.14115      1067.63215        31.90015    240363.86515
C29  21456857.92616     -1604.03916        38.20016   -328506.07416
C26  23657981.52016      1069.24616        37.40016 -31001247.01416
R10  20302572.42216      1337.18116        36.60016    294823.55916
R09  19157686.01015     -2091.38415        35.20015   -424255.88915
C30  24465627.19916     -4028.51316        35.50016 -32070352.31816
R16  22586198.90015     -5101.57815        34.10015  -1070735.21815
C13  38991550.61115       227.69715        34.50015     54561.19015
C08  39035403.65215      -157.55115        32.00015    -25178.54115
C36  24319506.25615     -4284.14315        30.10015   -899987.11015
> 2025 05 03 08 20 12.0000000  0 17                      
G29  20964386.75716     -2823.27516        39.10016   -591434.00716
G26  21578648.01316      1117.25116        39.00016    247076.38716
G31  21265894.02816     -1938.55616        38.70016   -395584.53016
G25  22480108.04516     -4289.23416        36.40016   -904118.75616
G05  23701448.42916        83.30916        36.40016     33108.61516
G28  21795186.60615     -3521.42415        34.70015   -734881.07215
G20  24408341.35715     -2307.78615        32.30015   -476879.81815
G18  21498138.14915      1067.55915        31.50015    241437.40715
C29  21456927.17816     -1605.79616        38.20016   -330105.52816
C26  23657535.42916      1069.89816        37.30016 -31000171.63016
R10  20302085.85816      1334.93916        36.70016    296154.52616
R09  19157841.60216     -2090.48516        35.70016   -426353.19316
C30  24466158.13115     -4024.60115        35.30015 -32074372.08415
R16  22586896.81715     -5101.22215        34.00015  -1075730.80015
C13  38991275.40215       230.38515        34.30015     54796.68715
C08  39035198.29515      -150.81015        31.50015    -25325.51315
C36  24320101.64415     -4285.83915        29.90015   -904263.11915
> 2025 05 03 08 20 13.0000000  0 17                      
G26  21578189.93016      1121.65916        38.90016    248203.15816
G31  21266023.83816     -1934.79916        38.60016   -397514.57216
G25  22480683.94616     -4288.87616        36.30016   -908401.90516
G05  23701193.30516        83.05116        36.30016     33197.73116
G28  21795610.21315     -3516.29215        34.70015   -738392.71515
G20  24408536.82215     -2307.49815        32.30015   -479181.55115
G29  20964685.35016     -2824.24816        38.70016   -594251.95916
G18  21497692.35715      1064.91815        31.30015    242509.10915
C29  21456998.52916     -1605.47716        38.40016   -331705.12416
R10  20301593.29916      1334.88616        36.80016    297513.71416
C26  23657093.23516      1063.06416        37.20016 -30999100.58616
R09  19157994.19716     -2091.64316        36.00016   -428435.21516
C30  24466695.65915     -4025.68115        35.10015 -32078391.92315
R16  22587622.61415     -5103.80015        34.00015  -1080875.42815
C13  38990987.60115       229.20315        34.10015     55031.86215
C08  39034986.94115      -160.69915        31.00015    -25477.76315
C36  24320684.74015     -4283.97115        29.80015   -908542.27315
> 2025 05 03 08 20 14.0000000  0 17                      
G20  24408760.16725     -2310.93825        34.50025   -481485.47625
G31  21266173.13516     -1939.64716        38.50016   -399447.07216
G26  21577756.43016      1120.96216        38.80016    249330.00216
G25  22481281.73316     -4292.87516        36.30016   -912687.59416
G05  23700960.06716        79.99716        36.10016     33284.71316
G28  21796059.30215     -3519.26615        35.00015   -741905.49515
G29  20965004.62916     -2823.28816        37.50016   -597069.52416
G18  21497270.54915      1064.56115        31.20015    243579.99715
C29  21457088.16716     -1609.30416        38.40016   -333307.28416
R10  20301125.32316      1333.87816        36.90016    298843.95716
C26  23656669.62816      1069.57916        37.10016 -30998026.60916
R09  19158166.57716     -2094.35916        36.10016   -430521.78416
C30  24467248.17715     -4022.85415        34.90015 -32082409.86415
R16  22588374.19415     -5104.20315        34.00015  -1086056.70315
C13  38990726.18215       226.66015        33.90015     55265.27015
C08  39034801.07015      -155.81515        30.70015    -25628.48115
C36  24321290.62115     -4283.21115        29.70015   -912818.75015
> 2025 05 03 08 20 15.0000000  0 17                      
G31  21266302.04516     -1936.83316        38.60016   -401378.56616
G26  21577307.04116      1119.38716        38.70016    250455.77216
G20  24408961.62726     -2310.54626        38.70026   -483789.92026
G25  22481861.23116     -4291.79116        36.30016   -916973.45716
G28  21796485.30715     -3519.42215        35.20015   -745418.80915
G05  23700707.04216        79.18716        36.00016     33370.39616
G29  20965302.92316     -2823.82516        36.50016   -599887.36816
G18  21496825.05815      1063.28315        31.10015    244649.71215
C29  21457157.41916     -1606.82116        38.40016   -334908.69016
R10  20300633.06416      1334.63016        36.90016    300202.38316
R09  19158323.66916     -2097.29416        36.40016   -432628.25616
C26  23656225.63616      1067.76116        36.90016 -30996952.91316
C30  24467783.90615     -4026.77015        34.70015 -32086429.83215
R16  22589082.00415     -5104.35915        33.90015  -1091106.55815
C13  38990444.07715       226.71315        33.40015     55498.07615
C08  39034586.41815      -158.99415        30.50015    -25780.85515
C36  24321877.91415     -4288.40215        29.60015   -917097.50615
> 2025 05 03 08 20 16.0000000  0 17                      
G31  21266434.85416     -1938.65716        38.60016   -403310.92716
G26  21576854.95416      1119.36616        38.50016    251581.18316
G20  24409166.38626     -2309.88726        38.50026   -486094.08526
G25  22482442.52916     -4288.54916        36.20016   -921257.20416
G29  20965599.41816     -2820.67516        36.00016   -602703.19216
G28  21796919.40715     -3519.47215        35.40015   -748932.32115
G05  23700461.51216        76.33616        35.80016     33453.75616
G18  21496393.95615      1062.62915        31.30015    245718.61215
C29  21457231.16826     -1605.39626        38.70026   -336508.88426
R09  19158474.16416     -2092.52616        36.70016   -434698.81716
R10  20300148.60016      1335.67616        36.80016    301521.14716
C26  23655777.74616      1067.83016        36.80016 -30995879.25416
C30  24468319.33515     -4027.58715        34.70015 -32090451.00815
R16  22589805.70315     -5104.48715        33.90015  -1096238.95315
C13  38990164.07115       229.88115        32.80015     55732.80615
C08  39034378.06215      -155.68715        30.30015    -25931.56415
C36  24322459.81115     -4288.64515        29.50015   -921379.05915
> 2025 05 03 08 20 17.0000000  0 17                      
G26  21576417.55716      1116.73216        38.40016    252704.75316
G31  21266585.64916     -1945.68716        38.50016   -405248.22716
G29  20965915.39916     -2822.85616        36.40016   -605519.76016
G25  22483037.61716     -4291.84716        36.20016   -925542.40816
G20  24409383.43516     -2311.10116        38.00016   -488398.93016
G28  21797370.59415     -3522.35115        35.40015   -752447.78215
G05  23700225.27516        79.79016        35.70016     33538.68216
G18  21495969.15015      1062.38215        31.80015    246787.11315
C29  21457316.90916     -1608.69816        39.00016   -338110.83816
R09  19158654.34016     -2098.40316        37.10016   -436828.93716
C26  23655358.93626      1065.41426        36.90026 -30994807.18226
R10  20299678.22516      1332.81316        36.80016    302862.83016
C30  24468871.55315     -4022.85015        34.70015 -32094469.39215
R16  22590532.10015     -5099.46215        33.90015  -1101287.23815
C08  39034190.39215      -158.82815        30.10015    -26083.77715
C13  38989899.95415       233.48615        32.10015     55970.61615
C36  24323057.89715     -4284.30515        29.50015   -925659.58315
> 2025 05 03 08 20 18.0000000  0 17                      
G26  21575970.26716      1120.20416        38.40016    253829.97616
G29  20966214.59216     -2822.75616        37.50016   -608336.55816
G25  22483617.11616     -4294.28216        36.10016   -929829.76916
G31  21266713.96016     -1939.30316        38.10016   -407182.96716
G20  24409588.79316     -2316.14816        37.50016   -490707.41516
G28  21797802.59515     -3521.97715        35.30015   -755963.69215
G05  23699966.55516        79.95216        35.50016     33624.18916
G18  21495520.36115      1064.24215        32.20015    247856.67215
C29  21457384.96116     -1607.13016        39.10016   -339712.38216
C26  23654913.74416      1067.59316        37.40016 -30993734.23316
R09  19158806.63416     -2097.15116        37.40016   -438907.90316
R10  20299193.46116      1332.78216        36.90016    304183.88216
C30  24469412.67815     -4023.32815        34.70015 -32098487.21315
R16  22591245.60615     -5108.37615        33.80015  -1106365.37015
C08  39033982.93615      -159.35215        30.10015    -26236.88815
C13  38989620.24815       225.45415        31.60015     56204.05015
C36  24323650.58714     -4289.51314        29.40014   -929941.02014
> 2025 05 03 08 20 19.0000001  0 17                      
G26  21575546.36016      1121.40116        38.50016    254956.56016
G29  20966543.76416     -2825.21316        37.90016   -611155.05916
G25  22484227.79316     -4291.84116        36.00016   -934116.21016
G31  21266879.44616     -1942.54616        37.60016   -409119.00316
G20  24409818.43416     -2310.70516        37.00016   -493013.47216
G28  21798267.27415     -3520.19615        35.20015   -759478.55215
G05  23699741.11115        75.46715        35.30015     33706.91215
G18  21495115.64115      1062.44715        32.50015    248925.39915
C29  21457486.29116     -1608.28716        39.10016   -341314.54916
C26  23654500.33016      1066.37616        37.70016 -30992661.79316
R09  19158991.90616     -2099.01316        37.50016   -441002.91416
R10  20298730.28116      1331.26616        37.10016    305549.17116
C30  24469971.49115     -4027.56115        34.60015 -32102507.65715
R16  22592003.18215     -5103.71615        33.80015  -1111517.64015
C13  38989363.02615       227.78615        31.20015     56437.59215
C08  39033813.85315      -161.17015        30.00015    -26391.49915
C36  24324253.77014     -4282.70814        29.30014   -934223.10714
> 2025 05 03 08 20 20.0000000  0 17                      
G26  21575081.38216      1118.13416        38.60016    256081.45716
G29  20966831.56516     -2825.76116        38.00016   -613974.45616
G20  24410013.59916     -2314.76916        36.60016   -495321.39316
G25  22484798.29816     -4289.30816        35.80016   -938400.62016
G31  21267000.56216     -1943.41816        37.00016   -411056.01716
G05  23699477.29315        75.93015        35.20015     33789.05215
G28  21798682.48615     -3522.64815        35.10015   -762994.66115
G18  21494664.75315      1062.62415        32.70015    249994.00315
C29  21457545.95016     -1608.65916        39.10016   -342917.13616
C26  23654045.84516      1067.53216        37.90016 -30991588.71416
R09  19159138.80416     -2100.51716        37.50016   -443116.22516
R10  20298229.62816      1331.90416        37.10016    306890.85416
C30  24470496.42825     -4029.69125        34.60025 -32106530.35825
R16  22592709.79215     -5106.39215        34.00015  -1116620.95715
C13  38989073.12615       224.95415        31.00015     56669.31815
C08  39033595.60415      -150.12115        29.90015    -26539.20715
C36  24324834.46814     -4290.57114        29.20014   -938503.68314
> 2025 05 03 08 20 21.0000000  0 16                      
G26  21574632.59316      1115.00516        38.60016    257203.65716
G29  20967130.75716     -2825.19016        38.00016   -616793.82016
G20  24410216.85916     -2315.73116        36.30016   -497630.62516
G25  22485367.90416     -4290.68916        35.70016   -942685.32116
G31  21267136.36816     -1941.92616        36.50016   -412992.41016
G05  23699224.56815        75.94815        35.10015     33870.96015
G18  21494222.85915      1058.67515        32.90015    251059.88615
C29  21457619.09916     -1610.01916        38.90016   -344520.81716
R09  19159296.49516     -2100.18216        37.60016   -445223.46116
C26  23653607.54816      1060.70316        37.90016 -30990520.02516
R10  20297753.85716      1329.68916        37.10016    308163.85716
C30  24471029.75925     -4028.04425        35.00025 -32110552.76225
R16  22593436.78915     -5105.11915        34.00015  -1121771.69515
C13  38988792.52115       224.78715        30.90015     56900.28015
C08  39033381.25215      -157.28815        29.90015    -26689.44015
C36  24325425.65814     -4286.57714        29.20014   -942785.79214
> 2025 05 03 08 20 22.0000001  0 16                      
G26  21574212.58316      1119.42916        38.50016    258327.91816
G29  20967457.23116     -2825.01416        38.00016   -619613.04316
G20  24410446.20016     -2314.84416        36.10016   -499939.69116
G05  23698998.52515        74.20315        35.00015     33951.64115
G31  21267292.56016     -1945.65516        36.00016   -414931.07016
G18  21493815.74115      1057.46515        32.90015    252124.06615
G28  21799581.86415     -3522.83715        32.20015   -770027.39315
C29  21457715.03316     -1609.78416        38.80016   -346124.69416
R09  19159479.36816     -2101.73916        37.60016   -447306.24716
C26  23653191.73616      1062.40916        37.70016 -30989451.64816
R10  20297293.37616      1331.03216        37.10016    309513.89216
C30  24471594.86716     -4028.03416        35.60016 -32114575.04816
R16  22594182.07315     -5098.94715        33.90015  -1126858.23615
C13  38988540.69515       224.93915        31.00015     57131.10015
C08  39033198.67915      -160.96115        30.40015    -26842.95315
C36  24326034.53714     -4285.66214        29.10014   -947066.00014
> 2025 05 03 08 20 22.9999998  0 17                      
G26  21573674.75616      1116.00716        38.40016    259450.58716
G29  20967675.18116     -2828.01116        38.00016   -622434.21716
G20  24410558.62216     -2314.35016        36.10016   -502248.37216
G31  21267329.13416     -1940.32516        35.80016   -416866.93216
G05  23698657.66115        75.28615        34.90015     34032.63415
G18  21493284.80915      1060.76015        32.80015    253189.87615
G25  22486462.74615     -4294.44915        34.30015   -951248.91815
G28  21799927.82415     -3524.05615        30.50015   -773545.58815
C29  21457697.64516     -1609.14116        38.60016   -347728.20816
R09  19159538.72716     -2099.00216        37.60016   -449368.40316
C26  23652656.30716      1066.45116        37.60016 -30988380.68116
R10  20296711.77916      1328.31116        37.00016    310870.79316
C30  24472040.35926     -4028.07926        36.10026 -32118597.32526
R16  22594811.33815     -5107.72015        33.80015  -1131966.93915
C13  38988171.05115       229.36215        31.60015     57364.82115
C08  39032905.48215      -160.94715        31.30015    -26997.54815
C36  24326530.69314     -4287.50614        29.00014   -951345.90114
> 2025 05 03 08 20 24.0000001  0 17                      
G29  20968077.50216     -2825.96116        38.30016   -625254.63916
G26  21573332.09316      1118.77116        38.40016    260574.60316
G31  21267572.56616     -1945.72516        35.70016   -418805.42516
G20  24410868.90716     -2315.09116        36.00016   -504557.38216
G05  23698508.66415        76.98615        34.80015     34114.90115
G18  21492946.34315      1059.76115        32.80015    254255.59815
G25  22487159.76315     -4290.90615        33.40015   -955533.92715
G28  21800468.35014     -3525.25014        29.20014   -777064.54214
C29  21457880.51826     -1611.34326        38.60026   -349333.03226
R09  19159801.34616     -2102.25216        37.80016   -451459.55716
C26  23652323.53716      1065.52316        37.50016 -30987309.43416
R10  20296334.34026      1329.93126        37.00026    312197.22126
C30  24472685.81216     -4026.29116        36.20016 -32122618.37016
R16  22595621.07715     -5102.39715        33.80015  -1136980.82815
C13  38987998.37015       224.69115        32.30015     57596.43215
C08  39032805.05115      -159.32815        31.70015    -27151.38915
C36  24327227.71114     -4283.47414        28.80014   -955625.70914
> 2025 05 03 08 20 24.9999998  0 17                      
G29  20968284.35916     -2824.45716        38.70016   -628073.85616
G26  21572794.56516      1114.33716        38.30016    261696.06416
G31  21267613.93716     -1946.15716        36.20016   -420745.13216
G20  24410979.53116     -2317.96416        35.90016   -506868.46616
G05  23698168.69915        71.34015        35.00015     34193.78015
G18  21492423.50515      1059.50815        32.70015    255321.07615
G25  22487639.73115     -4293.59615        32.90015   -959820.76715
G28  21800815.21014     -3526.40114        28.20014   -780584.56614
C29  21457861.33226     -1609.81226        39.10026   -350937.32226
R09  19159878.39216     -2100.87416        38.10016   -453617.22016
C26  23651790.20616      1062.68516        37.40016 -30986240.03316
R10  20295752.14316      1328.30016        36.90016    313556.40816
C30  24473127.40616     -4027.48916        36.20016 -32126639.85216
C13  38987624.52915       226.29915        32.90015     57828.36315
R16  22596268.02915     -5099.68515        33.70015  -1142182.77815
C08  39032511.85415      -158.86315        31.70015    -27304.71715
C36  24327732.86114     -4278.09214        28.60014   -959898.21914
> 2025 05 03 08 20 25.9999999  0 17                      
G29  20968616.52916     -2825.34216        38.70016   -630893.24816
G26  21572376.65416      1118.03516        38.10016    262819.15016
G31  21267776.12516     -1947.06916        36.50016   -422685.83916
G20  24411218.46516     -2317.82916        35.90016   -509180.13916
G05  23697945.05415        71.90915        35.40015     34271.92115
G18  21492011.89015      1057.04715        32.70015    256384.84215
G25  22488257.60315     -4292.45915        32.60015   -964107.44615
G28  21801271.79414     -3532.36814        27.30014   -784108.91214
C29  21457965.36016     -1614.00316        39.10016   -352544.21516
R09  19160055.86916     -2105.47116        38.30016   -455670.20816
C26  23651376.19316      1062.47916        37.30016 -30985171.37316
R10  20295300.35616      1326.66716        36.90016    314860.68216
C30  24473697.91116     -4027.48716        36.20016 -32130661.46616
C13  38987373.30315       222.27715        33.50015     58057.73215
R16  22597009.71615     -5114.88015        33.50015  -1147251.74315
C08  39032328.38115      -157.53915        31.70015    -27456.97915
C36  24328343.83814     -4286.92014        28.40014   -964174.57114
> 2025 05 03 08 20 26.9999998  0 17                      
G29  20968908.22716     -2828.21316        39.00016   -633714.57716
G31  21267896.64216     -1941.78216        36.70016   -424623.31816
G20  24411410.93216     -2319.06816        35.80016   -511492.79916
G05  23697686.93315        76.58015        35.40015     34352.96715
G18  21491559.50315      1060.55115        32.70015    257450.41115
G25  22488829.90715     -4290.29015        32.40015   -968392.58915
G26  21571907.47916      1116.83116        37.40016    263942.01216
G28  21801703.49514     -3532.45214        26.60014   -787634.71914
C29  21458024.71916     -1608.76416        39.00016   -354148.44616
R09  19160198.57126     -2103.65726        38.40026   -457761.36226
C30  24474221.04926     -4029.24126        36.60026 -32134684.25726
R10  20294794.90616      1328.05516        36.80016    316229.82116
C26  23650925.30516      1062.04316        37.10016 -30984103.21516
C13  38987079.50615       226.76215        34.10015     58289.27315
R16  22597714.82815     -5100.87515        33.40015  -1152347.41215
C08  39032115.82815      -162.81815        31.60015    -27612.36915
C36  24328919.14014     -4289.84414        28.20014   -968455.94114
> 2025 05 03 08 20 27.9999999  0 17                      
G29  20969233.50216     -2828.30516        39.30016   -636536.66116
G31  21268058.82916     -1947.02316        36.80016   -426563.26416
G05  23697465.38616        70.67516        35.70016     34430.99616
G20  24411641.47216     -2316.80616        35.70016   -513804.32716
G18  21491151.18615      1056.67015        32.90015    258513.94415
G26  21571487.77016      1114.59216        36.40016    265063.25816
G25  22489437.28715     -4294.67815        32.30015   -972680.19415
G28  21802172.07014     -3524.01914        26.10014   -791155.43914
C29  21458123.05116     -1612.30616        39.10016   -355754.20016
R09  19160390.73826     -2104.59326        38.60026   -459892.28326
C30  24474786.15826     -4028.98726        36.80026 -32138707.31926
R10  20294344.61826      1326.88926        36.70026    317525.70426
C26  23650514.58916      1064.37616        36.90016 -30983033.71616
C13  38986831.27815       230.28015        34.30015     58523.83415
R16  22598477.20015     -5102.28415        33.20015  -1157524.90315
C08  39031941.94915      -160.54615        31.60015    -27767.33515
C36  24329529.81714     -4290.70914        28.10014   -972740.11114
> 2025 05 03 08 20 28.9999999  0 18                      
G29  20969535.09316     -2829.83716        39.40016   -639360.00716
G31  21268192.23716     -1944.47916        36.90016   -428502.32416
G05  23697212.66116        71.67316        36.00016     34508.69616
G20  24411842.03316     -2318.87816        35.60016   -516116.84716
G16  23582900.89715      2110.00515        33.70015      2115.51515
G26  21571038.68116      1118.42016        35.70016    266186.53016
G18  21490710.19115      1056.62515        33.20015    259576.78215
G25  22490008.09115     -4294.04015        32.30015   -976968.18315
G28  21802604.07114     -3523.95114        25.80014   -794674.40614
C29  21458197.39926     -1612.70326        39.10026   -357360.71526
R09  19160546.63016     -2104.09416        38.60016   -461991.11416
C30  24475322.18716     -4028.29916        36.80016 -32142730.00216
R10  20293851.15926      1326.38226        36.60026    318893.28326
C26  23650070.29716      1061.60016        36.70016 -30981965.60916
C13  38986549.17415       217.40515        34.60015     58750.83215
R16  22599187.40815     -5114.70015        33.00015  -1162586.22315
C08  39031737.79015      -159.56115        31.50015    -27921.49115
C36  24330118.60914     -4287.75514        27.90014   -977023.57314
> 2025 05 03 08 20 29.9999999  0 18                      
G29  20969840.58116     -2824.33516        39.40016   -642180.10516
G31  21268325.04516     -1952.04016        36.90016   -430446.12916
G28  21803020.78314     -3525.96314        26.30014   -798194.13014
G05  23696963.83316        69.59716        36.00016     34584.90316
G16  23582263.53925      2110.65125        35.40025      4232.03125
G20  24412039.29716     -2321.69816        35.50016   -518431.57916
G26  21570589.29215      1110.80515        35.40015    267305.39915
G18  21490276.99115      1060.86015        33.30015    260642.21015
G25  22490588.19015     -4292.15515        32.40015   -981255.04315
C29  21458269.94916     -1614.96016        39.00016   -358968.98716
R09  19160693.52816     -2107.31016        38.60016   -464041.04616
R10  20293373.29016      1324.76516        36.60016    320176.96116
C30  24475860.31416     -4031.50816        36.70016 -32146754.69716
C26  23649629.90216      1062.22616        36.50016 -30980897.54916
C13  38986269.76715       224.03515        34.90015     58979.72815
R16  22599903.31315     -5099.61315        32.90015  -1167676.57715
C08  39031524.03815      -161.62315        31.40015    -28076.75215
C36  24330702.00514     -4288.40914        27.90014   -981306.89514
> 2025 05 03 08 20 30.9999999  0 18                      
G29  20970154.76416     -2829.51016        39.30016   -645002.53316
G31  21268474.64116     -1948.18716        36.90016   -432388.91216
G05  23696736.59116        69.54516        36.00016     34660.61416
G20  24412263.84116     -2317.49016        35.50016   -520744.20516
G16  23581646.86615      2110.94315        35.40015      6348.77815
G26  21570152.79415      1112.36415        35.10015    268423.87815
G18  21489857.28115      1060.44615        33.30015    261708.26315
G28  21803473.46915     -3523.67715        33.40015   -801712.54515
G25  22491192.87115     -4295.29615        32.50015   -985543.58315
R09  19160872.80416     -2109.21116        38.60016   -466167.34616
C29  21458360.78616     -1614.03616        38.90016   -360577.19316
C30  24476414.63116     -4029.17416        36.60016 -32150778.47016
R10  20292897.81926      1327.10926        36.50026    321545.34026
C26  23649205.69616      1063.26516        36.30016 -30979828.77516
C13  38986004.45115       220.92015        35.00015     59207.21615
R16  22600634.50615     -5098.83115        32.70015  -1172750.84915
C08  39031339.96615      -161.99215        31.40015    -28232.59015
C36  24331306.98714     -4287.96114        28.00014   -985588.30414
> 2025 05 03 08 20 31.9999999  0 18                      
G29  20970452.45816     -2830.68316        39.30016   -647826.57016
G31  21268605.95016     -1948.63716        36.90016   -434331.70216
G05  23696483.56616        68.92016        36.00016     34735.69416
G20  24412466.80115     -2318.26515        35.40015   -523056.69515
G16  23581001.41215      2108.20915        35.30015      8463.73115
G26  21569711.20015      1114.29015        35.00015    269543.46115
G28  21803906.67015     -3531.65515        33.80015   -805235.89215
G18  21489419.28515      1051.04315        33.30015    262768.20615
G25  22491766.67415     -4294.59215        32.50015   -989832.26315
R09  19161028.09616     -2105.68416        38.50016   -468262.35716
C30  24476948.26126     -4030.72026        37.40026 -32154803.01626
C29  21458431.23716     -1616.08516        38.70016   -362186.79116
R10  20292422.94816      1325.48616        36.40016    322812.24016
C26  23648761.40316      1061.42316        36.20016 -30978761.04016
C13  38985727.44315       227.44515        35.00015     59438.53715
R16  22601336.92015     -5105.44015        32.60015  -1177770.13215
C08  39031130.71015      -163.20415        31.50015    -28389.47815
C36  24331885.88614     -4284.97914        28.20014   -989866.94814
> 2025 05 03 08 20 32.9999999  0 18                      
G29  20970758.84616     -2830.38516        39.20016   -650650.93116
G28  21804335.37316     -3525.56716        35.90016   -808756.81216
G31  21268741.75616     -1950.69016        36.90016   -436275.85116
G05  23696229.34216        73.37916        35.90016     34813.55016
G20  24412674.85715     -2322.85015        35.40015   -525372.18415
G16  23580367.05215      2107.07415        35.30015     10577.34115
G26  21569257.61415      1115.17715        34.90015    270664.01615
G18  21488981.58815      1056.58115        33.30015    263829.81815
G25  22492340.77615     -4295.42415        32.50015   -994121.53315
R09  19161188.18516     -2108.21816        38.40016   -470383.34616
C30  24477486.38926     -4031.04926        37.60026 -32158828.02626
C29  21458504.38716     -1613.89616        38.40016   -363795.38116
C26  23648319.50916      1059.95316        36.00016 -30977694.61916
R10  20291919.59616      1318.88916        36.20016    324232.44316
C13  38985443.83915       221.07915        34.90015     59666.90415
R16  22602073.81015     -5111.94515        32.40015  -1182971.31615
C08  39030921.45515      -164.34415        31.70015    -28547.46315
C36  24332474.67814     -4287.31314        28.20014   -994149.92214
> 2025 05 03 08 20 33.9999999  0 18                      
G28  21804783.56227     -3528.98827        44.40027   -812279.16727
G29  20971078.42516     -2829.99116        39.10016   -653475.10116
G31  21268893.45116     -1947.37916        36.90016   -438218.20816
G05  23695991.60616        63.56116        35.90016     34885.82116
G16  23579741.68515      2110.09615        35.30015     12692.55415
G20  24412895.80415     -2321.43015        35.40015   -527687.69015
G26  21568822.31515      1112.09715        34.90015    271782.87915
G18  21488566.07515      1054.51815        33.30015    264890.64615
G25  22492934.66515     -4292.12615        32.50015   -998408.76315
R09  19161359.96716     -2109.91416        38.40016   -472468.38616
C30  24478041.90426     -4029.89826        37.70026 -32162852.38626
C29  21458595.22416     -1615.49916        38.20016   -365404.66916
C26  23647895.60326      1062.46326        36.20026 -30976626.92726
R10  20291458.81516      1323.98616        36.10016    325522.26416
C13  38985181.22115       221.16415        34.90015     59894.37815
C08  39030734.38515      -163.88915        31.90015    -28705.47515
R16  22602801.40615     -5100.30115        32.20015  -1188027.24315
C36  24333075.46214     -4289.87414        28.10014   -998432.23714
> 2025 05 03 08 20 34.9999999  0 18                      
G28  21805216.46327     -3531.40927        44.90027   -815803.66427
G29  20971375.21916     -2829.85016        39.10016   -656299.16316
G31  21269026.85916     -1951.38316        36.80016   -440162.68716
G26  21568372.92615      1110.29715        35.30015    272899.92815
G16  23579104.02615      2108.88215        35.40015     14807.44515
G05  23695744.87716        66.93716        35.80016     34958.43316
G20  24413099.66315     -2320.31515        35.40015   -530002.50615
G18  21488117.58615      1049.75115        33.30015    265947.98715
G25  22493514.76415     -4298.28015        32.40015  -1002699.46615
C30  24478575.53526     -4030.14626        37.70026 -32166876.74526
R09  19161516.45816     -2110.03116        38.20016   -474570.27416
C29  21458665.67516     -1613.87016        38.00016   -367013.15116
C26  23647455.80726      1060.77126        36.80026 -30975559.98726
R10  20290980.04716      1323.64416        35.90016    326809.75616
C13  38984899.71615       220.89915        34.80015     60121.33015
C08  39030525.43015      -162.14315        31.90015    -28862.38015
R16  22603531.70115     -5106.17415        32.10015  -1193194.80015
C36  24333659.75814     -4293.35214        28.20014  -1002716.54314
> 2025 05 03 08 20 35.9999999  0 18                      
G28  21805647.86417     -3530.06317        44.70017   -819327.96417
G26  21567925.03616      1116.14616        39.30016    274020.28416
G29  20971675.31116     -2828.12816        39.00016   -659122.02816
G31  21269157.86816     -1954.61516        36.70016   -442110.01616
G16  23578460.67116      2110.37816        35.50016     16923.23716
G05  23695497.54816        66.21716        35.70016     35030.69016
G20  24413309.51815     -2326.80015        35.30015   -532321.40415
G18  21487677.79015      1055.05615        33.40015    267007.71415
G25  22494098.46015     -4291.76915        32.40015  -1006986.97315
C30  24479109.76526     -4029.79426        37.90026 -32170900.85626
C26  23647012.41426      1060.40726        37.30026 -30974493.52926
R09  19161680.44516     -2110.17216        38.10016   -476712.65616
C29  21458735.82616     -1614.84616        37.80016   -368622.00316
R10  20290486.88826      1323.89526        35.80026    328175.04726
C13  38984619.70915       221.85215        34.80015     60348.75615
C08  39030326.06815      -162.28515        31.80015    -29018.99815
R16  22604245.50615     -5107.44915        31.90015  -1198274.46315
C36  24334256.34514     -4290.63914        28.30014  -1007003.18314
> 2025 05 03 08 20 37.0000000  0 18                      
G28  21806112.24317     -3529.42617        44.30017   -822851.77417
G26  21567500.83016      1111.77116        40.60016    275138.82716
G29  20972007.78116     -2834.37016        39.00016   -661948.65616
G31  21269317.65816     -1953.17516        37.20016   -444057.33416
G18  21487271.57126      1051.95826        37.10026    268066.17126
G16  23577850.89316      2108.27616        35.60016     19037.92816
G05  23695281.39816        64.02816        35.70016     35101.37116
G20  24413537.95915     -2324.90315        35.20015   -534640.39815
G25  22494708.53715     -4296.17215        32.40015  -1011276.35015
C30  24479675.77326     -4032.31526        38.00026 -32174926.56526
C26  23646599.30016      1060.33316        37.70016 -30973427.28116
R09  19161868.41516     -2106.77916        38.00016   -478821.42016
C29  21458843.75216     -1618.23616        37.60016   -370233.23916
R10  20290030.30426      1322.20826        35.70026    329505.25126
C13  38984372.38115       220.15615        34.80015     60575.20915
C08  39030147.99115      -161.63915        31.70015    -29175.09115
R16  22605012.97515     -5106.59315        31.70015  -1203479.46815
C36  24334867.92114     -4294.06014        28.30014  -1011289.13214
> 2025 05 03 08 20 37.9999999  0 17                      
G28  21806537.34817     -3530.81617        43.80017   -826376.31217
G26  21567040.64816      1110.22816        40.50016    276255.77216
G29  20972297.08116     -2831.78016        38.90016   -664774.77416
G31  21269441.77216     -1954.00616        37.70016   -446005.16716
G16  23577200.34416      2107.03616        36.10016     21151.46216
G05  23695020.27916        64.64116        35.70016     35171.97016
G20  24413728.92715     -2326.58215        35.10015   -536960.50715
G18  21486819.18516      1054.53316        36.80016    269125.95816
G25  22495282.64015     -4297.69015        32.40015  -1015567.32615
C26  23646147.21316      1057.77016        37.70016 -30972362.77416
C30  24480204.60716     -4028.78016        37.90016 -32178950.41416
C29  21458901.61216     -1613.53316        37.50016   -371842.09816
R10  20289530.55026      1318.70726        35.60026    330843.88226
C13  38984085.17915       227.85815        34.80015     60806.50815
C08  39029925.24515      -165.81115        31.70015    -29333.75315
R16  22605717.18815     -5103.35315        31.60015  -1208570.55715
C36  24335442.92314     -4290.90414        28.40014  -1015575.31114
> 2025 05 03 08 20 39.0000000  0 18                      
G28  21806999.02917     -3532.48217        43.40017   -829902.25017
G26  21566618.84026      1112.02626        40.60026    277373.33526
G16  23576594.16326      2109.61226        38.20026     23266.27926
G29  20972625.95316     -2831.11816        38.80016   -667600.33016
G31  21269609.95516     -1956.24816        37.90016   -447954.71316
G05  23694801.13116        72.94716        35.70016     35248.03216
G20  24413962.76515     -2326.33515        35.10015   -539280.87115
G18  21486413.56516      1050.66916        36.30016    270183.56416
G25  22495886.12215     -4296.84415        32.30015  -1019858.31915
C26  23645735.89816      1057.98516        37.70016 -30971298.75416
C30  24480767.01816     -4028.83316        37.80016 -32182973.72616
C29  21459000.84316     -1621.75016        37.30016   -373455.69016
R10  20289073.66726      1321.37926        35.70026    332175.61326
C13  38983829.45615       222.05115        34.70015     61035.50415
C08  39029754.66315      -165.04215        31.70015    -29492.80715
R16  22606483.75715     -5102.54615        31.50015  -1213771.74015
R09  19162187.99316     -2114.49616        36.10016   -482961.74116
C36  24336066.79214     -4284.79114        28.40014  -1019855.82614
> 2025 05 03 08 20 40.0000000  0 19                      
G28  21807435.22727     -3532.11027        43.00027   -833428.39627
G26  21566170.35116      1109.70216        40.60016    278489.56716
G29  20972932.04116     -2832.78216        38.70016   -670426.79716
G31  21269742.76316     -1957.18316        37.90016   -449905.44416
G16  23575946.61226      2108.37926        38.00026     25380.71426
G05  23694539.71116        62.14816        35.60016     35318.72616
G20  24414169.02216     -2326.75516        35.50016   -541601.58816
G04  25004874.38625     -1588.15925        33.50025                
G18  21485970.77216      1053.48416        35.70016    271242.33116
G25  22496469.81815     -4283.90415        31.50015  -1024140.68015
C26  23645296.10226      1059.42326        38.60026 -30970233.92526
C30  24481303.64616     -4035.89516        37.70016 -32187001.55616
C29  21459077.29016     -1617.48116        37.00016   -375068.00316
R10  20288588.90216      1321.92616        35.70016    333495.14116
C13  38983544.95315       221.16215        34.60015     61263.15015
R09  19162355.57715     -2113.79615        34.80015   -485122.46115
C08  39029543.90915      -166.34715        31.80015    -29652.85015
R16  22607196.36415     -5108.83215        31.40015  -1218844.52515
C36  24336654.08514     -4289.37114        28.30014  -1024137.08414
> 2025 05 03 08 20 40.9999999  0 19                      
G28  21807856.73527     -3535.44327        42.70027   -836956.79727
G26  21565708.67116      1111.29816        40.70016    279606.45616
G31  21269863.58016     -1956.42816        38.00016   -451856.02816
G29  20973223.73916     -2828.90716        38.50016   -673250.94616
G16  23575299.06026      2107.12726        37.60026     27494.22426
G20  24414364.78716     -2322.71916        35.90016   -543919.69616
G05  23694281.89016        62.75016        35.80016     35388.07016
G04  25004923.55215     -1592.98715        34.10015     -1585.99015
G18  21485525.58015      1049.59715        35.20015    272298.93115
G25  22497037.92515     -4286.81415        30.50015  -1028422.06615
C26  23644840.11826      1057.48626        39.10026 -30969170.08126
C30  24481827.68316     -4026.94716        37.50016 -32191024.89016
C29  21459139.64716     -1618.99016        36.90016   -376680.85816
R10  20288088.54916      1314.92016        35.60016    334836.82216
C13  38983257.45215       222.02915        34.50015     61490.96115
R09  19162501.57615     -2115.67715        34.40015   -487231.18815
C08  39029324.76115      -162.32415        31.90015    -29810.50515
R16  22607901.77515     -5112.33115        31.20015  -1223942.49315
C36  24337224.29014     -4292.29714        28.20014  -1028421.96814
> 2025 05 03 08 20 42.0000000  0 19                      
G28  21808319.91427     -3531.06027        42.50027   -840483.07527
G26  21565291.65926      1111.10126        40.90026    280723.38326
G31  21270026.36716     -1957.24016        38.20016   -453807.15416
G29  20973546.61616     -2834.21816        38.40016   -676077.91216
G20  24414598.62516     -2328.27816        36.00016   -546240.68816
G16  23574690.18226      2108.47226        37.30026     29608.27326
G05  23694065.74016        65.12016        35.90016     35458.49416
G18  21485118.46215      1049.96515        34.90015    273355.00515
G04  25005000.89815     -1596.71515        33.90015     -3176.84215
G25  22497655.49715     -4297.53515        29.80015  -1032710.32315
C26  23644429.10226      1057.80426        39.60026 -30968106.40226
C30  24482394.89116     -4032.09916        37.40016 -32195050.20716
C29  21459241.87616     -1618.45216        36.80016   -378293.58416
R10  20287639.16016      1320.18516        35.60016    336128.89316
R09  19162690.74515     -2116.28915        34.70015   -489347.59215
C13  38983006.22615       221.85315        34.40015     61718.66215
C08  39029146.98415      -166.90115        31.90015    -29970.46215
R16  22608629.97115     -5107.45015        31.10015  -1228938.07315
C36  24337836.46614     -4290.86714        28.10014  -1032705.89914
> 2025 05 03 08 20 43.0000000  0 19                      
G28  21808755.21317     -3532.32717        42.30017   -844009.48017
G26  21564841.67126      1110.23426        41.00026    281839.75826
G18  21484681.66416      1052.07716        37.00016    274412.32416
G31  21270161.87326     -1957.54426        38.30026   -455758.65126
G29  20973849.40616     -2835.64516        38.20016   -678906.75716
G16  23574055.82126      2108.92426        37.00026     31722.81526
G05  23693813.61416        66.37116        35.90016     35530.12616
G20  24414804.28316     -2327.00416        36.00016   -548561.78116
G04  25005071.34915     -1599.73715        33.50015     -4769.71015
G25  22498226.30214     -4292.76614        29.40014  -1036997.68014
C26  23643989.60726      1058.45426        39.90026 -30967042.33226
C30  24482929.42116     -4026.79216        37.30016 -32199072.63716
C29  21459313.82616     -1617.81916        36.60016   -379905.83216
R09  19162847.53715     -2115.16015        35.40015   -491450.24415
R10  20287153.79616      1319.64816        35.50016    337452.23316
C13  38982722.62315       218.21715        34.40015     61943.91315
C08  39028948.82115      -163.61115        32.10015    -30128.98215
R16  22609351.87115     -5104.09015        30.90015  -1234060.53315
C36  24338420.46214     -4290.66014        28.00014  -1036990.77114
> 2025 05 03 08 20 44.0000000  0 19                      
G26  21564409.07026      1109.59126        41.00026    282955.55526
G18  21484258.95716      1050.30116        39.70016    275468.91016
G31  21270312.06926     -1955.79326        38.80026   -457709.06726
G29  20974173.18216     -2835.68716        38.10016   -681736.21916
G16  23573435.55026      2108.39626        36.90026     33837.20726
G20  24415031.82516     -2329.60516        36.00016   -550884.60416
G05  23693583.37416        61.94416        35.90016     35599.24416
G28  21809205.20116     -3531.89416        40.50016   -847535.60016
G04  25005158.88915     -1591.60815        33.10015     -6357.79315
G25  22498821.39014     -4293.77714        29.00014  -1041285.37414
C26  23643566.00026      1058.19626        39.90026 -30965978.26826
C30  24483490.03316     -4030.80916        37.20016 -32203096.74516
C29  21459405.56316     -1621.48616        36.60016   -381520.33016
R09  19163019.91716     -2117.41916        36.00016   -493538.34116
R10  20286687.31915      1318.34815        35.40015    338772.56015
C13  38982464.20215       219.98815        34.30015     62169.56615
C08  39028755.45515      -166.08815        32.60015    -30288.63815
R16  22610089.36115     -5105.93615        30.80015  -1239168.43915
C36  24339023.04514     -4292.83714        27.90014  -1041274.61014
> 2025 05 03 08 20 45.0000000  0 19                      
G26  21563961.18026      1108.58826        41.00026    284070.44426
G18  21483818.56216      1051.70216        40.30016    276526.13816
G31  21270447.87526     -1957.02426        39.10026   -459659.99326
G29  20974471.17616     -2837.63516        38.00016   -684567.23416
G16  23572793.69526      2108.32126        36.80026     35951.44926
G05  23693331.24816        59.21716        36.00016     35665.65816
G20  24415233.88516     -2332.45016        36.00016   -553209.95016
G28  21809639.90016     -3531.70916        38.80016   -851061.55116
G04  25005225.44315     -1593.44915        32.90015     -7945.55715
G25  22499404.18714     -4293.98814        28.80014  -1045573.37014
C26  23643124.10626      1056.35926        39.80026 -30964915.47926
C30  24484023.96316     -4035.40116        37.50016 -32207124.52316
C29  21459478.11216     -1621.74116        37.00016   -383135.79716
R09  19163181.20616     -2117.18516        36.40016   -495666.20616
R10  20286199.25625      1315.42825        35.30025    340110.39025
C13  38982187.49315       217.48015        34.30015     62393.63115
C08  39028550.39715      -165.43415        32.90015    -30448.28515
R16  22610796.27115     -5114.26115        30.70015  -1244211.41315
C36  24339615.13514     -4292.39414        27.90014  -1045561.50014
