     4.01           OBSERVATION DATA    M                   RINEX VERSION / TYPE
GnssLogger          samsung 13          20250508 105745 UTC PGM / RUN BY / DATE
Google GnssLogger                                           MARKER NAME
Unknown                                                     MARKER NUMBER
Unknown             Unknown                                 OBSERVER / AGENCY
Unknown             GnssLogger          v3.1.0.4            REC # / TYPE / VERS
Unknown             Unknown                                 ANT # / TYPE
        0.0000        0.0000        0.0000                  ANTENNA: DELTA H/E/N
G    4 C1C L1C D1C S1C                                      SYS / # / OBS TYPES
R    4 C1C L1C D1C S1C                                      SYS / # / OBS TYPES
C    4 C2C L2C D2C S2C                                      SYS / # / OBS TYPES
  2025    05    08    10    57   45.0000000     GPS         TIME OF FIRST OBS
 2 R16 -1 R18 -3                                            GLONASS SLOT / FRQ #
samsung SM-A515F (Android 13) HW Year: 2016 HW Model:       COMMENT
S.LSI,K102                                                  COMMENT
                                                            END OF HEADER
> 2025 05 08 10 57 45.0000000  0 6                      
G23  21296498.04115     -1521.79015     -1528.04015        31.70015
G27  20421363.38415         9.77215         3.15815        31.60015
G16  20612457.69214     -2737.64114     -2744.34014        29.30014
G10  21976265.74814      1113.84214      1108.12514        28.10014
G02  24436031.38714      1753.71514      1746.08814        26.80014
R16  19968396.46716     -2461.07716     -2504.91316        36.10016
> 2025 05 08 10 57 46.0000000  0 8                      
G23  21296551.70415     -3048.76215     -1535.39815        31.70015
G27  20421116.65515        18.23915         1.97915        31.60015
G16  20612745.79315     -5476.15515     -2744.78515        29.60015
G10  21975812.16214      2226.79614      1106.67414        28.20014
G02  24435456.08614      3508.90414      1750.09014        26.90014
G26  22255637.54314     -8695.27914     -4361.93414        23.90014
C11  21890711.27616     -3291.54616     -1653.11516        38.80016
R16  19968627.90726     -4964.97326     -2505.69126        36.10026
> 2025 05 08 10 57 47.0000001  0 8                      
G23  21296634.44715     -4573.39015     -1529.31715        31.80015
G27  20420904.40215        25.89315         1.38415        31.50015
G16  20613062.67415     -8215.48315     -2745.59615        29.90015
G10  21975386.75614      3339.71414      1107.03514        28.20014
G02  24434920.05714      5267.93214      1755.08214        27.10014
G26  22256267.10713    -13053.71913     -4364.30013        22.80013
C11  21890821.30026     -4938.12126     -1652.38426        38.80026
R16  19968892.32426     -7482.62726     -2507.62426        36.00026
> 2025 05 08 10 57 48.0000000  0 8                      
G23  21296672.82015     -6101.43515     -1535.67015        31.80015
G27  20420654.37515        33.08215         1.03915        31.40015
G16  20613330.98815    -10955.78215     -2746.70115        30.00015
G10  21974944.86214      4452.93814      1107.45914        28.30014
G02  24434335.76114      7024.70214      1749.72214        27.20014
G26  22256854.70013    -17419.30413     -4375.07213        21.90013
C11  21890892.35126     -6585.29626     -1653.33726        38.80026
R16  19969114.77026     -9999.47926     -2508.96726        36.00026
> 2025 05 08 10 57 48.9999998  0 8                      
G23  21296653.03415     -7628.51915     -1532.53115        31.90015
G27  20420338.99315        41.60015         3.25415        31.40015
G16  20613533.34815    -13695.68515     -2745.63015        30.30015
G10  21974419.92614      5562.44214      1101.71514        28.50014
G02  24433672.32114      8777.28514      1744.56014        27.40014
G26  22257360.15013    -21789.18813     -4377.95613        21.10013
C11  21890891.45126     -8233.26326     -1654.23626        38.80026
R16  19969263.46726    -12478.09726     -2510.55726        36.00026
> 2025 05 08 10 57 49.9999999  0 8                      
G23  21296742.67215     -9157.01715     -1535.04015        31.90015
G27  20420137.23315        47.62315        -1.05915        31.30015
G16  20613851.42815    -16438.22015     -2749.68615        30.60015
G10  21973993.62114      6670.08014      1100.86714        28.60014
G02  24433137.79114     10532.30214      1750.39814        27.60014
G26  22257983.11913    -26162.10213     -4380.26313        20.40013
C11  21890999.37626     -9882.16126     -1655.14526        38.90026
R16  19969522.48726    -14969.00026     -2512.07426        36.00026
> 2025 05 08 10 57 50.9999999  0 8                      
G23  21296794.23625                     -1536.09425        31.90025
G27  20419901.89625                        -1.81325        31.30025
G16  20614141.02725                     -2750.66925        30.80025
G10  21973547.53024                      1104.08424        28.60024
G02  24432570.28424                      1748.78324        27.80024
G26  22258580.60523                     -4378.59123        19.80023
C11  21891079.12126                     -1655.82926        38.90026
R16  19969758.42426                     -2513.26626        36.00026
> 2025 05 08 10 57 51.9999999  0 8                      
G23  21296847.00015     -1530.58615     -1536.91315        32.00015
G16  20614424.93115     -2745.18215     -2751.60815        31.10015
G27  20419653.06815         4.05415        -2.13715        31.20015
G10  21973096.04214      1110.70114      1105.59914        28.70014
G02  24431997.98014      1751.51014      1744.01514        27.90014
G26  22259177.19213     -4369.29813     -4373.41013        19.30013
C11  21891159.16626     -1650.31726     -1656.46226        38.90026
R16  19969999.15726     -2552.04926     -2514.71126        36.00026
> 2025 05 08 10 57 53.0000000  0 8                      
G23  21296907.85725     -3062.71225     -1538.84025        32.00025
G16  20614719.92615     -5491.31615     -2752.55515        31.30015
G27  20419433.32015         7.09715        -3.40815        31.20015
G10  21972671.83614      2217.47114      1098.85714        28.70014
G02  24431440.96514      3503.13414      1745.73414        28.00014
G26  22259771.38113     -8731.35513     -4364.37913        18.90013
C11  21891250.30326     -3301.25326     -1657.13526        38.90026
R16  19970239.29126     -5039.83826     -2516.04426        36.00026
> 2025 05 08 10 57 54.0000000  0 8                      
G23  21296964.81825     -4596.16725     -1539.95525        32.00025
G16  20615005.62915     -8238.24515     -2753.15915        31.50015
G27  20419201.58115         9.48315        -3.77915        31.20015
G10  21972218.55014      3323.77914      1100.24014        28.70014
G02  24430875.55714      5253.53714      1743.95514        28.30014
G26  22260352.37913    -13078.28213     -4345.19413        18.60013
C11  21891332.14626     -4953.08426     -1658.06026        39.00026
R16  19970468.63226     -7529.97626     -2517.47126        36.00026
> 2025 05 08 10 57 54.9999999  0 8                      
G23  21296974.71125     -6131.41125     -1541.33325        32.00025
G16  20615249.95915    -10987.27015     -2756.01715        31.70015
G27  20418911.38215        11.51815        -4.08615        31.10015
G10  21971720.89414      4430.55014      1101.05514        28.60014
G02  24430258.28414      7004.83014      1745.79114        28.40014
G26  22260884.21113    -17410.75613     -4331.19113        18.40013
C11  21891364.22426     -6605.81726     -1659.07526        39.00026
R16  19970663.79726    -10098.01926     -2519.31526        36.00026
> 2025 05 08 10 57 56.0000000  0 8                      
G23  21297045.46225     -7667.61725     -1542.85325        32.10025
G16  20615552.75015    -13738.70715     -2758.55915        31.80015
G27  20418688.33615        13.32515        -4.22515        31.20015
G02  24429703.66814      8753.27814      1741.10614        28.50014
G10  21971283.49714      5534.98714      1097.35214        28.60014
G26  22261493.98813    -21733.81113     -4324.26013        18.70013
C11  21891456.56026     -8259.56526     -1660.11926        39.00026
R16  19970901.23326    -12569.75826     -2520.91726        36.00026
> 2025 05 08 10 57 57.0000000  0 8                      
G16  20615833.05615    -16489.38315     -2756.12915        32.00015
G23  21297095.52825     -9204.95825     -1543.74425        32.10025
G27  20418450.30115        14.64615        -4.75915        31.20015
G02  24429139.75814     10502.25114      1743.39714        28.50014
G10  21970844.90114      6639.35714      1098.50014        28.50014
G26  22262069.59013    -26057.01313     -4329.10613        19.50013
C11  21891538.40326     -9914.04626     -1660.62826        39.00026
R16  19971133.87226    -15078.24026     -2522.25026        36.00026
> 2025 05 08 10 57 57.9999999  0 8                      
G16  20616098.37215    -19241.33915     -2758.51215        32.10015
G23  21297136.00025    -10743.71425     -1545.37925        32.10025
G27  20418200.57415        11.43815       -11.38915        31.20015
G02  24428553.06514     12249.01414      1739.74014        28.70014
G10  21970385.61914      7740.54814      1093.68214        28.50014
G26  22262634.39913    -30386.14713     -4338.01613        20.10013
C11  21891607.65526    -11569.50426     -1661.81026        39.00026
R16  19971357.81726    -17603.50026     -2523.99426        36.00026
> 2025 05 08 10 57 59.0000000  0 8                      
G16  20616399.96325    -21994.49225     -2759.67625        32.10025
G23  21297208.84925    -12283.48325     -1546.20225        32.10025
G27  20417978.12815         8.78215        -8.30915        31.30015
G02  24427987.95614     13996.62214      1742.10014        29.00014
G10  21969942.22514      8843.17814      1097.42114        28.50014
G26  22263232.78513    -34721.59113     -4344.52313        20.70013
C11  21891699.99126    -13225.55626     -1662.22126        39.10026
R16  19971602.14826    -20114.21926     -2524.97326        35.90026
> 2025 05 08 10 57 59.9999999  0 8                      
G16  20616640.99625    -24748.72625     -2760.69125        32.30025
G23  21297212.14725    -13824.24025     -1547.16925        32.10025
G27  20417687.02915         5.75715        -9.12615        31.30015
G02  24427371.88214     15742.60814      1739.25614        29.10014
G10  21969449.36714      9946.22514      1097.33514        28.40014
G26  22263764.31713    -39060.42213     -4346.43813        21.70013
C11  21891733.56826    -14882.21926     -1662.83226        39.10026
R16  19971787.41926    -22627.99526     -2526.25926        35.90026
> 2025 05 08 10 58 00.9999998  0 8                      
G16  20616925.49925    -27504.33825     -2761.38425        32.40025
G23  21297270.30725    -15365.82325     -1547.83025        32.00025
G27  20417463.38415         1.04915       -11.38615        31.40015
G02  24426795.68114     17489.64514      1741.72614        29.30014
G10  21969000.27814     11046.94414      1093.71914        28.50014
G26  22264341.71713    -43397.93313     -4342.68413        22.40013
C11  21891815.11226    -16539.37026     -1663.17726        39.20026
R16  19972020.95826    -25141.82826     -2527.53026        35.80026
> 2025 05 08 10 58 02.0000000  0 8                      
G16  20617223.49325    -30260.62425     -2762.81625        32.60025
G23  21297335.66125    -16908.84825     -1549.69225        32.00025
G27  20417238.84015        -3.71215       -10.73515        31.50015
G02  24426244.66314     19234.64614      1738.03414        29.40014
G10  21968570.37514     12143.71814      1088.85514        28.60014
G26  22264936.20513    -47735.48513     -4343.51613        23.00013
C11  21891905.34926    -18197.33926     -1664.26726        39.20026
R16  19972273.68326    -27696.11326     -2529.02526        35.80026
> 2025 05 08 10 58 03.0000000  0 8                      
G16  20617509.79525    -33017.95325     -2763.68425        32.70025
G23  21297385.72715    -18452.25915     -1550.18715        32.00015
G27  20416997.20715        -8.88415       -11.21315        31.60015
G02  24425683.45115     20979.65015      1739.16915        29.60015
G10  21968129.38014     13239.58014      1089.57014        28.70014
G26  22265533.09213    -52074.70513     -4345.88513        23.40013
C11  21891989.29126    -19855.94126     -1664.70026        39.20026
R16  19972502.12426    -30183.19526     -2530.19526        35.70026
> 2025 05 08 10 58 03.9999998  0 8                      
G16  20617727.74425    -35776.36125     -2764.89125        32.80025
G27  20416684.22415       -15.83715       -13.78915        31.70015
G23  21297367.73925    -19997.67525     -1552.11425        31.90025
G02  24425029.30415     22724.56515      1738.92315        29.80015
G10  21967607.74214     14338.11514      1093.92414        28.80014
G26  22266048.43514    -56418.14714     -4351.49614        23.80014
C11  21891992.28926    -21515.48126     -1665.90026        39.20026
R16  19972656.21826    -32690.85626     -2531.90826        35.70026
> 2025 05 08 10 58 04.9999999  0 8                      
G16  20618049.42125    -38536.10225     -2766.24225        32.90025
G27  20416480.06515       -25.22515       -16.44115        31.70015
G23  21297452.88025    -21544.33425     -1553.11425        31.80025
G02  24424493.87515     24466.03315      1733.90715        30.00015
G10  21967187.43314     15435.24114      1090.58514        29.00014
G26  22266662.71014    -60759.63214     -4346.33814        24.10014
C11  21892105.91026    -23175.83126     -1666.53626        39.20026
R16  19972920.03526    -35205.45226     -2533.53226        35.60026
> 2025 05 08 10 58 05.9999999  0 8                      
G16  20618334.22425    -41297.23125     -2767.68425        32.90025
G27  20416242.92915       -33.48715       -13.56215        31.70015
G23  21297507.74215    -23093.18515     -1555.81015        31.70015
G02  24423924.56915     26209.27615      1738.26615        30.20015
G10  21966744.33914     16527.87814      1084.52814        29.10014
G26  22267254.20114    -65095.64814     -4339.14214        24.40014
C11  21892185.05626    -24837.13626     -1667.59026        39.20026
R16  19973159.86926    -37752.91526     -2534.99426        35.50026
> 2025 05 08 10 58 06.9999999  0 8                      
G16  20618618.42725    -44059.42525     -2768.58725        33.00025
G27  20416009.09115       -44.16015       -17.74215        31.80015
G23  21297562.90415    -24642.67615     -1555.67215        31.60015
G02  24423353.16415     27951.95115      1736.52615        30.30015
G10  21966292.85214     17620.47114      1086.70714        29.20014
G26  22267848.09014    -69434.89314     -4346.71914        24.60014
C11  21892268.69826    -26499.21426     -1668.27426        39.20026
R16  19973394.30726    -40271.33426     -2536.58426        35.50026
> 2025 05 08 10 58 07.9999999  0 8                      
G16  20618908.02725    -46822.46125     -2769.31825        33.10025
G27  20415779.15015       -52.68915       -13.32015        31.80015
G23  21297619.86515    -26194.65315     -1559.08215        31.50015
G02  24422785.65715     29694.84615      1737.14115        30.50015
G10  21965854.55514     18713.91414      1088.00314        29.40014
G26  22268422.49214    -73774.94714     -4346.31814        24.80014
C11  21892351.44026    -28161.78226     -1668.62226        39.20026
R16  19973645.23325    -42879.17725     -2537.32825        35.40025
> 2025 05 08 10 58 09.0000000  0 8                      
G16  20619212.31625    -49586.44225     -2770.39725        33.20025
G27  20415551.60815       -63.81515       -18.37115        31.90015
G23  21297693.01415    -27746.92915     -1558.37115        31.40015
G02  24422228.64315     31437.23315      1736.18415        30.70015
G10  21965415.06015     19806.50615      1086.22015        29.60015
G26  22269032.27014    -78117.55014     -4349.81914        25.00014
C11  21892445.27626    -29824.95026     -1669.35726        39.20026
R16  19973886.26625    -45370.02425     -2538.84825        35.40025
> 2025 05 08 10 58 10.0000001  0 8                      
G16  20619531.29625    -52351.09325     -2770.82125        33.20025
G27  20415349.24815       -74.15715       -15.78615        31.90015
G02  24421689.31615     33175.85715      1730.90715        31.00015
G23  21297780.55315    -29299.00115     -1557.80415        31.30015
G10  21965002.84515     20897.52315      1084.39315        29.80015
G26  22269642.34714    -82461.73014     -4350.80214        25.30014
C11  21892560.09626    -31488.45726     -1669.45926        39.20026
R16  19974153.68125    -47904.49325     -2539.42925        35.30025
> 2025 05 08 10 58 10.9999998  0 8                      
G16  20619724.96125    -55116.72025     -2771.97425        33.30025
G27  20415018.87715       -84.90715       -16.81715        31.90015
G02  24421035.46915     34917.64115      1737.49815        31.20015
G23  21297742.48015    -30851.18915     -1558.10815        31.20015
G10  21964474.61115     21987.86815      1084.14415        30.00015
G26  22270140.30314    -86807.95114     -4353.10014        25.50014
C11  21892551.40226    -33152.53126     -1670.16626        39.30026
R16  19974297.28225    -50420.61825     -2540.93525        35.30025
> 2025 05 08 10 58 11.9999999  0 8                      
G16  20620030.75025    -57882.98525     -2772.52925        33.40025
G27  20414798.82915       -97.46315       -19.40615        31.90015
G02  24420483.85115     36657.97915      1733.66815        31.30015
G23  21297808.43415    -32404.94215     -1560.47915        31.10015
G10  21964048.00615     23076.55715      1081.91515        30.20015
G26  22270743.48514    -91154.35914     -4352.44414        25.70014
C11  21892645.53726    -34816.89526     -1670.39926        39.30026
R16  19974546.40925    -52954.26625     -2541.59225        35.20025
> 2025 05 08 10 58 12.9999999  0 8                      
G16  20620324.24725    -60650.10525     -2773.38025        33.40025
G27  20414564.99125      -110.61625       -19.28725        31.90025
G02  24419910.04815     38398.34915      1734.54915        31.50015
G23  21297866.29415    -33957.87415     -1558.35715        31.00015
G10  21963602.51415     24165.79515      1083.67515        30.30015
G26  22271330.47914    -95498.27714     -4348.50414        25.90014
C11  21892729.47926    -36481.79826     -1670.95426        39.30026
R16  19974786.54325    -55504.78725     -2543.16725        35.20025
> 2025 05 08 10 58 14.0000000  0 8                      
G16  20620645.92425    -63418.39825     -2774.74225        33.50025
G27  20414356.63525      -124.53425       -20.16325        32.00025
G02  24419368.02315     40136.85415      1731.70715        31.60015
G23  21297959.82915    -35513.24315     -1562.44915        30.90015
G10  21963194.49715     25253.63815      1081.28215        30.40015
G26  22271948.35114    -99842.23714     -4349.84114        26.10014
C11  21892839.80226    -38147.45626     -1671.84626        39.30026
R16  19975055.75725    -58047.66325     -2544.41525        35.20025
> 2025 05 08 10 58 15.0000001  0 8                      
G16  20620942.11925    -66187.73125     -2775.79725        33.50025
G27  20414133.29025      -139.27825       -21.10325        32.00025
G02  24418808.01115     41874.97315      1731.97915        31.70015
G10  21962769.09115     26340.92015      1081.05515        30.50015
G23  21298025.48415    -37070.05315     -1563.47615        30.80015
G26  22272546.43714   -104188.42514     -4353.24614        26.20014
C11  21892935.43626    -39813.74726     -1672.49726        39.30026
R16  19975301.88625    -60567.55325     -2545.97925        35.30025
> 2025 05 08 10 58 15.9999998  0 8                      
G16  20621141.18125    -68958.24525     -2776.93725        33.70025
G27  20413818.80725      -155.06325       -22.14225        32.00025
G02  24418153.56415     43613.31915      1732.62115        31.80015
G10  21962233.96215     27427.96015      1081.08215        30.70015
G23  21297992.50715    -38627.83815     -1564.10715        30.80015
G26  22273045.89114   -108534.89014     -4352.43414        26.30014
C11  21892930.34026    -41480.93326     -1673.41526        39.30026
R16  19975452.38225    -63117.30925     -2547.51225        35.30025
> 2025 05 08 10 58 16.9999999  0 8                      
G16  20621464.35725    -71729.67525     -2777.75025        33.80025
G27  20413610.15225      -171.50825       -22.63725        32.00025
G02  24417615.73615     45350.70915      1731.04815        32.00015
G10  21961816.05115     28512.88915      1078.00915        30.80015
G23  21298093.53715    -40187.11415     -1565.88315        30.70015
G26  22273667.96114   -112880.69114     -4351.33014        26.30014
C11  21893041.86226    -43148.69826     -1673.86326        39.30026
R16  19975721.89525    -65663.24325     -2548.49825        35.40025
> 2025 05 08 10 58 17.9999999  0 9                      
G16  20621737.16825    -74502.35225     -2779.24425        33.90025
G02  24417033.24015     47086.96315      1729.73915        32.10015
G27  20413352.33025      -188.96725       -23.91225        32.00025
G10  21961350.47315     29596.87415      1077.56515        31.00015
G23  21298134.00915    -41747.53015     -1566.93115        30.60015
G08  22820360.49314      1651.25514      1645.45714        26.40014
G26  22274236.06714   -117229.93114     -4356.90114        26.40014
C11  21893106.91726    -44817.19126     -1674.74726        39.30026
R16  19975944.64125    -68217.52925     -2550.13325        35.40025
> 2025 05 08 10 58 19.0000000  0 9                      
G16  20622056.14825    -77276.10525     -2780.12525        34.00025
G02  24416496.31125     48821.94725      1729.26225        32.20025
G27  20413152.36925      -207.32225       -24.63925        32.00025
G10  21960931.06415     30680.92515      1078.24915        31.10015
G23  21298223.04715    -43308.45115     -1567.00815        30.60015
G26  22274856.93714   -121580.91614     -4357.69114        26.50014
G08  22819852.34514      3303.51014      1646.39014        26.40014
C11  21893220.53926    -46486.60826     -1675.66126        39.30026
R16  19976210.85726    -70746.64726     -2551.48226        35.50026
> 2025 05 08 10 58 20.0000000  0 9                      
G16  20622355.04125    -80051.10625     -2781.48625        34.10025
G02  24415924.30725     50556.70325      1728.52625        32.30025
G27  20412912.83525      -226.63325       -25.65225        32.00025
G10  21960493.06715     31762.15915      1073.96015        31.20015
G23  21298288.70215    -44871.36715     -1569.77515        30.60015
G26  22275450.82614   -125933.49914     -4359.24114        26.60014
G08  22819291.73314      4957.55114      1649.07014        26.30014
C11  21893304.18126    -48156.80326     -1676.39326        39.30026
R16  19976447.09326    -73274.23826     -2553.07226        35.50026
> 2025 05 08 10 58 21.0000001  0 10                      
G16  20622652.43525    -82827.24225     -2782.64625        34.20025
G02  24415370.29125     52290.77625      1727.78425        32.30025
G27  20412687.69025      -246.89625       -26.68625        32.00025
G10  21960062.26515     32842.63715      1074.15415        31.30015
G23  21298360.65215    -46433.97915     -1568.40515        30.60015
G26  22276060.00514   -130285.85114     -4358.17914        26.60014
G08  22818764.69814      6608.72014      1643.78614        26.20014
C11  21893400.11426    -49827.65826     -1677.07526        39.30026
R16  19976706.41426    -75862.91726     -2554.53626        35.60026
R18  19570099.40215    -30297.87415     -1034.45315        29.80015
> 2025 05 08 10 58 21.9999998  0 10                      
G16  20622853.89525    -85604.52225     -2783.68725        34.30025
G02  24414711.34725     54024.08425      1727.08925        32.40025
G27  20412370.81025      -268.16925       -27.61225        32.00025
G10  21959528.63515     33922.15515      1073.20115        31.30015
G23  21298336.36915    -47998.08515     -1570.68815        30.60015
G26  22276559.45914   -134633.33814     -4350.88614        26.70014
G08  22818116.84614      8261.60814      1647.91014        26.10014
C11  21893394.11926    -51499.46626     -1678.06726        39.30026
R16  19976861.70626    -78439.42526     -2555.97226        35.70026
R18  19569971.99015    -31362.60215     -1032.32915        29.80015
> 2025 05 08 10 58 22.9999999  0 10                      
G16  20623176.47225    -88382.67225     -2784.44625        34.40025
G02  24414175.31825     55756.74525      1726.47225        32.50025
G27  20412166.95125      -290.14825       -28.19625        32.00025
G10  21959111.92315     35001.83415      1073.89515        31.40015
G23  21298429.00415    -49563.61515     -1572.10415        30.50015
G26  22277176.73114   -138984.81814     -4359.33614        26.80014
G08  22817587.11314      9911.62214      1642.71114        26.00014
C11  21893506.54126    -53171.84126     -1678.46626        39.30026
R16  19977124.92426    -80954.02126     -2557.11926        35.80026
R18  19569947.70715    -32339.45915     -1033.19315        29.70015
> 2025 05 08 10 58 24.0000000  0 10                      
G16  20623478.96325    -91162.10725     -2786.02125        34.50025
G02  24413620.70225     57488.96925      1726.05925        32.60025
G27  20411947.20325      -312.98725       -29.21425        32.00025
G10  21958680.22215     36080.24815      1071.83515        31.50015
G23  21298502.15415    -51132.00115     -1575.75915        30.50015
G26  22277779.01514   -143337.41214     -4359.09314        27.00014
G08  22817040.89114     11561.03014      1643.15814        25.90014
C11  21893603.67426    -54844.93826     -1679.35026        39.30026
R16  19977383.34526    -83538.11426     -2558.54026        35.90026
R18  19569932.71715    -33463.66315     -1034.27515        29.50015
> 2025 05 08 10 58 25.0000000  0 10                      
G16  20623771.56025    -93942.60925     -2786.86825        34.50025
G02  24413054.69425     59220.31525      1725.07025        32.60025
G27  20411711.86625      -336.84725       -30.20825        32.00025
G10  21958233.23115     37156.45915      1069.27315        31.50015
G23  21298565.41015    -52700.50415     -1574.39615        30.50015
G26  22278364.50914   -147691.47214     -4360.62614        27.10014
G08  22816492.87114     13209.18214      1641.68814        25.90014
C11  21893689.71426    -56518.81526     -1680.04826        39.20026
R16  19977621.38126    -86076.40526     -2560.09126        35.90026
R18  19569874.55814    -34418.37514     -1035.06414        29.40014
> 2025 05 08 10 58 26.0000001  0 10                      
G16  20624081.84525    -96723.58125     -2787.15125        34.60025
G02  24412500.07825     60951.63125      1725.35225        32.60025
G27  20411485.52325      -360.90925       -30.10825        32.00025
G10  21957794.63515     38232.81815      1070.48615        31.50015
G23  21298630.76515    -54269.30215     -1574.89015        30.50015
G26  22278965.29314   -152047.32814     -4362.69514        27.40014
G08  22815968.83314     14856.29814      1640.65014        25.80014
C11  21893784.44826    -58192.88526     -1680.05726        39.20026
R16  19977878.30326    -88652.09126     -2560.47926        36.00026
R18  19569863.76514    -35563.20614     -1038.57314        29.30014
> 2025 05 08 10 58 26.9999998  0 10                      
G16  20624283.60625    -99505.72925     -2788.56925        34.70025
G02  24411846.53025     62682.26425      1724.45625        32.70025
G27  20411161.14725      -385.90325       -31.29625        31.90025
G10  21957263.10315     39308.13315      1068.95615        31.50015
G23  21298595.08915    -55839.13815     -1576.19015        30.50015
G26  22279477.03914   -156402.17514     -4360.17514        27.50014
G08  22815326.67814     16505.21614      1643.98114        25.70014
C11  21893777.55326    -59867.59126     -1680.80526        39.20026
R16  19978018.60626    -91147.58026     -2562.12326        36.00026
R18  19569715.66814    -36517.91314     -1037.04114        29.10014
> 2025 05 08 10 58 27.9999999  0 10                      
G16  20624605.28325   -102288.75025     -2789.31825        34.70025
G02  24411306.90425     64412.41825      1724.04925        32.70025
G27  20410964.18425      -411.67325       -32.02125        31.90025
G10  21956858.08315     40381.42215      1066.41215        31.60015
G23  21298689.52415    -57410.82515     -1578.47415        30.50015
G26  22280096.11014   -160758.81514     -4363.39714        27.70014
G08  22814799.94314     18155.35314      1644.88314        25.70014
C11  21893893.27326    -61542.96526     -1681.51626        39.10026
R16  19978298.31226    -93748.54526     -2563.28526        36.00026
R18  19569703.97614    -37561.21514     -1042.40014        29.00014
> 2025 05 08 10 58 29.0000000  0 10                      
G16  20624908.67325   -105072.97125     -2790.76525        34.70025
G02  24410754.68625     66141.83125      1723.09525        32.70025
G27  20410741.43825      -438.27525       -32.96625        31.90025
G10  21956431.17915     41453.76915      1065.93015        31.60015
G23  21298757.87715    -58983.51815     -1579.14115        30.50015
G26  22280701.99114   -165120.59114     -4370.28614        27.70014
G08  22814251.92214     19804.23214      1642.30214        25.60014
C11  21893988.30726    -63219.11826     -1682.43326        39.10026
R16  19978545.34126    -96272.25826     -2565.01926        36.10026
R18  19569665.30314    -38557.87314     -1035.05614        29.00014
> 2025 05 08 10 58 30.0000000  0 10                      
G16  20625202.17025   -107858.30525     -2791.72325        34.70025
G02  24410184.18125     67870.61225      1722.62925        32.70025
G27  20410512.09715      -465.71915       -33.69915        31.90015
G10  21955980.59115     42525.75815      1065.97215        31.60015
G23  21298818.13515    -60557.52015     -1580.49015        30.50015
G26  22281295.58014   -169480.76714     -4365.20714        27.80014
G08  22813695.20714     21448.73614      1636.47914        25.60014
C11  21894074.94726    -64896.04726     -1683.09826        39.10026
R16  19978784.87526    -98817.42726     -2566.12426        36.10026
R18  19569633.22514    -39652.35014     -1044.65714        28.90014
> 2025 05 08 10 58 31.0000000  0 10                      
G16  20625492.96825   -110644.46925     -2792.44125        34.70025
G02  24409620.57125     69598.82925      1722.07025        32.70025
G27  20410289.05125      -494.02125       -34.59525        31.90025
G10  21955546.79115     43597.54315      1065.82015        31.60015
G23  21298881.39115    -62133.65415     -1583.06215        30.50015
G26  22281884.67214   -173838.44814     -4362.29414        28.00014
G08  22813145.98814     23092.60714      1637.69014        25.50014
C11  21894159.78926    -66573.44226     -1683.43726        39.00026
R16  19979037.00026   -101430.62126     -2567.35426        36.10026
R18  19569595.15114    -40713.98814     -1038.91514        28.80014
> 2025 05 08 10 58 31.9999998  0 10                      
G16  20625707.32025   -113431.52525     -2793.44625        34.70025
G02  24408975.41825     71326.68625      1721.72925        32.60025
G27  20409976.66725      -522.72825       -34.85625        31.90025
G10  21955027.85015     44670.27015      1067.25015        31.60015
G23  21298878.99315    -63709.32115     -1581.37815        30.50015
G26  22282408.41014   -178196.18514     -4363.70714        28.10014
G08  22812520.02114     24737.24414      1639.07314        25.40014
C11  21894166.38426    -68251.33126     -1684.02626        39.00026
R16  19979193.79226   -103952.80526     -2568.54426        36.10026
R18  19569480.03114    -41783.20514     -1042.47414        28.80014
> 2025 05 08 10 58 32.9999999  0 10                      
G16  20626028.99725   -116219.20225     -2793.82025        34.70025
G02  24408441.18825     73054.89325      1721.79525        32.60025
G27  20409777.60515      -552.19015       -35.67415        31.80015
G10  21954620.13315     45742.38815      1065.97715        31.60015
G23  21298962.03515    -65284.64115     -1580.98315        30.50015
G26  22283021.18514   -182554.79514     -4364.88014        28.20014
G08  22812002.57914     26384.46914      1642.68114        25.30014
C11  21894279.10626    -69929.66226     -1684.33326        38.90026
R16  19979464.50526   -106504.85326     -2569.44526        36.20026
R18  19569432.36414    -42634.80014     -1039.99214        28.70014
> 2025 05 08 10 58 34.0000000  0 10                      
G16  20626332.68725   -119007.80925     -2795.01625        34.70025
G02  24407881.47525     74782.04025      1720.92025        32.50025
G10  21954189.03115     46812.16015      1062.65315        31.60015
G27  20409555.45925      -582.05825       -36.01825        31.80025
G23  21299043.27915    -66859.79615     -1581.01615        30.50015
G26  22283631.56314   -186913.60014     -4364.84414        28.50014
G08  22811451.26114     28032.23414      1642.08914        25.30014
C11  21894377.13826    -71608.30126     -1684.68426        38.90026
R16  19979721.12726   -109082.06826     -2570.62526        36.30026
R18  19569413.47714    -43737.62414     -1045.47414        28.60014
> 2025 05 08 10 58 35.0000000  0 10                      
G16  20626626.48425   -121796.93525     -2795.21925        34.70025
G02  24407322.06325     76509.16825      1721.28125        32.50025
G10  21953752.23415     47881.25515      1062.92115        31.70015
G27  20409318.62325      -612.38525       -36.39225        31.80025
G23  21299113.43115    -68438.09615     -1585.70715        30.50015
G26  22284230.84814   -191273.78014     -4366.69914        28.80014
G08  22810902.94014     29678.89014      1640.26414        25.20014
C11  21894463.47826    -73287.24126     -1684.87126        38.80026
R16  19979966.65726   -111660.10426     -2571.22926        36.30026
R18  19569389.79314    -44877.92914     -1044.95214        28.50014
> 2025 05 08 10 58 36.0000000  0 10                      
G16  20626922.37925   -124586.76325     -2796.03925        34.70025
G02  24406755.15525     78235.94025      1720.72925        32.50025
G10  21953305.24315     48952.27315      1066.11415        31.70015
G27  20409085.68425      -643.15725       -36.85725        31.70025
G23  21299179.68515    -70018.14515     -1586.78515        30.50015
G26  22284823.83714   -195634.99314     -4367.59014        29.20014
G08  22810357.61814     31327.43014      1643.61814        25.00014
C11  21894548.61926    -74966.48526     -1685.20526        38.70026
R16  19980216.98426   -114262.59726     -2572.22726        36.40026
R18  19569333.43214    -45841.79714     -1044.38214        28.50014
> 2025 05 08 10 58 36.9999998  0 10                      
G16  20627134.93225   -127377.08125     -2796.50625        34.70025
G02  24406110.90125     79962.35525      1721.03925        32.50025
G10  21952794.99615     50022.47115      1063.84215        31.70015
G27  20408784.39325      -674.12525       -37.01325        31.70025
G23  21299162.59715    -71597.47615     -1584.91715        30.60015
G26  22285343.67815   -199996.09615     -4366.98915        29.60015
G08  22809733.15014     32973.19214      1638.42514        24.90014
C11  21894555.81426    -76645.81326     -1685.26126        38.70026
R16  19980380.97026   -116822.99726     -2572.92426        36.50026
R18  19569215.31414    -46894.21414     -1041.65114        28.40014
> 2025 05 08 10 58 37.9999999  0 10                      
G16  20627462.30525   -130167.90225     -2796.90625        34.70025
G02  24405580.86825     81688.87925      1720.49225        32.40025
G10  21952386.37915     51091.60815      1062.77015        31.80015
G27  20408579.63425      -705.48425       -37.39025        31.60025
G23  21299257.63115    -73176.48615     -1584.68415        30.70015
G26  22285963.04915   -204358.11815     -4368.31515        29.90015
G08  22809211.81114     34617.23714      1637.35114        24.80014
C11  21894671.23526    -78325.46026     -1685.58826        38.60026
R16  19980645.68726   -119343.70826     -2573.92326        36.50026
R18  19569196.12714    -47897.80014     -1045.87214        28.30014
> 2025 05 08 10 58 39.0000000  0 10                      
G16  20627762.09725   -132959.27925     -2797.60025        34.70025
G02  24405028.05125     83415.47225      1720.67925        32.40025
G10  21951955.57715     52159.13515      1060.77615        32.00015
G27  20408358.08825      -737.25725       -37.92525        31.60025
G23  21299331.68015    -74755.03215     -1584.25715        30.90015
G26  22286572.52715   -208718.77615     -4365.91715        30.20015
G08  22808675.18314     36264.99414      1643.66514        24.60014
C11  21894769.86626    -80005.21526     -1685.69926        38.60026
R16  19980899.01126   -121900.28726     -2574.72326        36.50026
R18  19569186.83414    -49050.26814     -1043.39014        28.30014
> 2025 05 08 10 58 40.0000000  0 10                      
G16  20628054.09525   -135751.45925     -2798.41425        34.60025
G02  24404462.04225     85141.62825      1720.10025        32.30025
G10  21951515.78225     53226.48225      1061.42125        32.10025
G27  20408132.34425      -769.39225       -38.15225        31.50025
G23  21299394.93615    -76334.54615     -1585.83315        31.00015
G26  22287165.21715   -213082.65615     -4371.32415        30.30015
G08  22808132.85814     37914.27114      1644.20014        24.40014
C11  21894857.10626    -81685.40226     -1686.18426        38.60026
R16  19981147.83926   -124495.90126     -2575.70826        36.60026
R18  19569137.06814    -50050.80414     -1043.82414        28.20014
> 2025 05 08 10 58 41.0000001  0 10                      
G16  20628358.08525   -138544.52225     -2799.44925        34.60025
G10  21951091.57625     54293.16525      1060.40425        32.20025
G02  24403913.42225     86867.37625      1719.59625        32.30025
G27  20407909.59825      -802.31025       -39.25525        31.50025
G23  21299470.18415    -77915.45315     -1587.54815        31.10015
G26  22287771.69715   -217445.71815     -4368.59415        30.40015
G08  22807589.93414     39560.90214      1639.36114        24.30014
C11  21894951.84026    -83366.01626     -1686.71926        38.60026
R16  19981403.26226   -127065.47326     -2577.29926        36.60026
R18  19569109.78714    -51108.56214     -1045.09714        28.20014
> 2025 05 08 10 58 41.9999998  0 10                      
G16  20628564.04225   -141338.53625     -2800.32225        34.60025
G10  21950565.74025     55358.88725      1059.40425        32.30025
G02  24403257.47625     88592.53525      1719.02825        32.20025
G27  20407591.21915      -836.27115       -40.31815        31.50015
G23  21299448.59915    -79498.84315     -1590.46615        31.20015
G26  22288267.55315   -221807.55315     -4367.05315        30.60015
G08  22806943.28214     41205.38414      1637.57114        24.10014
C11  21894947.94326    -85047.31626     -1687.42426        38.50026
R16  19981555.25726   -129622.87226     -2578.33026        36.70026
R18  19568980.57714    -52163.32214     -1044.43414        28.10014
> 2025 05 08 10 58 42.9999999  0 10                      
G16  20628880.02425   -144133.35525     -2801.16625        34.60025
G10  21950140.93425     56424.08925      1058.99625        32.40025
G02  24402706.15825     90317.33125      1718.66725        32.20025
G27  20407377.76615      -871.12715       -41.25015        31.50015
G23  21299523.24715    -81082.67915     -1590.00315        31.20015
G26  22288881.22915   -226170.63415     -4369.64715        30.70015
G08  22806416.24714     42850.02514      1638.77314        23.90014
C11  21895045.67526    -86729.13126     -1687.96326        38.50026
R16  19981822.37226   -132253.59026     -2579.50626        36.80026
R18  19568948.19914    -53193.59014     -1045.70914        28.10014
> 2025 05 08 10 58 43.9999999  0 10                      
G16  20629172.92125   -146929.40025     -2802.49125        34.60025
G10  21949699.33925     57488.21425      1057.74925        32.50025
G02  24402136.55225     92041.46025      1717.95725        32.20025
G23  21299589.50115    -82667.34115     -1590.91015        31.30015
G27  20407139.13215      -905.91615       -40.59115        31.40015
G26  22289470.32115   -230535.08315     -4370.96615        30.80015
G08  22805857.13414     44494.30614      1638.26414        23.80014
C11  21895132.01626    -88411.69626     -1688.72126        38.60026
R16  19982064.00526   -134811.75326     -2580.92726        36.80026
R18  19568910.12514    -54256.75314     -1050.42814        28.10014
> 2025 05 08 10 58 45.0000000  0 10                      
G16  20629478.70925   -149725.88525     -2802.64825        34.50025
G10  21949269.43725     58551.96925      1057.62425        32.60025
G02  24401580.43725     93765.52125      1718.08025        32.10025
G23  21299665.64815    -84254.00915     -1593.61515        31.30015
G27  20406929.57715      -940.87915       -40.99615        31.40015
G26  22290071.10515   -234900.40915     -4371.70615        31.00015
G08  22805325.90114     46135.74414      1634.07014        23.70014
C11  21895228.84826    -90094.41926     -1688.69326        38.60026
R16  19982314.93126   -137356.10226     -2581.63326        36.90026
R18  19568883.14414    -55316.03814     -1045.57114        28.10014
> 2025 05 08 10 58 46.0000001  0 10                      
G16  20629804.28425   -152523.20825     -2803.57725        34.50025
G10  21948854.82425     59615.07625      1056.94725        32.70025
G02  24401043.50925     95489.03625      1717.40525        32.10025
G23  21299761.28215    -85841.29615     -1593.43215        31.30015
G27  20406728.11615      -976.40815       -41.64815        31.30015
G26  22290697.37115   -239266.98315     -4373.03015        31.00015
G08  22804811.75714     47774.08214      1630.95014        23.50014
C11  21895343.66926    -91777.52226     -1689.07326        38.60026
R16  19982597.63626   -139973.88126     -2582.70826        36.90026
R18  19568864.25714    -56321.15814     -1049.10714        28.00014
> 2025 05 08 10 58 46.9999998  0 10                      
G16  20630009.04225   -155321.23525     -2804.23925        34.50025
G10  21948337.08225     60677.59325      1056.35725        32.70025
G02  24400390.56125     97212.40525      1717.43125        32.10025
G23  21299732.20215    -87427.44315     -1591.43815        31.40015
G26  22291207.01815   -243633.84715     -4372.86915        31.10015
G27  20406409.13715     -1014.42815       -45.12915        31.30015
G08  22804187.29013     49409.97113      1628.80013        23.40013
C11  21895343.66926    -93461.08626     -1689.60326        38.60026
R16  19982747.83226   -142522.87226     -2583.65926        37.00026
R18  19568727.85214    -57339.25314     -1051.22114        28.00014
> 2025 05 08 10 58 47.9999999  0 10                      
G16  20630319.92725   -158119.98325     -2805.05225        34.50025
G10  21947911.67725     61739.44125      1055.56725        32.80025
G02  24399832.04825     98935.42325      1716.89625        32.10025
G23  21299802.65315    -89014.65015     -1593.68215        31.40015
G26  22291813.79815   -247999.36415     -4370.78615        31.20015
G27  20406184.89215     -1052.42215       -43.92815        31.20015
G08  22803659.95513     51044.55213      1627.98013        23.30013
C11  21895440.80226    -95144.97426     -1689.94126        38.60026
R16  19983003.25526   -145090.91526     -2584.91426        37.00026
R18  19568699.67114    -58390.90514     -1047.72514        27.90014
> 2025 05 08 10 58 48.9999999  0 10                      
G16  20630611.62525   -160919.44525     -2805.65225        34.40025
G10  21947464.38725     62800.97025      1055.53325        32.90025
G02  24399262.14225    100658.27525      1716.93125        32.00025
G23  21299882.09815    -90603.72215     -1595.83915        31.40015
G26  22292401.69115   -252365.10215     -4371.68015        31.30015
G27  20405959.74815     -1092.10715       -46.36515        31.20015
G08  22803107.73713     52682.59613      1633.93813        23.20013
C11  21895527.44226    -96829.11826     -1690.05426        38.60026
R16  19983245.48726   -147651.37126     -2585.62026        37.00026
R18  19568670.29114    -59499.89414     -1051.72614        27.90014
> 2025 05 08 10 58 50.0000000  0 10                      
G16  20630914.11525   -163719.41725     -2806.17025        34.40025
G10  21947034.18425     63861.86225      1054.62625        33.00025
G02  24398712.92325    102380.98425      1716.69025        32.00025
G23  21299959.44515    -92191.38315     -1592.90115        31.40015
G26  22293012.06915   -256730.05615     -4370.50515        31.40015
G27  20405741.19915     -1128.99715       -41.43815        31.10015
G08  22802567.21113     54321.07913      1632.75513        23.10013
C11  21895624.87426    -98513.55526     -1690.47326        38.60026
R16  19983509.60426   -150266.80226     -2586.53426        37.00026
R18  19568633.71714    -60508.77614     -1054.44914        27.80014
> 2025 05 08 10 58 51.0000001  0 10                      
G16  20631239.99025   -166520.18325     -2806.99725        34.40025
G10  21946629.46525     64922.36825      1054.47725        33.10025
G02  24398182.88925    104103.32525      1716.32025        31.90025
G23  21300050.28215    -93782.35215     -1598.45615        31.50015
G26  22293650.02715   -261095.76415     -4371.91715        31.40015
G27  20405540.33815     -1167.15815       -44.63315        31.00015
G08  22802044.07313     55957.22813      1629.14613        23.10013
C11  21895742.39326   -100198.34226     -1690.74426        38.60026
R16  19983790.80926   -152873.88126     -2587.48126        37.00026
R18  19568606.13614    -61466.53714     -1054.61814        27.60014
> 2025 05 08 10 58 51.9999999  0 10                      
G16  20631460.63725   -169321.23025     -2807.13125        34.30025
G10  21946103.62925     65982.38325      1053.82225        33.10025
G02  24397539.23525    105825.69025      1716.42825        31.90025
G23  21300037.39115    -95372.85715     -1596.21815        31.50015
G27  20405235.74915     -1206.48815       -45.86015        31.00015
G26  22294163.87215   -265460.26115     -4369.83315        31.30015
G08  22801424.40213     57598.93713      1638.54113        23.20013
C11  21895751.98626   -101883.20926     -1690.79826        38.60026
R16  19983955.99526   -155441.92526     -2588.32826        37.10026
R18  19568479.02414    -62471.59414     -1054.65414        27.50014
> 2025 05 08 10 58 52.9999999  0 10                      
G16  20631758.03125   -172123.27925     -2808.38425        34.30025
G10  21945664.73225     67041.70425      1053.13825        33.10025
G02  24396972.02825    107547.54525      1715.76425        31.90025
G23  21300104.24515    -96963.83615     -1597.05015        31.60015
G27  20405004.90915     -1246.65415       -46.41915        30.90015
G26  22294747.26815   -269829.42115     -4377.32415        31.10015
G08  22800874.28313     59241.69413      1637.44413        23.30013
C11  21895837.72726   -103568.52326     -1691.31926        38.50026
R16  19984196.72826   -157993.97326     -2589.35826        37.10026
R18  19568453.24214    -63598.14714     -1050.35714        27.30014
> 2025 05 08 10 58 54.0000000  0 10                      
G16  20632073.11325   -174925.63625     -2808.45525        34.30025
G10  21945238.12825     68100.88225      1053.16025        33.20025
G02  24396411.71625    109269.63725      1716.26325        31.80025
G23  21300175.29515    -98556.31115     -1599.16815        31.60015
G27  20404788.45915     -1286.27015       -45.28715        30.90015
G26  22295352.84815   -274197.85615     -4374.01615        31.00015
G08  22800324.16413     60886.82113      1640.36513        23.30013
C11  21895936.05926   -105253.86726     -1691.24926        38.50026
R16  19984460.24626   -160604.81826     -2589.85026        37.10026
R18  19568418.76614    -64616.95514     -1051.12614        27.10014
> 2025 05 08 10 58 55.0000000  0 10                      
G16  20632372.30625   -177728.79925     -2809.40025        34.30025
G10  21944804.32825     69159.53825      1052.55725        33.30025
G02  24395851.40425    110991.35025      1715.68625        31.80025
G23  21300243.64815   -100148.78415     -1598.30615        31.60015
G27  20404562.41515     -1326.58415       -46.50015        31.00015
G26  22295952.13415   -278564.24215     -4371.19315        30.90015
G08  22799780.64013     62528.50713      1634.12913        23.30013
C11  21896022.09926   -106939.59526     -1691.70126        38.50026
R16  19984703.97726   -163173.68226     -2591.19426        37.10026
R18  19568372.59814    -65637.34814     -1055.12314        27.00014
> 2025 05 08 10 58 55.9999999  0 10                      
G16  20632615.13825   -180532.05425     -2809.24325        34.20025
G10  21944312.96815     70217.02415      1050.95415        33.30015
G02  24395235.33025    112713.01825      1715.69825        31.80025
G23  21300270.33015   -101742.97015     -1600.98815        31.60015
G27  20404282.70915     -1365.99315       -44.90115        31.10015
G26  22296484.56515   -282932.31915     -4374.86515        30.70015
G08  22799173.86014     64168.80014      1633.64914        23.60014
C11  21896061.67226   -108625.33526     -1691.63626        38.50026
R16  19984904.83826   -165770.00426     -2591.59226        37.10026
R18  19568290.75414    -66723.37014     -1053.64614        26.90014
> 2025 05 08 10 58 56.9999999  0 10                      
G16  20632908.93415   -183336.06415     -2810.97215        34.20015
G10  21943890.86015     71274.50415      1051.64115        33.20015
G02  24394678.61525    114434.39425      1715.39325        31.80025
G23  21300335.08515   -103336.59215     -1599.17415        31.60015
G27  20404056.66615     -1406.33815       -46.65015        31.10015
G26  22297081.15215   -287300.69915     -4374.36415        30.70015
G08  22798623.44114     65808.19014      1633.10114        24.00014
C11  21896145.91426   -110311.57526     -1692.27226        38.50026
R16  19985155.76526   -168378.61326     -2592.94226        37.10026
R18  19568254.77914    -67798.75214     -1055.23414        26.80014
> 2025 05 08 10 58 58.0000000  0 10                      
G16  20633221.01825   -186140.81325     -2810.81225        34.10025
G10  21943461.85725     72331.60925      1050.97125        33.10025
G02  24394124.89925    116155.64325      1715.23825        31.80025
G23  21300416.32915   -104928.69815     -1597.29215        31.60015
G27  20403837.21715     -1448.51815       -49.04215        31.20015
G26  22297689.13115   -291670.57915     -4376.57115        30.60015
G08  22798088.91114     67443.39614      1627.16714        24.00014
C11  21896247.54326   -111997.90726     -1692.26826        38.50026
R16  19985418.68326   -170987.16526     -2593.49626        37.10026
R18  19568210.11014    -68762.56314     -1054.09314        26.80014
> 2025 05 08 10 58 59.0000001  0 10                      
G16  20633532.20325   -188946.14125     -2811.53325        34.00025
G10  21943034.65325     73388.50225      1050.86825        33.10025
G02  24393574.48025    117876.93425      1715.39325        31.70025
G23  21300494.27515   -106523.70115     -1602.36915        31.60015
G27  20403618.96915     -1490.88415       -48.37815        31.20015
G26  22298287.21715   -296039.51515     -4374.38015        30.50015
G08  22797543.28914     69073.06914      1620.98714        24.00014
C11  21896341.67826   -113684.47926     -1692.55626        38.40026
R16  19985673.50626   -173552.15026     -2594.39526        37.10026
R18  19568181.03014    -69809.63314     -1053.63414        26.70014
> 2025 05 08 10 58 59.9999998  0 10                      
G16  20633736.66125   -191752.04925     -2812.03125        34.00025
G10  21942500.12325     74444.86725      1050.26425        33.10025
G02  24392920.93225    119597.97125      1715.07125        31.70025
G23  21300469.39215   -108120.84315     -1604.04615        31.50015
G27  20403290.39615     -1534.66615       -50.32615        31.20015
G26  22298795.66515   -300409.27915     -4376.01015        30.40015
G08  22796897.83614     70705.72514      1628.31114        24.00014
C11  21896340.47926   -115371.14226     -1692.48826        38.40026
R16  19985834.19526   -176157.70226     -2595.34226        37.10026
R18  19568057.21614    -70895.71014     -1054.84514        26.70014
> 2025 05 08 10 59 00.9999998  0 10                      
G16  20634040.05125   -194558.89725     -2812.51125        34.00025
G10  21942076.51725     75501.10525      1050.22725        33.10025
G02  24392368.41525    121319.00825      1715.09125        31.70025
G23  21300551.53515   -109715.62915     -1599.55215        31.50015
G27  20403073.94615     -1577.11815       -47.73315        31.20015
G26  22299409.94015   -304780.65615     -4378.12515        30.40015
G08  22796367.80314     72342.76114      1633.28014        24.00014
C11  21896437.31226   -117058.05826     -1692.93426        38.40026
R16  19986086.32026   -178708.92926     -2595.85026        37.20026
R18  19568023.63914    -71918.33414     -1055.40514        26.60014
> 2025 05 08 10 59 01.9999999  0 10                      
G16  20634336.54625   -197365.89325     -2813.15425        33.90025
G10  21941636.12125     76556.72125      1049.47025        33.10025
G02  24391803.30625    123039.83625      1714.88625        31.70025
G23  21300610.89415   -111312.47715     -1603.71515        31.40015
G27  20402841.30715     -1619.62415       -48.36915        31.20015
G26  22300003.82915   -309150.32915     -4374.65215        30.50015
G08  22795817.38414     73987.33514      1642.50514        24.00014
C11  21896525.15126   -118745.12426     -1692.92226        38.40026
R16  19986333.34926   -181294.60726     -2596.86726        37.20026
R18  19567984.96614    -72978.44014     -1050.73514        26.60014
> 2025 05 08 10 59 03.0000000  0 10                      
G16  20634650.72925   -200173.16125     -2813.34825        33.90025
G10  21941215.81225     77612.21625      1049.48725        33.10025
G02  24391251.08825    124760.69025      1714.91825        31.70025
G27  20402627.85515     -1662.40915       -48.87015        31.20015
G23  21300697.83415   -112911.95115     -1606.73115        31.40015
G26  22300605.51215   -313523.17515     -4380.37615        30.50015
G08  22795281.95514     75633.96014      1641.70214        24.00014
C11  21896623.78326   -120432.26126     -1693.06226        38.30026
R16  19986591.47126   -183876.40926     -2597.62826        37.20026
R18  19567969.67614    -74098.83314     -1053.06314        26.60014
> 2025 05 08 10 59 04.0000001  0 10                      
G16  20634975.40425   -202981.19225     -2814.24625        33.90025
G10  21940801.79925     78667.14725      1048.81225        33.20025
G02  24390706.66525    126481.52525      1714.99025        31.80025
G27  20402432.39015     -1703.84115       -46.59215        31.20015
G23  21300785.07315   -114511.49815     -1605.41815        31.30015
G26  22301227.58115   -317896.30215     -4379.10015        30.50015
G08  22794766.31214     77278.29714      1637.35614        24.00014
C11  21896741.60126   -122119.57426     -1693.18326        38.30026
R16  19986876.57326   -186506.41826     -2598.26726        37.20026
R18  19567950.19014    -75100.89214     -1054.98514        26.60014
> 2025 05 08 10 59 04.9999999  0 10                      
G16  20635197.85025   -205789.41425     -2814.26025        33.80025
G10  21940292.15225     79721.82625      1048.60725        33.30025
G02  24390061.51225    128202.27925      1714.76525        31.90025
G27  20402123.90415     -1745.26915       -47.37115        31.20015
G23  21300773.98115   -116110.62215     -1604.85815        31.20015
G26  22301739.32715   -322264.83615     -4372.18115        30.50015
G08  22794128.95314     78921.71114      1637.00614        23.90014
C11  21896750.29526   -123806.96526     -1693.32026        38.30026
R16  19987048.05526   -189106.56226     -2599.09326        37.20026
R18  19567811.38614    -76043.32214     -1055.14714        26.50014
> 2025 05 08 10 59 05.9999999  0 10                      
G16  20635498.84125   -208598.31025     -2815.06825        33.80025
G10  21939852.65625     80776.00925      1048.09825        33.30025
G02  24389503.29825    129922.91625      1714.74125        32.00025
G27  20401899.95915     -1787.99115       -49.20615        31.20015
G26  22302338.91215   -326637.17615     -4380.07415        30.50015
G23  21300840.23515   -117711.21115     -1607.15615        31.10015
G08  22793583.03114     80559.07714      1628.50414        23.90014
C11  21896837.23526   -125494.57226     -1693.49726        38.30026
R16  19987298.38126   -191710.58526     -2599.98226        37.10026
R18  19567782.90614    -77156.89114     -1054.04914        26.50014
> 2025 05 08 10 59 07.0000000  0 10                      
G16  20635802.83125   -211407.91025     -2815.89525        33.80025
G10  21939430.84825     81829.75025      1047.57325        33.40025
G02  24388954.37825    131643.20325      1714.16525        32.00025
G27  20401679.91115     -1831.32915       -49.59115        31.20015
G26  22302948.39015   -331009.61815     -4378.43515        30.70015
G23  21300922.67815   -119309.67015     -1603.33815        30.90015
G08  22793042.20514     82190.68714      1622.78514        23.80014
C11  21896938.26526   -127182.54326     -1694.04326        38.30026
R16  19987555.00426   -194287.03526     -2601.01826        37.10026
R18  19567730.74214    -78082.51714     -1053.01914        26.40014
> 2025 05 08 10 59 08.0000000  0 10                      
G16  20636104.12225   -214218.35625     -2816.70325        33.70025
G10  21938989.85325     82882.73725      1046.77425        33.50025
G02  24388383.87325    133363.20625      1714.02325        32.10025
G27  20401451.76915     -1875.77215       -50.83215        31.20015
G26  22303539.88115   -335381.17415     -4376.94515        30.80015
G23  21300986.53415   -120909.69915     -1606.64815        30.80015
G08  22792503.47814     83824.91814      1629.70514        23.80014
C11  21897026.40426   -128871.04426     -1694.54726        38.30026
R16  19987801.13326   -196867.36326     -2602.18526        37.10026
R18  19567746.33114    -79431.33914     -1053.19914        26.40014
> 2025 05 08 10 59 09.0000001  0 10                      
G10  21938581.53625     83934.89425      1045.87925        33.60025
G16  20636430.29725   -217029.76025     -2817.74425        33.70025
G02  24387848.74425    135082.60225      1713.22925        32.20025
G27  20401249.70915     -1921.52415       -52.26815        31.20015
G26  22304160.75115   -339752.33715     -4376.82815        30.80015
G23  21301083.96615   -122515.42215     -1614.43215        30.60015
G08  22791983.93814     85461.97614      1632.60714        23.70014
C11  21897140.92526   -130560.08726     -1695.12226        38.30026
R16  19988081.43926   -199470.62126     -2603.53126        37.10026
R18  19567719.65014    -80394.45014     -1062.30314        26.50014
> 2025 05 08 10 59 09.9999999  0 10                      
G10  21938064.09425     84986.55025      1045.45825        33.60025
G16  20636652.44325   -219841.76725     -2818.25125        33.70025
G02  24387208.38725    136801.71525      1713.02325        32.20025
G27  20400942.72115     -1969.05015       -54.36015        31.20015
G26  22304679.09215   -344123.69215     -4377.39215        30.80015
G23  21301068.97715   -124120.60315     -1610.85415        30.50015
G08  22791367.26514     87098.81614      1630.78414        23.70014
C11  21897150.21826   -132249.40726     -1695.34926        38.30026
R16  19988253.82026   -202076.88126     -2604.41926        37.00026
R18  19567598.53314    -81430.05914     -1062.56614        26.60014
> 2025 05 08 10 59 10.9999999  0 10                      
G10  21937628.79625     86037.29625      1044.45425        33.60025
G16  20636949.23725   -222654.80325     -2819.38425        33.60025
G02  24386640.58025    138520.38825      1712.61725        32.20025
G27  20400714.57915     -2014.95715       -50.93215        31.20015
G26  22305282.27415   -348497.55715     -4380.95215        30.90015
G23  21301134.03215   -125724.85015     -1609.61415        30.30015
G08  22790812.94914     88734.90914      1629.88214        23.70014
C11  21897236.85826   -133939.32826     -1696.00326        38.30026
R16  19988502.04826   -204668.67426     -2605.79026        37.00026
R18  19567564.35714    -82514.60514     -1056.19014        26.70014
> 2025 05 08 10 59 12.0000000  0 10                      
G10  21937204.88925     87087.71925      1044.31425        33.60025
G16  20637257.12425   -225468.42225     -2819.85425        33.60025
G02  24386088.96225    140238.92725      1712.52525        32.30025
G27  20400504.12515     -2063.07015       -55.16215        31.20015
G26  22305886.95615   -352870.83515     -4378.92715        30.90015
G23  21301223.07015   -127326.61015     -1606.46115        30.10015
G08  22790264.32814     90371.88114      1631.46614        23.60014
C11  21897339.98726   -135629.49526     -1696.17926        38.30026
R16  19988763.46726   -207269.58226     -2606.34426        37.00026
R18  19567532.57914    -83547.92314     -1055.57214        26.90014
> 2025 05 08 10 59 13.0000000  0 10                      
G10  21936763.29525     88137.48325      1043.59925        33.60025
G16  20637558.11625   -228282.75125     -2820.51825        33.50025
G02  24385529.54925    141957.09325      1712.14325        32.40025
G27  20400271.78615     -2111.07615       -53.78715        31.20015
G26  22306481.14415   -357246.55415     -4382.77215        30.90015
G23  21301282.72915   -128929.53315     -1609.33915        29.90015
G08  22789725.00214     92009.84514      1632.62214        23.60014
C11  21897426.92726   -137320.04226     -1696.51926        38.30026
R16  19989010.19626   -209852.96826     -2607.48126        37.00026
R18  19567496.90414    -84622.54614     -1060.73714        26.90014
> 2025 05 08 10 59 13.9999999  0 10                      
G10  21936276.13225     89186.89325      1043.28625        33.60025
G16  20637808.44325   -231097.40525     -2820.76025        33.50025
G02  24384920.07125    143675.31425      1712.30125        32.50025
G27  20399993.27915     -2157.88515       -52.15715        31.20015
G26  22307030.66415   -361622.46615     -4381.95115        31.00015
G23  21301307.31215   -130534.94315     -1612.59815        29.70015
G08  22789134.71014     93649.04214      1633.86714        23.50014
C11  21897471.29626   -139010.64126     -1696.51526        38.30026
R16  19989216.15426   -212478.33526     -2608.24426        37.00026
R18  19567402.16914    -85639.06114     -1061.83814        27.00014
> 2025 05 08 10 59 14.9999999  0 10                      
G10  21935835.43725     90235.86225      1042.91225        33.60025
G16  20638103.43825   -233912.87425     -2821.71025        33.40025
G02  24384357.06125    145393.14525      1711.79825        32.60025
G27  20399763.33815     -2206.08915       -54.73815        31.20015
G26  22307622.45415   -365997.75415     -4380.80815        31.10015
G23  21301359.47615   -132140.52215     -1611.49815        29.50015
G08  22788577.09614     95286.97014      1631.45614        23.50014
C11  21897554.03926   -140701.59426     -1696.91226        38.30026
R16  19989462.58326   -215060.95626     -2608.88326        37.00026
R18  19567372.49014    -86746.52314     -1057.73114        27.00014
> 2025 05 08 10 59 16.0000000  0 10                      
G10  21935412.13025     91284.50125      1042.52825        33.60025
G16  20638414.92325   -236728.78025     -2822.06825        33.40025
G02  24383798.54825    147111.07425      1712.03125        32.70025
G27  20399552.58415     -2254.31115       -54.17715        31.30015
G26  22308226.53615   -370373.07115     -4381.27415        31.10015
G23  21301450.31314   -133743.75914     -1608.01114        29.20014
G08  22788043.76613     96922.51913      1628.41213        23.40013
C11  21897655.66826   -142392.69926     -1697.07026        38.30026
R16  19989732.39626   -217706.19626     -2610.04426        36.90026
R18  19567332.91714    -87737.83314     -1065.26014        27.00014
> 2025 05 08 10 59 17.0000000  0 10                      
G10  21934972.33525     92332.65625      1042.07625        33.60025
G16  20638714.41525   -239545.28525     -2822.63725        33.30025
G02  24383241.53325    148828.77425      1711.74925        32.80025
G27  20399318.14615     -2305.16115       -57.99915        31.40015
G26  22308826.72115   -374748.34315     -4381.08115        31.30015
G23  21301527.65914   -135352.61814     -1617.50414        29.00014
G08  22787499.64213     98556.19713      1626.90613        23.40013
C11  21897742.30826   -144083.95926     -1697.11926        38.40026
R16  19989979.12526   -220289.58126     -2610.60026        37.00026
R18  19567284.05114    -88743.71014     -1054.99214        27.00014
> 2025 05 08 10 59 17.9999998  0 10                      
G10  21934463.28725     93380.35625      1041.52625        33.50025
G16  20638935.06325   -242362.14825     -2822.98625        33.20025
G02  24382596.38025    150546.48125      1711.76225        32.80025
G27  20399012.65715     -2355.02615       -55.31815        31.40015
G26  22309349.85815   -379125.56715     -4384.14215        31.40015
G23  21301518.96514   -136962.16114     -1615.82814        28.80014
G08  22786864.68214    100186.93914      1623.32714        23.80014
C11  21897748.30426   -145775.37526     -1697.38526        38.40026
R16  19990150.00726   -222888.96126     -2611.58126        37.00026
R18  19567160.53714    -89767.86714     -1058.40814        26.90014
> 2025 05 08 10 59 18.9999999  0 10                      
G10  21934057.36825     94427.86225      1041.57225        33.50025
G02  24382063.64925    152264.11325      1711.75925        32.90025
G16  20639257.04025   -245179.79825     -2823.87725        33.10025
G27  20398818.99115     -2405.41615       -56.48915        31.40015
G26  22309979.42315   -383505.34815     -4386.89215        31.40015
G23  21301625.99114   -138570.89014     -1614.15714        28.70014
G08  22786351.43714    101817.26414      1624.27914        23.90014
C11  21897869.72026   -147466.96526     -1697.45826        38.40026
R16  19990427.61526   -225476.93326     -2612.21426        37.10026
R18  19567157.53914    -90857.76314     -1067.49014        26.80014
> 2025 05 08 10 59 19.9999999  0 10                      
G10  21933601.08425     95474.67925      1040.52625        33.50025
G02  24381481.45225    153981.41325      1711.18525        33.00025
G16  20639538.54525   -247997.94225     -2824.33525        33.10025
G27  20398572.26215     -2455.86915       -56.43015        31.50015
G26  22310554.72415   -387884.55315     -4384.85815        31.40015
G23  21301682.65214   -140182.65914     -1619.23414        28.50014
G08  22785786.02914    103450.61014      1628.90814        24.10014
C11  21897937.47326   -149158.87626     -1697.96126        38.40026
R16  19990665.35026   -228111.47226     -2613.37526        37.10026
R18  19567123.36214    -92039.25214     -1056.71114        26.70014
> 2025 05 08 10 59 21.0000000  0 10                      
G10  21933193.66625     96521.13025      1040.43125        33.40025
G02  24380943.62425    155698.68625      1711.42425        33.00025
G16  20639872.51425   -250816.61625     -2824.77325        33.00025
G27  20398374.09915     -2506.20715       -56.11615        31.50015
G26  22311176.79415   -392260.92815     -4380.79315        31.50015
G23  21301776.18714   -141794.41414     -1617.58214        28.30014
G08  22785263.49014    105089.11514      1635.24814        24.20014
C11  21898055.59226   -150850.93226     -1697.91026        38.40026
R16  19990939.96026   -230684.92126     -2613.93626        37.20026
R18  19567096.38114    -93000.07114     -1059.39914        26.60014
> 2025 05 08 10 59 22.0000001  0 10                      
G10  21932769.46025     97567.29725      1040.07925        33.40025
G02  24380391.70625    157415.73925      1710.99525        33.10025
G16  20640180.70025   -253635.88625     -2825.51225        32.90025
G26  22311786.57215   -396637.76715     -4383.01415        31.60015
G27  20398164.24515     -2556.48815       -56.19915        31.60015
G23  21301854.73314   -143401.70814     -1611.00814        28.20014
G08  22784723.56414    106729.13214      1634.82614        24.40014
C11  21898154.82326   -152543.23126     -1698.31126        38.40026
R16  19991207.97526   -233320.22426     -2615.03626        37.30026
R18  19567073.29714    -94079.98214     -1062.92814        26.50014
> 2025 05 08 10 59 22.9999998  0 10                      
G10  21932246.62225     98612.79125      1039.32025        33.40025
G02  24379740.85725    159132.68925      1711.06225        33.10025
G16  20640387.85725   -256455.58925     -2825.75225        32.80025
G26  22312284.82715   -401015.09115     -4383.39815        31.60015
G27  20397847.36415     -2608.69715       -59.00815        31.60015
G23  21301824.45414   -145011.08014     -1616.24414        28.10014
G08  22784086.50514    108365.11914      1628.13414        24.50014
C11  21898154.22326   -154235.71426     -1698.35726        38.30026
R16  19991369.26326   -235928.06826     -2615.62426        37.30026
R18  19566943.78714    -95133.97914     -1061.73114        26.40014
> 2025 05 08 10 59 23.9999999  0 10                      
G10  21931817.31925     99658.02625      1039.15925        33.30025
G02  24379188.63925    160849.46925      1710.74725        33.20025
G16  20640698.74225   -259276.03025     -2826.75425        32.70025
G26  22312890.10815   -405388.90515     -4378.00215        31.70015
G27  20397634.21215     -2660.45015       -57.47215        31.60015
G23  21301907.49614   -146625.56714     -1622.99014        28.00014
G08  22783549.57714    109999.92614      1628.27114        24.80014
C11  21898254.65426   -155928.33026     -1698.57226        38.30026
R16  19991633.68026   -238545.79226     -2616.57626        37.40026
R18  19566907.81214    -96144.38514     -1065.01614        26.40014
> 2025 05 08 10 59 24.9999999  0 10                      
G02  24378621.13225    162566.14725      1710.79125        33.30025
G10  21931381.42125    100702.73525      1038.61025        33.30025
G16  20641001.53225   -262097.03025     -2827.11425        32.60025
G26  22313487.89415   -409767.65715     -4387.05315        31.70015
G27  20397412.66515     -2712.30115       -57.73515        31.60015
G23  21301977.64814   -148240.68814     -1621.27214        27.90014
G08  22783001.55614    111630.95514      1623.30314        24.80014
C11  21898340.39426   -157621.31826     -1698.95626        38.30026
R16  19991884.90626   -241153.63626     -2617.58826        37.40026
R18  19566873.33514    -97225.88214     -1068.76814        26.30014
> 2025 05 08 10 59 26.0000000  0 10                      
G02  24378078.50725    164282.77925      1710.66125        33.30025
G10  21930957.51425    101747.19325      1038.38625        33.20025
G16  20641315.71425   -264918.50625     -2827.65725        32.50025
G26  22314102.76815   -414147.79715     -4386.77715        31.80015
G27  20397206.10815     -2764.12715       -57.75915        31.60015
G23  21302059.79114   -149852.93714     -1616.75714        27.80014
G08  22782467.02614    113264.32114      1628.58614        24.80014
C11  21898441.42426   -159314.31626     -1698.89326        38.30026
R16  19992149.32326   -243769.83226     -2618.25426        37.50026
R18  19566864.04214    -98380.63914     -1069.74014        26.30014
> 2025 05 08 10 59 27.0000001  0 10                      
G02  24377543.67825    165999.13225      1710.37725        33.40025
G10  21930548.59725    102791.07425      1037.75525        33.20025
G16  20641652.38125   -267740.48125     -2828.05825        32.50025
G26  22314727.53615   -418527.38215     -4385.14015        31.80015
G27  20397000.75015     -2818.38515       -61.31115        31.70015
G23  21302157.82314   -151464.69014     -1617.34014        27.60014
G08  22781948.68514    114901.20514      1632.80714        24.80014
C11  21898561.34126   -161007.67926     -1699.32726        38.30026
R16  19992435.32526   -246404.42626     -2619.10126        37.50026
R18  19566836.76114    -99339.92714     -1057.32214        26.30014
> 2025 05 08 10 59 27.9999999  0 10                      
G02  24376899.12425    167715.65125      1710.65425        33.50025
G10  21930038.35025    103834.68325      1037.52725        33.10025
G16  20641878.42525   -270562.89825     -2828.58125        32.40025
G26  22315238.38215   -422905.97415     -4384.03615        31.80015
G27  20396700.95815     -2869.05415       -54.82015        31.70015
G23  21302151.22814   -153075.60114     -1616.43514        27.50014
G08  22781318.52114    116543.20914      1638.61614        24.70014
C11  21898569.13626   -162700.95026     -1699.11526        38.30026
R16  19992605.90726   -248999.98526     -2619.86126        37.50026
R18  19566726.73714   -100435.11414     -1066.35014        26.30014
> 2025 05 08 10 59 28.9999999  0 10                      
G02  24376335.81425    169431.79525      1710.12025        33.60025
G10  21929602.75225    104877.67325      1036.84425        33.10025
G16  20642176.11925   -273386.18525     -2829.55525        32.40025
G26  22315839.46615   -427285.18015     -4385.34715        31.80015
G27  20396466.22015     -2920.65115       -57.89715        31.70015
G23  21302216.58214   -154689.30614     -1620.93514        27.40014
G08  22780762.70614    118189.03214      1641.89614        24.70014
C11  21898657.57526   -164394.69626     -1699.76526        38.30026
R16  19992861.03026   -251630.75926     -2620.93726        37.50026
R18  19566674.27314   -101421.89514     -1058.33614        26.20014
> 2025 05 08 10 59 30.0000000  0 10                      
G02  24375784.79525    171147.89425      1710.12925        33.70025
G10  21929177.34625    105920.45925      1036.73725        33.00025
G16  20642483.10625   -276209.91625     -2829.89725        32.40025
G26  22316451.64215   -431665.38215     -4386.64115        31.80015
G27  20396245.57315     -2973.10915       -58.83515        31.70015
G23  21302303.22214   -156307.71714     -1626.71014        27.30014
G08  22780211.98714    119833.79314      1638.28214        24.60014
C11  21898756.50626   -166088.52226     -1699.75726        38.40026
R16  19993115.85426   -254194.98026     -2621.44026        37.50026
R18  19566653.28814   -102514.02714     -1065.84914        26.20014
> 2025 05 08 10 59 31.0000000  0 10                      
G02  24375219.68725    172863.54425      1709.58825        33.70025
G10  21928742.34825    106962.40725      1035.69325        33.00025
G16  20642781.40025   -279034.25425     -2830.47525        32.30025
G26  22317045.23115   -436045.49815     -4385.90615        31.80015
G27  20396017.13115     -3029.23815       -63.79915        31.70015
G23  21302370.37614   -157928.65914     -1628.04114        27.20014
G08  22779669.06314    121474.48914      1632.82714        24.50014
C11  21898846.44426   -167782.85726     -1700.37026        38.40026
R16  19993370.67726   -256823.46126     -2622.90026        37.50026
R18  19566622.40914   -103613.85614     -1071.15414        26.30014
> 2025 05 08 10 59 32.0000001  0 10                      
G02  24374685.75625    174579.07925      1709.61325        33.70025
G10  21928340.92525    108004.03325      1035.60125        33.00025
G16  20643114.16925   -281859.43725     -2831.46725        32.30025
G26  22317678.69315   -440425.70715     -4386.11615        31.80015
G27  20395824.96415     -3086.11515       -63.11515        31.60015
G23  21302467.80814   -159547.23814     -1623.26114        27.10014
G08  22779148.32414    123109.57214      1626.41214        24.50014
C11  21898964.86226   -169477.40926     -1700.47026        38.40026
R16  19993654.58126   -259445.82626     -2623.45626        37.50026
R18  19566600.22514   -104601.40214     -1070.90014        26.40014
> 2025 05 08 10 59 32.9999999  0 10                      
G02  24374040.00325    176294.61225      1709.58425        33.70025
G10  21927826.78125    109045.13225      1034.88925        32.90025
G16  20643335.11625   -284685.06025     -2831.78625        32.20025
G26  22318193.13615   -444807.20815     -4388.08815        31.80015
G27  20395518.87615     -3140.36615       -58.88415        31.60015
G23  21302467.20914   -161165.92114     -1624.67914        27.00014
G08  22778527.15414    124740.89514      1623.49514        24.40014
C11  21898974.45526   -171172.02826     -1700.54226        38.40026
R16  19993832.95726   -262083.42326     -2624.40126        37.50026
R18  19566505.49014   -105778.31314     -1067.99514        26.40014
> 2025 05 08 10 59 33.9999999  0 10                      
G02  24373473.09625    178009.81625      1709.20325        33.70025
G10  21927398.67825    110085.92725      1034.80625        32.90025
G16  20643637.00725   -287511.12025     -2832.11325        32.20025
G26  22318784.02715   -449187.99915     -4386.26915        31.80015
G27  20395296.43015     -3196.62715       -63.10215        31.50015
G23  21302533.76314   -162785.02114     -1625.14414        26.80014
G08  22777990.52514    126372.82614      1626.39814        24.40014
C11  21899063.19426   -172867.01026     -1700.94526        38.40026
R16  19994085.08326   -264695.85326     -2625.31426        37.50026
R18  19566459.92214   -106801.75814     -1063.36214        26.40014
> 2025 05 08 10 59 35.0000000  0 10                      
G02  24372920.57825    179725.01925      1709.25525        33.70025
G10  21926972.37325    111126.27525      1034.17725        32.80025
G26  22319388.10915   -453567.95215     -4385.47615        31.80015
G16  20643952.98925   -290337.92125     -2833.11425        32.10025
G27  20395076.08315     -3252.93015       -62.27015        31.50015
G23  21302619.50314   -164402.52814     -1622.65414        26.70014
G08  22777456.59514    128011.14814      1635.56914        24.40014
C11  21899165.42326   -174562.16526     -1701.13226        38.50026
R16  19994350.39926   -267316.63426     -2626.16326        37.40026
R18  19566445.23214   -107925.96714     -1068.54314        26.50014
> 2025 05 08 10 59 36.0000000  0 10                      
G02  24372363.56425    181439.85425      1708.81425        33.70025
G10  21926540.37225    112165.84725      1033.34825        32.80025
G26  22319996.38815   -457949.58915     -4388.31215        31.80015
G16  20644256.37925   -293165.38225     -2833.62425        32.00025
G27  20394853.03715     -3310.93515       -64.69315        31.50015
G23  21302687.55614   -166021.17514     -1625.05214        26.70014
G08  22776904.67714    129651.47714      1635.49714        24.40014
C11  21899250.56426   -176257.70126     -1701.50926        38.50026
R16  19994601.62526   -269926.00626     -2627.12426        37.40026
R18  19566410.75614   -109007.46314     -1073.50114        26.50014
> 2025 05 08 10 59 36.9999999  0 10                      
G02  24371750.78825    183154.52825      1708.64625        33.70025
G10  21926052.31025    113205.17825      1033.26425        32.80025
G26  22320548.90615   -462332.41715     -4389.36515        31.90015
G16  20644511.50215   -295992.11215     -2833.05915        31.90015
G27  20394581.42515     -3366.71715       -60.61515        31.50015
G23  21302711.54014   -167642.17214     -1628.11714        26.60014
G08  22776308.69014    131291.57314      1634.03114        24.50014
C11  21899292.83526   -177953.43726     -1701.72526        38.60026
R16  19994799.78826   -272507.80726     -2628.19026        37.30026
R18  19566311.52414   -110000.30014     -1066.82814        26.50014
> 2025 05 08 10 59 37.9999999  0 10                      
G02  24371184.18025    184868.81325      1708.25325        33.70025
G10  21925622.40725    114243.69425      1032.27225        32.80025
G26  22321145.19315   -466715.51015     -4389.05915        31.90015
G27  20394354.78215     -3424.68615       -64.89815        31.60015
G16  20644805.59815   -298820.12615     -2834.23915        31.80015
G23  21302777.79414   -169263.85514     -1627.85914        26.50014
G08  22775761.26914    132926.53014      1626.55214        24.50014
C11  21899381.87326   -179649.60726     -1702.17026        38.60026
R16  19995060.30826   -275166.09626     -2629.20726        37.30026
R18  19566293.53714   -111170.39614     -1072.28014        26.70014
> 2025 05 08 10 59 39.0000000  0 10                      
G02  24370639.75725    186583.02625      1708.23025        33.70025
G10  21925206.59525    115281.85925      1032.04125        32.80025
G26  22321743.87815   -471097.66415     -4387.62615        31.90015
G27  20394138.93115     -3481.41415       -62.05315        31.70015
G16  20645118.58215   -301646.06015     -2830.83915        31.80015
G23  21302857.53914   -170886.92914     -1629.71514        26.50014
G08  22775224.04014    134557.30214      1622.73114        24.50014
C11  21899482.00426   -181345.99126     -1702.38026        38.70026
R16  19995322.62626   -277770.82726     -2629.94926        37.20026
R18  19566253.36514   -112158.65214     -1071.66814        26.70014
> 2025 05 08 10 59 40.0000000  0 10                      
G02  24370074.34925    188296.72425      1707.60325        33.70025
G10  21924771.29725    116319.25725      1031.17925        32.90025
G26  22322341.36515   -475481.25215     -4390.13715        31.90015
G27  20393909.29015     -3539.62215       -64.78515        31.70015
G16  20645412.67815   -304475.85415     -2837.55615        31.60015
G23  21302925.89114   -172509.65514     -1628.38514        26.50014
G08  22774678.11814    136191.69114      1630.36214        24.60014
C11  21899569.54326   -183042.94226     -1703.01726        38.70026
R16  19995584.94526   -280438.28726     -2631.20426        37.20026
R18  19566214.39214   -113215.70314     -1072.97914        26.70014
> 2025 05 08 10 59 40.9999998  0 10                      
G02  24369430.99425    190010.06525      1707.21525        33.70025
G10  21924258.65225    117356.03425      1030.52025        33.00025
G26  22322864.80215   -479864.71115     -4389.33615        31.90015
G27  20393607.99915     -3597.16215       -63.15115        31.70015
G16  20645644.41815   -307305.66715     -2835.76715        31.50015
G23  21302919.59614   -174133.45714     -1630.28514        26.50014
G08  22774069.54014    137827.03914      1629.87914        24.80014
C11  21899583.03426   -184740.29126     -1703.43826        38.70026
R16  19995754.92726   -283032.31826     -2632.38626        37.10026
R18  19566093.87514   -114256.66214     -1072.74614        26.70014
> 2025 05 08 10 59 41.9999999  0 10                      
G02  24368896.16425    191723.18625      1707.17425        33.60025
G10  21923859.02825    118392.09825      1029.87125        33.00025
G26  22323487.47115   -484250.03315     -4392.08615        31.90015
G27  20393407.13815     -3656.73415       -66.42515        31.60015
G16  20645972.69115   -310138.02015     -2839.45615        31.40015
G23  21303019.42714   -175757.07214     -1629.35614        26.50014
G08  22773545.20314    139461.23414      1627.78314        25.00014
C11  21899700.25326   -186437.99726     -1703.66626        38.70026
R16  19996042.42826   -285675.32026     -2633.39926        37.00026
R18  19566102.56914   -115409.95114     -1077.93914        26.60014
> 2025 05 08 10 59 42.9999999  0 10                      
G02  24368320.56325    193435.90125      1706.56525        33.60025
G10  21923406.64125    119427.63425      1029.32425        33.10025
G26  22324064.87115   -488636.25115     -4392.60815        31.80015
G27  20393173.89915     -3716.08815       -65.19115        31.60015
G16  20646258.09315   -312969.85415     -2837.51815        31.30015
G23  21303079.98514   -177378.90014     -1626.88014        26.50014
G08  22772970.20114    141093.30314      1625.05814        25.10014
C11  21899770.70426   -188136.14026     -1704.25226        38.70026
R16  19996278.96426   -288302.98126     -2634.26526        36.90026
R18  19566008.73414   -116271.41314     -1069.56614        26.60014
> 2025 05 08 10 59 44.0000000  0 10                      
G02  24367791.12925    195148.32625      1706.44425        33.60025
G10  21923008.51725    120462.61425      1028.86625        33.20025
G26  22324696.23415   -493022.83815     -4392.60515        31.80015
G27  20392966.44315     -3776.63115       -66.97315        31.50015
G16  20646594.16015   -315801.68115     -2837.65815        31.20015
G23  21303181.31414   -179000.21814     -1626.89714        26.40014
G08  22772460.55414    142723.32914      1623.16614        25.10014
C11  21899891.22126   -189834.55926     -1704.33926        38.70026
R16  19996567.06526   -290948.27626     -2635.29426        36.80026
R18  19566015.03014   -117410.19214     -1066.24314        26.60014
> 2025 05 08 10 59 45.0000001  0 10                      
G02  24367240.11125    196860.52025      1706.13125        33.50025
G10  21922584.61025    121497.01125      1028.15925        33.30025
G26  22325307.51115   -497407.80415     -4390.09715        31.70015
G27  20392750.89215     -3836.41815       -65.35515        31.50015
G16  20646907.14415   -318634.14315     -2838.72315        31.10015
G23  21303261.35914   -180625.39014     -1633.04414        26.40014
G08  22771926.92314    144352.69014      1623.08214        25.10014
C11  21899994.05026   -191533.37926     -1704.91126        38.60026
R16  19996833.28026   -293574.40826     -2636.49826        36.80026
R18  19565977.25614   -118412.20014     -1076.09214        26.50014
> 2025 05 08 10 59 46.0000001  0 10                      
G10  21922149.31225    122530.81025      1027.66425        33.50025
G02  24366671.70425    198572.59325      1706.17525        33.50025
G26  22325899.00215   -501794.36915     -4393.19715        31.70015
G27  20392525.44815     -3898.11615       -68.49015        31.40015
G16  20647212.33215   -321467.79315     -2840.07815        31.10015
G23  21303337.80614   -182251.49314     -1632.40214        26.40014
G08  22771378.90214    145983.87814      1626.26314        25.10014
C11  21900083.38826   -193232.41426     -1704.92326        38.60026
R16  19997089.00326   -296206.71026     -2636.91726        36.60026
R18  19565945.17814   -119506.68014     -1078.65914        26.40014
> 2025 05 08 10 59 46.9999999  0 10                      
G10  21921637.26625    123564.11225      1027.10625        33.60025
G02  24366031.34825    200284.08925      1705.26125        33.50025
G26  22326411.04715   -506180.36315     -4391.65015        31.60015
G27  20392222.95815     -3959.43715       -67.07715        31.30015
G16  20647428.78215   -324303.01115     -2841.94615        31.00015
G23  21303338.70614   -183877.29514     -1631.59514        26.40014
G08  22770749.03814    147617.24714      1628.51314        25.00014
C11  21900093.28126   -194931.98426     -1705.72926        38.60026
R16  19997269.77826   -298855.77126     -2638.20726        36.50026
R18  19565827.06014   -120559.09114     -1075.73714        26.30014
> 2025 05 08 10 59 47.9999999  0 10                      
G10  21921209.16325    124596.80825      1026.55625        33.70025
G02  24365470.43625    201995.45625      1705.46525        33.40025
G26  22327010.63215   -510568.43415     -4394.94215        31.50015
G27  20391995.71515     -4019.45015       -65.19615        31.30015
G16  20647727.07615   -327138.69415     -2841.74915        31.00015
G23  21303409.75614   -185503.43114     -1632.13914        26.30014
G08  22770207.61314    149251.48814      1628.83914        25.00014
C11  21900185.01726   -196631.77226     -1705.67826        38.60026
R16  19997514.70926   -301429.98526     -2639.33626        36.40026
R18  19565820.46414   -121788.75814     -1072.24614        26.30014
> 2025 05 08 10 59 49.0000000  0 10                      
G10  21920782.25825    125628.86625      1025.79225        33.70025
G02  24364913.12225    203706.51825      1704.96325        33.40025
G26  22327623.70815   -514955.51315     -4392.52615        31.50015
G27  20391786.46015     -4084.97015       -74.21815        31.20015
G16  20648040.35915   -329973.24315     -2839.92515        30.90015
G23  21303489.20114   -187130.35714     -1633.26414        26.30014
G08  22769675.48214    150884.72714      1626.79114        25.10014
C11  21900284.54826   -198331.97626     -1706.30226        38.60026
R16  19997780.02526   -304051.53026     -2640.32426        36.30026
R18  19565779.09314   -122771.66714     -1073.34014        26.20014
> 2025 05 08 10 59 50.0000000  0 10                      
G10  21920352.95525    126660.34525      1025.35425        33.90025
G02  24364353.70925    205417.35525      1704.88625        33.30025
G26  22328222.39315   -519343.91615     -4394.89615        31.40015
G27  20391563.11515     -4146.92715       -66.01315        31.10015
G16  20648345.54815   -332811.19615     -2845.48915        30.80015
G23  21303559.95214   -188757.71914     -1633.41514        26.30014
G08  22769125.36314    152514.53714      1622.25914        25.20014
C11  21900373.88726   -200032.54326     -1706.53026        38.50026
R16  19998044.44226   -306730.45626     -2641.20526        36.20026
R18  19565741.31914   -123835.59214     -1071.39314        26.20014
> 2025 05 08 10 59 50.9999999  0 10                      
G10  21919871.78925    127691.41525      1024.91725        34.00025
G02  24363752.32525    207127.85525      1704.38525        33.30025
G26  22328764.71815   -523732.10615     -4394.02715        31.40015
G27  20391285.20715     -4206.05615       -63.66115        31.00015
G16  20648598.57315   -335649.19415     -2843.96515        30.70015
G23  21303580.63814   -190387.55314     -1637.01514        26.20014
G08  22768523.37914    154144.55614      1624.17514        25.40014
C11  21900413.15926   -201733.32626     -1706.78126        38.50026
R16  19998244.40326   -309325.25126     -2642.13326        36.10026
R18  19565682.86014   -125046.87614     -1073.80014        26.10014
> 2025 05 08 10 59 51.9999999  0 10                      
G10  21919439.18825    128721.98925      1024.49125        34.10025
G02  24363192.01325    208838.38125      1704.70225        33.20025
G26  22329359.20615   -528121.20515     -4395.38615        31.40015
G27  20391053.16815     -4267.67915       -68.70515        30.90015
G16  20648905.26015   -338488.75915     -2846.18115        30.70015
G23  21303644.49414   -192022.21014     -1642.90314        26.20014
G08  22767982.25414    155774.64114      1624.28214        25.50014
C11  21900504.89626   -203434.32826     -1706.89326        38.50026
R16  19998502.82526   -311971.31026     -2642.90026        36.00026
R18  19565631.89514   -126040.53714     -1079.24014        26.10014
> 2025 05 08 10 59 53.0000000  0 10                      
G10  21919014.68225    129752.11125      1023.94925        34.20025
G02  24362632.60025    210548.57625      1704.08225        33.20025
G26  22329972.58215   -532509.99115     -4394.57315        31.30015
G27  20390843.01315     -4332.29315       -72.05615        30.80015
G16  20649217.64415   -341327.43115     -2844.17015        30.60015
G23  21303730.83414   -193661.15314     -1647.02914        26.10014
G08  22767445.92514    157406.95114      1627.47414        25.60014
C11  21900606.82526   -205135.74526     -1707.51526        38.50026
R16  19998779.53326   -314654.00226     -2644.17926        35.90026
R18  19565601.01614   -127079.96414     -1081.27914        26.10014
> 2025 05 08 10 59 54.0000000  0 10                      
G10  21918579.98325    130781.51825      1023.21225        34.20025
G02  24362069.29025    212258.35125      1703.72925        33.10025
G26  22330572.16715   -536900.34215     -4396.96515        31.30015
G27  20390618.76815     -4399.86215       -74.88315        30.70015
G16  20649523.73215   -344166.72215     -2845.43315        30.50015
G08  22766901.80214    159040.46914      1628.28614        25.80014
G23  21303821.37114   -195302.22014     -1647.96414        26.00014
C11  21900698.26226   -206837.40026     -1707.55526        38.50026
R16  19999029.26026   -317253.43826     -2644.85826        35.80026
R18  19565599.81714   -128337.89614     -1080.90514        26.10014
> 2025 05 08 10 59 54.9999999  0 10                      
G10  21918104.51225    131810.66825      1023.07625        34.30025
G02  24361464.00925    213968.43025      1704.28325        33.00025
G26  22331121.38615   -541289.28715     -4394.18515        31.30015
G27  20390343.85915     -4463.12015       -67.04715        30.70015
G16  20649780.95415   -347011.27015     -2853.12115        30.40015
G08  22766304.31514    160671.44914      1623.76214        25.80014
G23  21303852.85014   -196938.27614     -1639.49614        26.00014
C11  21900736.63626   -208539.13826     -1707.67126        38.60026
R16  19999232.51926   -319864.28326     -2645.57026        35.70026
R18  19565500.58614   -129331.49614     -1079.73914        26.30014
> 2025 05 08 10 59 55.9999999  0 10                      
G10  21917669.21325    132839.10125      1022.23725        34.40025
G02  24360906.69525    215677.75625      1703.11325        33.00025
G26  22331712.87715   -545679.35815     -4396.46615        31.30015
G27  20390123.21115     -4528.45615       -72.21215        30.60015
G16  20650091.53915   -349854.81215     -2848.87115        30.40015
G08  22765752.39814    162296.72414      1616.58714        25.90014
G23  21303921.80214   -198572.26414     -1638.78714        25.90014
C11  21900827.17326   -210241.49326     -1708.44426        38.60026
R16  19999494.23826   -322527.92226     -2646.88526        35.70026
R18  19565447.52314   -130314.46114     -1076.93014        26.50014
> 2025 05 08 10 59 57.0000000  0 10                      
G10  21917251.90225    133867.12125      1021.86725        34.40025
G02  24360356.87625    217387.13825      1703.46325        32.90025
G26  22332319.65715   -550070.01815     -4396.89715        31.20015
G27  20389905.86215     -4592.97615       -70.05715        30.50015
G16  20650403.92315   -352697.79815     -2848.65315        30.30015
G08  22765221.16514    163924.60714      1623.23914        25.90014
G23  21303997.64914   -200207.37214     -1641.61414        25.90014
C11  21900930.00226   -211943.92526     -1708.36126        38.60026
R16  19999770.04726   -325206.02826     -2647.56526        35.60026
R18  19565423.83914   -131390.55214     -1079.03814        26.60014
> 2025 05 08 10 59 58.0000000  0 10                      
G10  21916820.50125    134894.49925      1021.22025        34.50025
G02  24359789.96825    219096.21125      1703.08025        32.80025
G26  22332923.43915   -554461.36515     -4397.52315        31.20015
G27  20389682.81615     -4659.48615       -73.34015        30.50015
G16  20650707.61315   -355537.86915     -2844.44515        30.20015
G08  22764672.84514    165553.16014      1623.05114        26.00014
G23  21304079.19314   -201841.70014     -1639.77114        25.90014
C11  21901018.44026   -213646.77326     -1708.83826        38.60026
R16  20000023.37226   -327825.33726     -2648.81926        35.50026
R18  19565400.75514   -132533.14914     -1080.75114        26.70014
> 2025 05 08 10 59 59.0000001  0 10                      
G10  21916402.59025    135921.33125      1020.61325        34.50025
G02  24359236.85125    220804.91325      1702.57025        32.80025
G26  22333530.21915   -558851.53215     -4395.51915        31.10015
G16  20651023.89415   -358378.34615     -2846.62515        30.10015
G27  20389469.66415     -4727.54515       -74.78015        30.40015
G08  22764142.81214    167182.09914      1623.18514        26.20014
G23  21304167.63214   -203477.05314     -1641.81214        25.90014
C11  21901121.56926   -215350.04026     -1709.36626        38.70026
R16  20000289.28825   -330449.17525     -2649.72425        35.40025
R18  19565364.48014   -133542.79414     -1081.91914        26.70014
> 2025 05 08 10 59 59.9999998  0 10                      
G10  21915881.55125    136947.32225      1019.73425        34.60025
G02  24358577.00825    222513.17325      1702.20125        32.70025
G26  22334038.36715   -563246.40715     -4403.06015        31.00015
G16  20651228.95215   -361222.78215     -2852.24915        30.10015
G27  20389149.78515     -4796.68815       -75.52015        30.20015
G08  22763503.35514    168810.69014      1622.58114        26.20014
G23  21304147.84514   -205115.03114     -1645.12514        25.80014
C11  21901121.86926   -217053.84226     -1709.85126        38.70026
R16  20000463.46725   -333126.57325     -2650.99025        35.40025
R18  19565240.66614   -134627.34114     -1080.91014        26.70014
> 2025 05 08 11 00 00.9999998  0 10                      
G10  21915456.44525    137972.71425      1019.14525        34.60025
G02  24358035.88325    224221.00125      1701.66525        32.70025
G26  22334643.34815   -567641.87715     -4401.71115        30.90015
G16  20651548.23115   -364070.81815     -2855.77915        30.00015
G27  20388938.43215     -4867.74815       -77.96515        30.10015
G08  22762978.41814    170438.42914      1621.36514        26.20014
G23  21304224.89214   -206754.70714     -1646.46814        25.80014
C11  21901223.19926   -218757.95926     -1710.16526        38.80026
R16  20000727.58425   -335741.23925     -2652.08425        35.30025
R18  19565215.78314   -135696.55714     -1081.21414        26.70014
> 2025 05 08 11 00 02.0000000  0 10                      
G10  21915052.92525    138997.49825      1018.64425        34.70025
G02  24357503.75125    225928.61425      1701.66925        32.60025
G26  22335285.50415   -572036.08215     -4399.40515        30.90015
G16  20651894.49115   -366916.55315     -2850.41915        30.00015
G27  20388745.66515     -4938.18115       -75.95515        29.90015
G08  22762461.87614    172066.07114      1621.75614        26.20014
G23  21304325.02314   -208397.86014     -1650.72714        25.80014
C11  21901343.71526   -220462.64526     -1710.75126        38.80026
R16  20001031.27425   -338471.37425     -2652.94425        35.30025
R18  19565227.17514   -136865.12114     -1080.55014        26.90014
> 2025 05 08 11 00 03.0000000  0 10                      
G10  21914598.43925    140021.08125      1017.03525        34.70025
G02  24356920.65525    227635.35525      1700.35625        32.60025
G26  22335865.60215   -576425.66915     -4393.21915        30.80015
G16  20652178.09515   -369762.94215     -2852.65815        29.90015
G27  20388507.03015     -5008.92915       -76.85315        29.80015
G08  22761883.87614    173694.81714      1623.35114        26.20014
G23  21304374.48814   -210040.76814     -1648.72914        25.80014
C11  21901414.16626   -222168.13726     -1711.78526        38.80026
R16  20001266.01225   -341089.86325     -2655.04525        35.20025
R18  19565169.31514   -137919.83114     -1082.98414        26.90014
> 2025 05 08 11 00 04.0000001  0 10                      
G10  21914198.81625    141044.05125      1016.82825        34.70025
G02  24356383.72625    229341.64225      1700.22425        32.50025
G26  22336491.56915   -580820.55315     -4403.36515        30.70015
G16  20652515.36115   -372608.39615     -2850.82115        29.90015
G27  20388310.66615     -5079.30515       -76.02515        29.70015
G08  22761361.03814    175317.54514      1613.88314        26.20014
G23  21304496.50414   -211685.21514     -1651.05314        25.90014
C11  21901536.48226   -223874.01426     -1711.85126        38.80026
R16  20001549.91525   -343712.22925     -2655.45825        35.20025
R18  19565157.92314   -138963.13214     -1087.73714        27.00014
> 2025 05 08 11 00 04.9999999  0 10                      
G10  21913693.66625    142066.44225      1016.15425        34.60025
G02  24355741.57125    231047.70025      1699.99525        32.40025
G26  22337017.10515   -585216.05915     -4401.75915        30.60015
G16  20652736.90815   -375456.64815     -2855.59415        29.80015
G27  20388011.47315     -5153.31915       -81.77915        29.60015
G08  22760740.76714    176940.54414      1617.18714        26.30014
G23  21304503.69914   -213329.64114     -1650.35914        26.00014
C11  21901548.47326   -225580.30926     -1712.39426        38.80026
R16  20001728.89125   -346352.11925     -2656.88825        35.20025
R18  19565045.80114   -140047.62714     -1082.69514        27.20014
> 2025 05 08 11 00 05.9999999  0 10                      
G10  21913256.86825    143088.16625      1015.55425        34.60025
G02  24355184.85625    232753.33125      1699.58125        32.20025
G26  22337613.39215   -589612.60315     -4402.89615        30.50015
G16  20653046.59315   -378305.26115     -2854.62615        29.80015
G27  20387789.92715     -5226.52515       -78.63715        29.50015
G08  22760193.04614    178566.37414      1621.40814        26.40014
G23  21304577.74814   -214972.77014     -1648.31414        26.30014
C11  21901639.01126   -227287.11726     -1712.84626        38.80026
R16  20001995.70725   -349044.03825     -2657.78825        35.20025
R18  19565013.12314   -141139.81514     -1087.94114        27.40014
> 2025 05 08 11 00 07.0000000  0 10                      
G10  21912846.15215    144109.06615      1014.54215        34.50015
G02  24354634.43725    234459.04925      1699.06425        32.10025
G26  22338226.46815   -594009.28915     -4402.69915        30.30015
G27  20387580.67215     -5298.97015       -78.01215        29.50015
G16  20653365.27315   -381158.19915     -2861.04415        29.70015
G08  22759661.21414    180191.40814      1618.68914        26.60014
G23  21304664.08814   -216618.17414     -1652.48714        26.40014
C11  21901743.93826   -228994.41926     -1713.43926        38.80026
R16  20002263.72125   -351680.10625     -2658.95825        35.30025
R18  19564977.74814   -142153.27614     -1087.65814        27.50014
> 2025 05 08 11 00 08.0000000  0 10                      
G02  24354072.32725    236163.66225      1698.47325        32.00025
G26  22338831.74915   -598406.91015     -4403.92115        30.20015
G27  20387352.23015     -5371.37415       -78.21815        29.50015
G16  20653671.96015   -384013.54315     -2862.38115        29.60015
G08  22759109.59614    181815.63614      1617.98814        26.70014
G10  21912411.45315    145128.94915      1013.53715        33.90015
G23  21304745.33214   -218266.19414     -1655.16214        26.60014
C11  21901832.37726   -230702.22726     -1713.84226        38.80026
R16  20002523.64125   -354335.33725     -2660.18825        35.30025
R18  19564962.45814   -143337.88114     -1089.53714        27.60014
> 2025 05 08 11 00 08.9999999  0 10                      
G02  24353460.45025    237868.08825      1698.38425        32.00025
G26  22339384.56615   -602803.34315     -4401.78115        30.10015
G27  20387084.51515     -5446.66815       -82.68515        29.50015
G16  20653920.48814   -386867.70814     -2859.51814        29.40014
G08  22758518.10614    183440.83214      1619.73314        27.00014
G23  21304782.80614   -219914.56114     -1654.48714        27.00014
G10  21911911.39915    146148.21115      1013.00515        32.60015
C11  21901877.04626   -232410.60326     -1714.55126        38.80026
R16  20002734.39525   -356985.16325     -2661.60325        35.30025
R18  19564870.42214   -144369.67114     -1086.25714        27.90014
> 2025 05 08 11 00 09.9999999  0 10                      
G02  24352903.13625    239571.64825      1697.29125        31.90025
G26  22339982.35215   -607202.32615     -4406.09015        30.60015
G27  20386866.56615     -5521.64215       -80.64915        29.50015
G16  20654222.97914   -389721.70614     -2859.74714        29.30014
G23  21304859.85214   -221559.28914     -1648.74314        27.40014
G08  22757977.28014    185066.63114      1620.26314        27.00014
G10  21911463.21015    147168.41115      1014.83315        31.30015
C11  21901968.18326   -234119.82026     -1715.42026        38.90026
R16  20003002.11025   -359680.90525     -2662.87425        35.20025
R18  19564835.94614   -145451.16614     -1084.81714        28.30014
> 2025 05 08 11 00 11.0000000  0 10                      
G02  24352360.81125    241274.83125      1697.04625        31.90025
G26  22340600.22415   -611600.59215     -4403.85015        30.90015
G27  20386654.61315     -5598.48315       -83.72015        29.70015
G16  20654535.36314   -392577.00814     -2861.89814        29.10014
G23  21304944.99314   -223204.99314     -1652.13614        27.80014
G08  22757441.55114    186692.03214      1619.25514        27.00014
G10  21911045.29915    148187.33415      1012.33715        30.30015
C11  21902071.31226   -235829.24126     -1715.41326        38.90026
R16  20003257.83325   -362251.24025     -2663.61125        35.20025
R18  19564801.17014   -146468.44614     -1087.29214        28.30014
> 2025 05 08 11 00 12.0000000  0 10                      
G02  24351794.50315    242977.11315      1695.99515        31.80015
G26  22341191.41515   -615999.35315     -4404.84015        30.90015
G27  20386434.26515     -5674.92915       -82.08515        29.70015
G16  20654851.04414   -395436.55714     -2867.50614        28.90014
G23  21305026.23714   -224851.64014     -1652.95314        28.00014
G08  22756899.82614    188314.05214      1614.49314        27.00014
G10  21910616.59615    149204.44715      1010.37315        29.50015
C11  21902161.24926   -237539.17426     -1715.97026        38.90026
R16  20003531.84325   -364981.37525     -2664.89525        35.10025
R18  19564778.38614   -147611.80614     -1092.09814        28.50014
> 2025 05 08 11 00 12.9999998  0 10                      
G02  24351159.24315    244681.23615      1699.09715        31.70015
G26  22341727.44415   -620398.08715     -4404.66315        31.10015
G27  20386124.87915     -5749.30515       -79.28715        29.70015
G23  21305025.03814   -226497.92414     -1652.04714        28.20014
G16  20655077.38714   -398298.97214     -2869.79114        28.70014
G08  22756262.76714    189936.98914      1617.44814        27.20014
G10  21910103.05114    150219.55214      1008.15314        28.90014
C11  21902174.74026   -239249.16926     -1715.91726        38.90026
R16  20003706.32225   -367598.33525     -2665.44725        35.00025
R18  19564651.27414   -148618.39214     -1091.61614        28.50014
> 2025 05 08 11 00 13.9999999  0 10                      
G02  24350625.61315    246385.27415      1698.15915        31.70015
G26  22342349.21315   -624799.12015     -4408.01615        31.30015
G27  20385936.31015     -5826.94215       -85.10315        29.60015
G23  21305134.76214   -228146.95714     -1656.24314        28.50014
G16  20655416.45314   -401159.05214     -2864.74614        28.50014
G08  22755745.32514    191560.99414      1618.70214        27.20014
G10  21909698.93114    151233.91414      1008.15414        28.40014
C11  21902295.55626   -240959.61726     -1716.45626        38.80026
R16  20003999.51925   -370271.91025     -2666.55125        34.90025
R18  19564657.56914   -149757.93414     -1088.12214        28.50014
> 2025 05 08 11 00 15.0000000  0 10                      
G02  24350076.39315    248089.10115      1697.77415        31.60015
G26  22342964.68715   -629200.38015     -4407.31415        31.40015
G27  20385727.65415     -5905.62915       -85.15715        29.60015
G23  21305226.79814   -229798.77714     -1659.15814        28.80014
G16  20655724.93914   -404010.84314     -2853.59114        28.40014
G08  22755212.59414    193185.11614      1618.23314        27.30014
G10  21909269.62814    152251.57914      1013.37014        28.00014
C11  21902396.58626   -242670.12226     -1716.42326        39.00026
R16  20004275.62825   -372950.01725     -2667.31925        34.90025
R18  19564644.07914   -150889.01814     -1090.21514        28.50014
> 2025 05 08 11 00 16.0000000  0 10                      
G26  22343567.87015   -633600.26515     -4405.03015        31.50015
G02  24349516.38115    249790.40915      1694.21115        31.60015
G27  20385501.91115     -5981.00815       -79.56115        29.50015
G23  21305305.34414   -231451.55914     -1659.09714        29.10014
G16  20656034.32514   -406864.93214     -2861.07114        28.20014
G08  22754661.27614    194809.76014      1619.06914        27.50014
G10  21908837.32814    153269.94814      1012.88414        27.60014
C11  21902491.02126   -244381.08426     -1716.97226        39.00026
R16  20004541.24425   -375635.82125     -2668.36425        34.80025
R18  19564607.50414   -151959.05714     -1090.53414        28.60014
> 2025 05 08 11 00 17.0000001  0 10                      
G26  22344177.64815   -638000.18115     -4405.87415        31.60015
G02  24348961.46515    251493.16115      1697.52615        31.60015
G23  21305388.68614   -233105.11114     -1659.88114        29.20014
G27  20385292.05614     -6057.67514       -83.25714        29.40014
G08  22754118.95114    196434.97914      1619.55914        27.50014
G16  20656358.70014   -409721.60114     -2863.90314        28.10014
G10  21908435.30614    154286.10814      1009.10914        27.30014
C11  21902595.34926   -246092.49626     -1717.52826        39.00026
R16  20004803.26325   -378239.02325     -2669.69625        34.70025
R18  19564587.41814   -153055.00814     -1094.04414        28.60014
> 2025 05 08 11 00 17.9999998  0 10                      
G26  22344687.59515   -642402.64015     -4409.56215        31.60015
G02  24348310.31615    253194.46715      1694.74615        31.50015
G23  21305376.99414   -234759.30414     -1660.34714        29.30014
G27  20384970.97814     -6133.15014       -80.71414        29.30014
G08  22753487.28914    198057.82714      1615.82414        27.60014
G16  20656580.24714   -412580.20214     -2865.40014        27.90014
G10  21907908.27114    155302.98414      1011.39814        27.00014
C11  21902597.74726   -247804.42626     -1717.96926        39.00026
R16  20004981.93925   -380940.87825     -2670.53525        34.60025
R18  19564474.39614   -154196.84114     -1091.87014        28.60014
> 2025 05 08 11 00 18.9999999  0 10                      
G26  22345301.27015   -646802.48215     -4404.47515        31.60015
G02  24347761.69515    254893.62115      1692.13115        31.40015
G23  21305468.73114   -236414.77414     -1662.05314        29.40014
G27  20384764.12114     -6211.62214       -85.91714        29.30014
G08  22752952.45914    199681.46714      1618.08914        27.70014
G16  20656893.23014   -415436.30714     -2860.80014        27.70014
G10  21907484.06414    156317.29514      1007.08114        26.80014
C11  21902701.77526   -249516.76926     -1718.44026        39.00026
R16  20005248.45525   -383568.53925     -2671.94125        34.50025
R18  19564438.42114   -155208.00714     -1095.44914        28.80014
> 2025 05 08 11 00 20.0000000  0 10                      
G26  22345929.03515   -651203.94615     -4408.10815        31.80015
G02  24347235.26015    256592.22715      1692.49415        31.40015
G23  21305581.15315   -238071.19615     -1662.73315        29.50015
G27  20384575.85214     -6292.64214       -88.13014        29.20014
G08  22752430.82014    201303.52814      1615.43514        27.80014
G16  20657227.19914   -418295.90014     -2867.17214        27.50014
G10  21907087.43914    157329.19214      1004.85414        26.60014
C11  21902821.69226   -251229.33726     -1718.46226        39.00026
R16  20005531.15925   -386184.02625     -2672.51825        34.40025
R18  19564431.82614   -156278.04414     -1094.36814        28.80014
> 2025 05 08 11 00 21.0000000  0 10                      
G26  22346509.73315   -655605.54115     -4407.60215        32.00015
G02  24346655.16115    258293.88415      1697.23615        31.30015
G23  21305640.51215   -239725.17915     -1658.70815        29.60015
G27  20384339.01614     -6375.95514       -90.40614        29.20014
G08  22751866.61014    202923.24514      1612.59814        27.90014
G16  20657509.60414   -421158.30214     -2869.74914        27.40014
G10  21906630.85514    158341.33014      1006.31114        26.40014
C11  21902894.24226   -252942.19226     -1718.88826        39.00026
R16  20005792.87825   -388946.97125     -2673.37625        34.30025
R18  19564381.46114   -157372.46614     -1091.03914        28.80014
> 2025 05 08 11 00 22.0000001  0 10                      
G26  22347144.39415   -660008.69915     -4409.77315        32.00015
G02  24346123.33015    259995.01715      1695.03415        31.30015
G23  21305743.34115   -241380.36315     -1661.62015        29.70015
G27  20384145.65014     -6455.66214       -83.74014        29.10014
G08  22751355.46414    204547.41714      1620.56214        27.90014
G16  20657846.57014   -424019.89514     -2867.02214        27.20014
G10  21906235.72914    159351.40514      1003.20714        26.20014
C11  21903013.85926   -254655.23026     -1718.91126        39.00026
R16  20006086.67425   -391622.07525     -2674.31725        34.20025
R18  19564387.15714   -158507.42614     -1092.03114        28.80014
> 2025 05 08 11 00 22.9999999  0 10                      
G26  22347667.83125   -664411.62925     -4408.75825        32.00025
G02  24345488.36915    261694.78215      1693.13315        31.20015
G23  21305742.14215   -243039.45815     -1666.99415        29.80015
G27  20383847.95614     -6534.27014       -84.00314        29.00014
G08  22750736.69314    206169.48014      1615.06114        28.00014
G16  20658078.91014   -426885.06714     -2872.90614        27.10014
G10  21905733.57614    160357.22614       997.74814        26.10014
C11  21903028.54926   -256368.35426     -1719.05826        38.90026
R16  20006268.04925   -394277.25125     -2674.93325        34.10025
R18  19564272.63614   -159581.22614     -1096.54314        28.80014
> 2025 05 08 11 00 23.9999999  0 10                      
G26  22348270.71425   -668814.91825     -4409.30125        32.00025
G02  24344927.45715    263393.95115      1693.03315        31.30015
G23  21305819.18815   -244695.42015     -1660.23115        29.90015
G27  20383615.01714     -6614.61814       -87.05514        29.00014
G08  22750197.66614    207791.95014      1616.83814        28.00014
G16  20658395.19114   -429753.82114     -2876.37714        26.90014
G10  21905311.16914    161362.53414       999.21414        26.00014
C11  21903121.18526   -258081.71526     -1719.26126        38.90026
R16  20006525.87025   -396919.48925     -2675.82925        34.00025
R18  19564236.06114   -160652.03014     -1096.37114        28.80014
> 2025 05 08 11 00 25.0000000  0 10                      
G26  22348884.98925   -673218.25925     -4409.31025        32.10025
G02  24344374.94015    265094.36715      1695.09315        31.30015
G23  21305910.02515   -246353.02515     -1664.37115        30.00015
G27  20383407.56114     -6694.47814       -85.56114        29.00014
G08  22749669.73114    209414.38814      1616.47414        28.10014
G16  20658710.87214   -432618.95014     -2869.26114        26.70014
G10  21904883.36514    162367.16814       998.35114        25.90014
C11  21903226.11226   -259795.09926     -1719.28526        38.90026
R16  20006794.78425   -399560.90725     -2676.47925        33.90025
R18  19564214.17614   -161737.28614     -1102.05714        28.80014
> 2025 05 08 11 00 26.0000000  0 10                      
G26  22349484.27425   -677621.72125     -4409.35425        32.20025
G02  24343815.22715    266794.98315      1694.87815        31.30015
G23  21305986.17315   -248011.86815     -1665.29615        30.00015
G27  20383192.60914     -6774.62414       -86.12514        29.00014
G08  22749120.51214    211036.30814      1615.82314        28.30014
G16  20659027.75314   -435481.13414     -2866.54414        26.50014
G10  21904456.76014    163370.78414       997.27014        25.70014
C11  21903318.44826   -261508.66726     -1719.44126        38.90026
R16  20007063.99825   -402265.05525     -2677.32325        33.80025
R18  19564186.89514   -162857.72914     -1090.08614        28.80014
> 2025 05 08 11 00 26.9999999  0 10                      
G26  22350037.99125   -682025.48025     -4409.85025        32.20025
G02  24343203.95115    268495.65115      1694.74715        31.30015
G23  21306017.05115   -249670.88415     -1665.04715        30.00015
G27  20382930.29114     -6855.40914       -87.05114        29.10014
G08  22748525.72314    212656.79814      1613.82914        28.50014
G16  20659284.97514   -438341.80514     -2865.86014        26.40014
G10  21903969.59714    164374.58214       997.94314        25.60014
C11  21903361.61826   -263222.30526     -1719.56326        38.90026
R16  20007278.94925   -404937.04625     -2677.94825        33.70025
R18  19564109.24914   -163965.90014     -1090.85914        28.70014
> 2025 05 08 11 00 28.0000000  0 10                      
G26  22350656.46325   -686429.57625     -4410.17925        32.30025
G02  24342642.14015    270196.08815      1694.40115        31.20015
G23  21306106.98915   -251331.90715     -1667.94415        30.00015
G27  20382723.13414     -6940.73914       -93.52114        29.10014
G08  22747994.49114    214279.65014      1618.11314        28.70014
G16  20659586.86614   -441200.90714     -2864.23214        26.20014
G10  21903554.08514    165381.60814      1002.72014        25.40014
C11  21903468.04526   -264936.20826     -1719.89926        38.90026
R16  20007560.75425   -407646.48925     -2678.98325        33.70025
R18  19564080.16914   -165013.73314     -1096.15914        28.70014
> 2025 05 08 11 00 29.0000000  0 10                      
G26  22351258.74625   -690834.08325     -4410.54525        32.30025
G02  24342086.02515    271895.39915      1692.91115        31.20015
G23  21306175.94115   -252991.10815     -1664.12415        30.00015
G27  20382502.78714     -7022.33814       -85.57014        29.00014
G08  22747448.86914    215898.90614      1611.62014        28.80014
G16  20659896.85114   -444061.13514     -2866.62514        26.10014
G10  21903139.77214    166392.93814      1007.64514        25.30014
C11  21903559.18226   -266650.36626     -1720.06826        38.90026
R16  20007826.07025   -410330.00125     -2679.87625        33.60025
R18  19564051.08914   -166125.01314     -1097.91614        28.60014
> 2025 05 08 11 00 30.0000001  0 10                      
G26  22351866.72525   -695239.03925     -4411.12225        32.30025
G02  24341538.00415    273595.55415      1694.63115        31.20015
G23  21306270.97615   -254653.12215     -1669.36515        29.90015
G08  22746906.84414    217518.08414      1613.19314        29.10014
G27  20382287.53614     -7104.42814       -88.28014        29.00014
G16  20660223.62514   -446925.60514     -2872.53414        26.00014
G10  21902729.95614    167405.35314      1007.01214        25.20014
C11  21903663.80926   -268365.02326     -1720.79726        38.90026
R16  20008104.27825   -413020.33525     -2681.11025        33.60025
R18  19564027.10614   -167199.57614     -1094.07214        28.60014
> 2025 05 08 11 00 30.9999998  0 10                      
G26  22352379.37025   -699644.24925     -4411.16925        32.30025
G02  24340881.45815    275293.79515      1691.44515        31.10015
G23  21306255.08715   -256316.16315     -1669.38915        29.90015
G08  22746273.68214    219138.94914      1615.87014        29.30014
G27  20381973.95314     -7184.19014       -84.43514        29.10014
G16  20660446.97014   -449794.48914     -2876.92514        25.90014
G10  21902206.51814    168417.76314      1006.57014        25.10014
C11  21903664.40926   -270079.84526     -1720.68526        38.90026
R16  20008270.66225   -415655.69425     -2681.60825        33.50025
R18  19563890.40114   -168214.62014     -1095.94814        28.50014
> 2025 05 08 11 00 31.9999999  0 10                      
G26  22352984.95125   -704049.88525     -4411.79225        32.50025
G02  24340337.63515    276987.20815      1685.05215        31.10015
G23  21306347.12315   -257977.66215     -1666.67215        29.80015
G27  20381759.60114     -7267.01914       -90.30914        29.20014
G08  22745738.25314    220759.93814      1615.10514        29.30014
G16  20660766.84914   -452663.23614     -2874.62214        25.80014
G10  21901793.40414    169427.05214      1001.78214        25.20014
C11  21903769.03626   -271795.08926     -1721.34526        38.80026
R16  20008546.47225   -418333.80025     -2683.16625        33.50025
R18  19563868.21614   -169299.87714     -1099.39514        28.50014
> 2025 05 08 11 00 33.0000000  0 10                      
G26  22353620.81025   -708455.88825     -4412.01925        32.70025
G02  24339807.90215    278686.45815      1696.33215        30.90015
G27  20381572.53114     -7352.20314       -92.19614        29.30014
G10  21901401.57514    170434.21414      1000.26314        26.40014
G23  21306461.04415   -259639.62315     -1668.02715        29.70015
G08  22745221.11114    222382.04614      1616.83014        29.20014
G16  20661103.81514   -455530.61514     -2872.52814        26.00014
C11  21903892.85126   -273510.50826     -1721.28826        38.80026
R16  20008838.46925   -420998.96825     -2683.51325        33.40025
R18  19563873.61214   -170433.31014     -1096.16514        28.40014
> 2025 05 08 11 00 34.0000000  0 10                      
G26  22354201.20925   -712862.26525     -4412.50625        32.80025
G10  21900955.48415    171439.19215       997.93915        31.00015
G02  24339218.51015    280387.83615      1696.49415        30.80015
G27  20381332.99714     -7435.02914       -87.59414        29.30014
G23  21306514.70715   -261302.58415     -1669.40615        29.60015
G08  22744651.20614    224006.38514      1619.50714        29.20014
G16  20661385.92014   -458397.78014     -2873.00214        26.10014
C11  21903966.89926   -275226.25126     -1721.79526        38.70026
R16  20009089.39625   -423705.35425     -2684.88025        33.40025
R18  19563829.24314   -171562.10314     -1104.03014        28.40014
> 2025 05 08 11 00 35.0000001  0 10                      
G26  22354836.16925   -717268.97725     -4412.71225        32.90025
G10  21900550.46415    172444.28315       999.31015        31.50015
G02  24338688.17715    282089.39515      1695.81315        30.60015
G27  20381151.92214     -7520.05914       -91.96714        29.40014
G23  21306620.53414   -262970.13014     -1675.67214        29.40014
G08  22744146.65514    225626.80114      1612.61814        29.00014
G16  20661722.28714   -461264.35314     -2872.11114        26.10014
C11  21904086.21726   -276942.39926     -1722.13326        38.70026
R16  20009379.89525   -426363.64225     -2685.56425        33.40025
R18  19563832.24114   -172682.55014     -1096.30614        28.30014
> 2025 05 08 11 00 35.9999999  0 10                      
G26  22355354.81025   -721675.94825     -4413.04225        33.00025
G10  21900045.31415    173450.18115      1000.35415        31.60015
G02  24338055.91415    283786.99815      1689.67615        30.50015
G27  20380855.72715     -7603.19215       -88.13015        29.60015
G23  21306628.32814   -264638.17814     -1674.24414        29.30014
G08  22743525.18514    227246.57614      1613.50714        28.90014
G16  20661946.83214   -464133.26414     -2876.02314        26.10014
C11  21904099.10826   -278658.61026     -1722.13326        38.60026
R16  20009561.86925   -429019.58325     -2686.35225        33.40025
R18  19563711.12514   -173720.45314     -1100.03514        28.30014
> 2025 05 08 11 00 36.9999999  0 10                      
G26  22355951.99625   -726083.38025     -4413.49425        33.10025
G10  21899615.41215    174455.13515       998.64615        31.60015
G27  20380626.98615     -7688.11315       -91.65115        29.80015
G02  24337496.50215    285486.46115      1694.55615        30.30015
G23  21306716.46714   -266307.05514     -1675.12514        29.20014
G08  22742979.86314    228865.16914      1612.16514        28.80014
G16  20662270.60814   -467006.11114     -2880.64814        26.20014
C11  21904193.84226   -280375.27026     -1722.66626        38.60026
R16  20009832.28125   -431730.61025     -2687.55325        33.40025
R18  19563669.15414   -174761.46614     -1105.19814        28.20014
> 2025 05 08 11 00 38.0000000  0 10                      
G26  22356566.27125   -730491.21425     -4413.97725        33.10025
G10  21899205.89515    175458.65015       996.84915        31.60015
G27  20380426.12515     -7775.36215       -94.35915        30.00015
G02  24336948.48115    287183.53615      1689.93415        30.10015
G23  21306811.50114   -267973.57414     -1671.28514        29.10014
G08  22742450.72914    230481.63014      1609.44814        28.70014
G16  20662579.09414   -469874.37914     -2871.92214        26.20014
C11  21904299.66926   -282092.17626     -1722.91926        38.50026
R16  20010116.18525   -434450.75425     -2688.51325        33.40025
R18  19563660.16014   -175916.22714     -1100.15114        28.20014
> 2025 05 08 11 00 39.0000000  0 10                      
G26  22357168.55425   -734899.54325     -4414.40825        33.10025
G10  21898777.79215    176462.32415       997.91715        31.50015
G27  20380210.87415     -7863.03915       -93.72715        30.00015
G02  24336392.66615    288877.34715      1686.34115        29.90015
G23  21306890.94614   -269643.17914     -1676.98214        29.00014
G08  22741915.00014    232099.28014      1612.40814        28.50014
G16  20662895.97514   -472741.41414     -2872.25214        26.10014
C11  21904392.60526   -283809.62026     -1723.49526        38.50026
R16  20010370.70925   -437076.94125     -2689.66325        33.40025
R18  19563618.78914   -176960.29114     -1097.26414        28.10014
> 2025 05 08 11 00 39.9999999  0 10                      
G26  22357724.36925   -739308.29625     -4414.90725        33.20025
G10  21898301.42115    177465.53915       997.03915        31.40015
G27  20379947.65615     -7950.95615       -93.98315        30.10015
G02  24335787.98515    290573.95415      1692.05915        29.80015
G23  21306927.52114   -271309.06114     -1669.96614        28.90014
G08  22741322.91014    233717.35414      1612.33814        28.40014
G16  20663157.09414   -475610.59114     -2876.19214        26.10014
C11  21904435.77526   -285527.23126     -1723.58626        38.40026
R16  20010590.15725   -439774.15425     -2690.33425        33.40025
R18  19563545.63914   -178093.67214     -1102.97714        28.10014
> 2025 05 08 11 00 40.9999999  0 10                      
G26  22358319.75725   -743717.15425     -4414.74425        33.30025
G10  21897870.02015    178466.59815       994.14515        31.30015
G27  20379711.71915     -8038.07815       -92.55915        30.10015
G02  24335227.37315    292270.12415      1690.11315        29.60015
G23  21307000.97014   -272976.64014     -1674.26214        28.80014
G08  22740772.49114    235332.93514      1608.49714        28.30014
G16  20663474.27414   -478481.40714     -2877.46814        26.00014
C11  21904530.20926   -287245.08626     -1723.75726        38.30026
R16  20010864.76725   -442507.34725     -2691.20025        33.40025
R18  19563511.16314   -179174.39814     -1106.65914        28.10014
> 2025 05 08 11 00 42.0000000  0 10                      
G26  22358940.92725   -748126.07625     -4414.89525        33.30025
G10  21897454.80715    179468.64115       996.58715        31.30015
G27  20379509.95915     -8123.00715       -89.77815        30.10015
G02  24334679.95215    293964.88215      1688.10415        29.50015
G23  21307096.00414   -274646.82914     -1677.43814        28.60014
G08  22740239.46014    236951.76714      1614.51114        28.20014
G16  20663800.14914   -481351.46114     -2875.61814        25.90014
C11  21904630.94026   -288962.90626     -1723.69326        38.20026
R16  20011129.48315   -445125.07215     -2692.12615        33.30015
R18  19563488.07914   -180254.31114     -1103.06714        28.00014
> 2025 05 08 11 00 43.0000001  0 9                      
G26  22359555.80225   -752535.53825     -4415.64825        33.30025
G10  21897038.99515    180470.95215       996.52715        31.20015
G27  20379300.70415     -8209.29015       -92.87815        30.10015
G02  24334132.23114    295665.21514      1697.20214        29.30014
G23  21307188.34014   -276317.74414     -1677.19414        28.50014
G08  22739689.04114    238569.15214      1610.74114        28.10014
G16  20664116.43014   -484223.76414     -2879.34314        25.80014
C11  21904737.36626   -290681.09726     -1724.24026        38.10026
R16  20011429.87515   -447932.34715     -2695.11815        32.80015
> 2025 05 08 11 00 43.9999998  0 9                      
G26  22360066.34825   -756945.10725     -4415.45425        33.30025
G10  21896524.85115    181471.85815       994.36715        31.20015
G27  20378985.32215     -8296.81015       -93.97415        30.10015
G02  24333487.67714    297367.36314      1697.21814        29.20014
G23  21307179.64614   -277987.20114     -1674.56414        28.40014
G08  22739050.48314    240189.00414      1615.24914        28.00014
G16  20664337.97614   -487097.29614     -2879.98014        25.70014
C11  21904739.76426   -292399.48526     -1724.26826        38.00026
R16  20011584.26815   -450504.26615     -2686.58315        31.70015
> 2025 05 08 11 00 44.9999999  0 9                      
G26  22360678.22525   -761354.94425     -4415.91425        33.30025
G10  21896105.44215    182473.06815       995.41515        31.20015
G27  20378777.86615     -8382.53415       -90.77315        30.00015
G02  24332939.35714    299063.66714      1687.43514        29.00014
G23  21307271.68314   -279656.07514     -1674.52614        28.20014
G08  22738534.54014    241806.80414      1610.82614        27.80014
G16  20664660.85314   -489972.06614     -2881.33214        25.50014
C11  21904844.99126   -294117.88326     -1724.29326        37.90026
R16  20011853.78215   -453150.27115     -2691.40115        30.70015
> 2025 05 08 11 00 46.0000000  0 9                      
G26  22361310.18725   -765765.00125     -4415.99925        33.30025
G10  21895707.91715    183476.05315       998.03615        31.20015
G27  20378585.09915     -8471.68115       -96.69315        29.90015
G02  24332407.22514    300753.38614      1680.59014        28.90014
G23  21307385.00414   -281328.09114     -1679.42214        28.10014
G08  22738026.69214    243426.42514      1614.69614        27.70014
G16  20664997.52014   -492842.48514     -2874.07714        25.40014
C11  21904968.20626   -295836.43726     -1724.41326        37.80026
R16  20012141.58315   -455794.03715     -2691.64215        29.90015
> 2025 05 08 11 00 47.0000000  0 9                      
G26  22361897.78025   -770175.17225     -4416.17025        33.40025
G10  21895262.72515    184477.89215       995.31915        31.30015
G27  20378349.16215     -8562.05715       -96.93715        29.80015
G02  24331830.72414    302445.99614      1688.10714        28.70014
G23  21307451.85814   -283000.90314     -1679.15314        28.00014
G08  22737459.78414    245046.66414      1614.60014        27.60014
G16  20665294.31414   -495711.96614     -2874.95514        25.30014
C11  21905042.55526   -297555.15426     -1724.68926        37.60026
R16  20012404.50114   -458562.33314     -2695.10414        29.30014
> 2025 05 08 11 00 48.0000001  0 9                      
G26  22362538.13725   -774585.85525     -4416.77225        33.40025
G10  21894861.60315    185476.05215       990.48415        31.40015
G27  20378148.30115     -8651.79515       -95.25415        29.70015
G02  24331299.19214    304143.44614      1694.03314        28.60014
G23  21307566.97814   -284675.81214     -1681.79314        27.90014
G08  22736943.54214    246663.35114      1609.07514        27.50014
G16  20665641.47414   -498583.42514     -2878.28014        25.20014
C11  21905168.46726   -299274.23326     -1725.04226        37.50026
R16  20012698.59714   -461238.96514     -2691.98114        28.90014
> 2025 05 08 11 00 48.9999999  0 9                      
G26  22363056.77825   -778996.96125     -4417.25925        33.40025
G10  21894360.65015    186474.35915       992.43315        31.40015
G27  20377850.90715     -8742.99415       -97.87615        29.60015
G02  24330662.43314    305836.89314      1685.49914        28.50014
G23  21307573.57414   -286350.01914     -1679.79914        27.90014
G08  22736327.46814    248277.43114      1606.82814        27.50014
G16  20665879.21014   -501457.60814     -2881.48914        25.10014
C11  21905182.25826   -300993.64726     -1725.47126        37.50026
R16  20012902.75614   -464014.14114     -2696.04714        28.60014
> 2025 05 08 11 00 49.9999999  0 9                      
G26  22363658.16225   -783408.74425     -4417.95425        33.30025
G10  21893933.14515    187472.99015       992.95615        31.40015
G27  20377631.15915     -8834.05215       -96.82315        29.50015
G02  24330100.92214    307532.65614      1691.08414        28.30014
G23  21307655.11714   -288025.96814     -1682.65514        27.80014
G08  22735771.95314    249893.25914      1610.86614        27.40014
G16  20666189.49514   -504335.73214     -2885.92814        25.10014
C11  21905276.99226   -302713.66326     -1726.09926        37.40026
R16  20013150.68414   -466605.17114     -2705.06214        28.30014
> 2025 05 08 11 00 51.0000000  0 9                      
G26  22364273.33625   -787820.72025     -4418.01525        33.30025
G10  21893520.93115    188471.65215       992.73215        31.40015
G27  20377417.40715     -8925.27315       -97.24915        29.50015
G02  24329561.89514    309231.05214      1693.76514        28.20014
G23  21307745.95414   -289703.17414     -1683.78014        27.80014
G08  22735243.71814    251506.34514      1605.76714        27.40014
G16  20666510.87214   -507215.64414     -2886.74914        25.00014
C11  21905381.92026   -304434.05026     -1726.46326        37.40026
R16  20013436.38614   -469335.24814     -2703.75014        28.00014
> 2025 05 08 11 00 52.0000000  0 9                      
G26  22364884.91225   -792233.59125     -4419.15225        33.20025
G10  21893099.12315    189469.94515       992.27215        31.40015
G27  20377201.85714     -9016.12914       -96.50914        29.40014
G02  24329002.48214    310926.02914      1687.43114        28.10014
G23  21307828.39714   -291379.86114     -1682.26114        27.80014
G08  22734700.49414    253120.63914      1609.06114        27.40014
G16  20666827.75314   -510098.14914     -2889.63514        24.90014
C11  21905472.45726   -306155.09626     -1727.15626        37.30026
R16  20013706.49914   -472044.74914     -2700.58614        27.80014
> 2025 05 08 11 00 52.9999999  0 10                      
G26  22365434.73225   -796647.00025     -4419.61925        33.10025
G10  21892627.54915    190465.41715       988.11515        31.30015
G27  20376935.64114     -9110.23814      -101.68214        29.30014
G08  22734102.70814    254738.08714      1613.07814        27.70014
G02  24328394.20314    312618.72914      1685.61314        28.10014
G23  21307867.67014   -293062.04414     -1690.87714        27.70014
G16  20667090.07114   -512985.39714     -2895.56314        24.70014
C11  21905518.32526   -307876.45026     -1727.39926        37.20026
R18  19563040.78924                     -1101.00324        27.20024
R16  20013911.85714   -474665.53014     -2714.34514        27.60014
> 2025 05 08 11 00 53.9999999  0 9                      
G26  22366037.31525   -801060.86925     -4419.93125        33.00025
G10  21892204.24215    191460.01815       988.32815        31.30015
G27  20376711.99614     -9206.98214      -103.89614        29.20014
G08  22733566.08014    256356.59814      1613.20414        27.90014
G02  24327823.99814    314312.12114      1687.90214        28.00014
G23  21307946.51614   -294740.89314     -1683.01514        27.60014
G16  20667388.06514   -515872.10414     -2892.27014        24.60014
C11  21905611.86026   -309598.36226     -1727.97226        37.10026
R16  20014193.06214   -477433.11514     -2702.38414        27.40014
> 2025 05 08 11 00 55.0000000  0 9                      
G26  22366650.39025   -805474.88025     -4420.02525        32.90025
G10  21891782.13515    192452.78615       985.90515        31.20015
G27  20376513.83314     -9303.78014      -102.77114        29.20014
G08  22733033.64814    257972.25514      1608.28314        28.00014
G02  24327285.27114    316007.03414      1689.72614        28.00014
G23  21308034.95414   -296421.37514     -1687.24414        27.60014
G16  20667717.83714   -518757.21114     -2890.25014        24.40014
C11  21905719.18626   -311320.38326     -1727.96626        37.10026
R16  20014471.86914   -480128.80114     -2697.56914        27.20014
> 2025 05 08 11 00 56.0000001  0 9                      
G26  22367258.06925   -809889.20425     -4420.39425        32.70025
G10  21891359.72715    193448.42015       991.14715        31.10015
G27  20376291.98714     -9395.99214       -95.83814        29.10014
G08  22732503.61514    259587.64314      1609.33414        28.10014
G02  24326737.55014    317702.28914      1689.50714        27.90014
G23  21308134.18614   -298103.60214     -1689.01714        27.50014
G16  20668028.12214   -521643.65214     -2893.02314        24.20014
C11  21905824.71326   -313042.46726     -1727.97826        37.00026
R16  20014758.47114   -482863.46614     -2710.57914        27.10014
> 2025 05 08 11 00 56.9999998  0 9                      
G26  22367778.50925   -814304.05925     -4420.95325        32.60025
G10  21890844.08415    194442.63015       987.66115        31.00015
G27  20375981.10214     -9493.07414      -105.35314        29.00014
G08  22731858.16214    261202.67614      1609.01814        28.20014
G02  24326093.89614    319398.07814      1690.21814        28.00014
G23  21308126.69114   -299783.53114     -1684.61514        27.50014
G16  20668250.26814   -524526.67514     -2887.14814        24.00014
C11  21905826.21226   -314765.12026     -1728.71826        37.00026
R16  20014931.15114   -485532.45614     -2704.79714        27.00014
> 2025 05 08 11 00 57.9999999  0 9                      
G26  22368390.98525   -818718.85125     -4420.70225        32.50025
G10  21890428.87115    195435.87315       986.81315        30.80015
G27  20375781.74014     -9587.41014       -98.90914        28.90014
G08  22731331.42714    262820.00614      1612.53114        28.20014
G02  24325541.97814    321094.22214      1690.37514        28.00014
G23  21308222.62414   -301464.67714     -1687.69914        27.40014
G16  20668575.84314   -527405.94114     -2883.33214        23.80014
C11  21905933.23826   -316487.71726     -1728.46126        37.00026
R16  20015239.33814   -488382.53614     -2707.66214        26.80014
> 2025 05 08 11 00 59.0000000  0 9                      
G26  22369028.34425   -823134.24625     -4421.53025        32.40025
G10  21890033.14515    196430.30715       989.19315        30.70015
G27  20375603.36314     -9681.36314       -99.59614        28.90014
G08  22730817.28314    264436.01114      1609.50614        28.40014
G02  24325014.04314    322788.81514      1687.98014        28.00014
G23  21308334.44714   -303147.91614     -1690.12014        27.40014
G16  20668914.60814   -530286.22314     -2886.62314        23.70014
C11  21906057.35226   -318210.75926     -1729.04426        37.00026
R16  20015516.94614   -490971.27014     -2711.45314        26.70014
> 2025 05 08 11 01 00.0000000  0 9                      
G26  22369608.14325   -827549.80025     -4421.57525        32.40025
G10  21889588.55315    197425.55315       989.70515        30.60015
G27  20375369.52514     -9776.83614      -102.18014        29.00014
G08  22730249.17614    266051.01514      1608.55614        28.50014
G02  24324429.44814    324483.16114      1688.27514        28.20014
G23  21308392.30714   -304831.44014     -1689.61014        27.40014
G16  20669205.70714   -533169.27114     -2890.37414        23.70014
C11  21906131.10126   -319933.88226     -1729.05526        37.00026
R16  20015800.84914   -493852.68514     -2706.95414        26.60014
> 2025 05 08 11 01 01.0000001  0 9                      
G26  22370239.50525   -831965.72825     -4421.94825        32.40025
G10  21889191.32815    198418.77715       986.37715        30.40015
G27  20375181.55514     -9872.81214      -102.06214        29.30014
G08  22729725.73814    267664.93914      1607.54614        28.50014
G02  24323892.81914    326175.02814      1684.79014        28.20014
G23  21308509.22614   -306514.96614     -1689.36214        27.40014
G16  20669551.96714   -536056.75814     -2895.54214        23.90014
C11  21906255.51526   -321657.39926     -1729.49626        37.00026
R16  20016058.97114   -496338.23614     -2704.27914        26.50014
> 2025 05 08 11 01 01.9999999  0 10                      
G26  22370764.44225   -836381.75725     -4422.02025        32.40025
G10  21888692.47415    199409.45915       983.46415        30.30015
G27  20374887.45914     -9969.50514      -102.99814        29.40014
G08  22729102.77014    269280.48514      1610.41014        28.50014
G02  24323263.25514    327864.38314      1682.15214        28.20014
G23  21308512.22414   -308198.87114     -1690.03814        27.40014
G16  20669788.50314   -538944.53214     -2893.85914        24.30014
C11  21906270.50526   -323380.73226     -1729.13126        37.00026
R18  19562673.84324                     -1112.56624        26.20024
R16  20016244.54214   -499013.28614     -2711.43014        26.40014
> 2025 05 08 11 01 02.9999998  0 10                      
G26  22371370.92225   -840797.92825     -4422.07525        32.30025
G10  21888261.37215    200398.43615       982.28815        30.20015
G27  20374670.10915    -10066.04515      -102.29815        29.70015
G02  24322709.23914    329555.19614      1685.70514        28.20014
G08  22728555.94814    270895.80714      1609.37314        28.40014
G23  21308596.76514   -309881.99114     -1688.56314        27.30014
G16  20670108.68214   -541833.02114     -2894.68114        24.70014
C11  21906363.14026   -325104.45426     -1729.69826        37.00026
R16  20016506.26114   -501676.92514     -2712.62314        26.30014
R18  19562616.28314      -958.52314     -1111.38814        26.10014
> 2025 05 08 11 01 04.0000000  0 9                      
G26  22371992.39225   -845214.38925     -4422.54825        32.50025
G27  20374456.35715    -10161.83015      -101.35315        29.70015
G10  21887849.15715    201390.30415       987.36715        30.10015
G02  24322164.21614    331247.56014      1687.19114        28.30014
G08  22728019.32014    272512.38314      1611.25514        28.40014
G23  21308686.10414   -311566.20514     -1690.70414        27.30014
G16  20670424.06314   -544718.45914     -2889.85514        25.10014
C11  21906472.26526   -326828.26126     -1729.73926        36.90026
R18  19562602.19214     -2086.55414     -1110.95714        26.20014
> 2025 05 08 11 01 05.0000000  0 9                      
G26  22372593.77625   -849631.23925     -4422.87725        32.70025
G10  21887426.15015    202382.74915       986.89615        30.00015
G27  20374242.30615    -10260.62015      -106.12915        29.80015
G02  24321607.80114    332942.08914      1689.77614        28.50014
G08  22727479.69314    274129.85014      1612.07614        28.30014
G23  21308769.74614   -313251.39214     -1691.50914        27.30014
G16  20670737.34614   -547604.62814     -2892.36814        25.60014
C11  21906565.50026   -328552.20426     -1729.79226        37.20026
R18  19562576.11014     -3212.34614     -1115.80714        27.30014
> 2025 05 08 11 01 05.9999999  0 10                      
G26  22373147.19225   -854048.21625     -4422.98325        32.80025
G10  21886960.57215    203373.96615       984.65715        30.30015
G27  20373985.68315    -10361.80815      -108.33315        29.80015
G02  24320996.82414    334633.45014      1683.82914        28.70014
G08  22726894.49814    275742.82714      1604.78514        28.20014
G23  21308808.11914   -314935.97214     -1690.22114        27.30014
G16  20671014.65414   -550493.45514     -2896.10014        26.10014
C11  21906612.86726   -330276.42526     -1730.25126        37.40026
R16  20017290.51814   -509863.39614     -2712.48414        28.00014
R18  19562510.45614     -4386.96514     -1112.70814        27.80014
> 2025 05 08 11 01 07.0000000  0 10                      
G26  22373761.76725   -858465.17625     -4422.86525        32.80025
G10  21886547.15915    204362.80015       981.72415        30.50015
G27  20373762.33815    -10461.75715      -105.24915        29.80015
G02  24320458.39714    336326.85914      1688.51214        28.90014
G08  22726356.07114    277357.60114      1609.75314        28.30014
G23  21308900.45514   -316622.43314     -1693.31814        27.20014
G16  20671338.13014   -553382.85714     -2895.60514        26.60014
C11  21906711.79926   -332000.41826     -1729.74226        37.60026
R16  20017569.92514   -512559.08214     -2715.02314        28.30014
R18  19562508.35714     -5578.38714     -1111.13214        28.10014
> 2025 05 08 11 01 08.0000000  0 10                      
G26  22374367.64825   -862882.44025     -4423.24925        32.90025
G10  21886125.65015    205353.01315       985.06515        30.80015
G27  20373540.79115    -10560.63215      -104.17315        29.80015
G02  24319890.29014    338019.10214      1685.82314        29.10014
G08  22725808.35014    278973.30014      1610.32514        28.40014
G16  20671646.61714   -556272.05814     -2894.93414        27.10014
G23  21308992.49114   -318313.58714     -1699.33414        27.20014
C11  21906809.53126   -333724.79626     -1730.35226        37.70026
R16  20017825.94714   -515192.91214     -2712.86414        28.30014
R18  19562439.70514     -6477.33514     -1114.77414        28.20014
> 2025 05 08 11 01 09.0000001  0 10                      
G26  22374982.82225   -867299.66325     -4423.14425        33.00025
G10  21885708.63915    206341.17615       981.19215        30.90015
G27  20373329.13815    -10659.40215      -104.66315        29.70015
G02  24319349.46514    339710.51014      1685.04314        29.20014
G08  22725277.71814    280586.12514      1605.44014        28.40014
G16  20671975.78914   -559162.07614     -2896.37014        27.40014
G23  21309077.63314   -320002.67814     -1694.00414        27.10014
C11  21906918.35626   -335449.12326     -1730.19126        37.70026
R16  20018115.54714   -517944.39214     -2711.30014        28.30014
R18  19562419.31914     -7571.76114     -1114.92314        28.20014
> 2025 05 08 11 01 09.9999998  0 10                      
G26  22375494.56725   -871717.40125     -4423.82825        33.30025
G10  21885197.49315    207331.92215       986.20015        31.00015
G27  20373025.74815    -10758.68215      -105.37115        29.70015
G02  24318703.41214    341401.99414      1685.68514        29.40014
G08  22724647.25414    282198.10314      1605.71714        28.40014
G16  20672200.63314   -562051.59414     -2895.10114        27.70014
G23  21309082.12914   -321688.50314     -1690.02614        27.10014
C11  21906922.55326   -337173.70026     -1730.48326        37.70026
R16  20018313.71014   -520750.19614     -2716.86414        28.40014
R18  19562311.99314     -8743.38214     -1114.36114        28.20014
> 2025 05 08 11 01 10.9999999  0 10                      
G26  22376108.54225   -876135.16025     -4423.71025        33.40025
G10  21884785.27815    208321.09715       982.44315        31.10015
G27  20372820.69015    -10859.15715      -107.01915        29.90015
G02  24318155.39115    343095.90915      1689.18415        29.60015
G08  22724111.52514    283812.65014      1609.88414        28.30014
G16  20672512.11814   -564941.39714     -2895.89014        27.90014
G23  21309168.76914   -323372.94414     -1689.69414        27.10014
C11  21907024.78226   -338898.32426     -1730.53826        37.70026
R16  20018579.02614   -523370.21314     -2717.63114        28.60014
R18  19562297.60314     -9869.88114     -1114.82014        28.10014
> 2025 05 08 11 01 12.0000000  0 10                      
G26  22376745.00225   -880553.18725     -4423.99525        33.50025
G10  21884387.15415    209309.81815       982.65715        31.30015
G27  20372637.21715    -10960.33415      -107.36315        30.00015
G02  24317625.95815    344788.15915      1685.58015        29.70015
G08  22723592.58414    285427.47714      1609.13114        28.30014
G16  20672854.78014   -567833.05714     -2898.42114        28.00014
G23  21309273.39714   -325060.81014     -1695.41414        27.00014
C11  21907149.19626   -340623.21126     -1730.80126        37.80026
R16  20018887.21314   -526123.27814     -2718.82014        28.80014
R18  19562293.10614    -10952.13614     -1111.39814        28.20014
> 2025 05 08 11 01 13.0000000  0 10                      
G26  22377322.40225   -884971.71025     -4424.71225        33.60025
G10  21883949.75715    210299.00115       983.46715        31.50015
G02  24317035.66715    346480.18915      1685.97315        29.90015
G27  20372398.28215    -11060.18215      -105.12915        30.00015
G16  20673155.47214   -570725.12914     -2898.22114        28.20014
G08  22723032.57214    287039.37814      1604.48914        28.20014
G23  21309326.76014   -326750.71514     -1696.86814        27.00014
C11  21907226.84226   -342348.46726     -1731.32926        38.00026
R16  20019139.03814   -528832.72114     -2721.73614        29.10014
R18  19562253.83314    -12105.37114     -1113.22214        28.30014
> 2025 05 08 11 01 14.0000001  0 10                      
G26  22377958.86125   -889390.62425     -4424.94325        33.60025
G10  21883551.33315    211284.42015       977.70115        31.70015
G02  24316510.73015    348170.43215      1683.51215        30.10015
G27  20372208.81315    -11161.64715      -108.10915        30.00015
G16  20673504.73014   -573618.69814     -2900.15214        28.50014
G08  22722518.72814    288653.51514      1609.41914        28.20014
G23  21309447.57614   -328443.40414     -1699.91614        26.80014
C11  21907351.55626   -344074.03026     -1731.49926        38.10026
R16  20019444.82714   -531572.79214     -2720.62014        29.40014
R18  19562244.84014    -13162.42414     -1117.10014        28.50014
> 2025 05 08 11 01 14.9999999  0 10                      
G26  22378487.99525   -893809.78525     -4425.22525        33.80025
G10  21883048.28115    212270.64415       980.67915        31.80015
G02  24315880.56615    349860.13915      1683.49315        30.40015
G27  20371918.01515    -11261.92115      -105.62515        30.00015
G16  20673732.57314   -576508.87314     -2894.42014        28.80014
G08  22721887.96414    290265.11514      1604.38414        28.20014
G23  21309452.07314   -330139.18214     -1703.26814        26.70014
C11  21907368.34426   -345799.86626     -1731.86126        38.20026
R16  20019630.99815   -534250.89715     -2717.19015        29.70015
R18  19562145.00914    -14312.60214     -1113.04714        28.70014
> 2025 05 08 11 01 15.9999999  0 10                      
G26  22379091.47725   -898229.32725     -4425.56525        33.90025
G10  21882624.67415    213258.53315       982.88515        31.90015
G02  24315310.06115    351550.02515      1684.13815        30.50015
G27  20371694.96915    -11362.56215      -106.66015        30.00015
G16  20674043.45814   -579400.27314     -2897.84714        29.00014
G08  22721344.14114    291878.22914      1608.03314        28.10014
G23  21309539.91214   -331835.95314     -1703.10114        26.70014
C11  21907465.77726   -347525.88426     -1731.89126        38.30026
R16  20019909.80515   -537007.78415     -2723.03015        29.90015
R18  19562112.93114    -15408.61114     -1115.83114        28.80014
> 2025 05 08 11 01 17.0000000  0 10                      
G26  22379707.55125   -902649.07925     -4425.80125        33.90025
G10  21882212.16015    214244.42215       978.94315        32.00015
G02  24314763.24015    353240.10715      1684.23315        30.70015
G27  20371486.01415    -11465.86415      -110.57915        30.00015
G16  20674372.33014   -582294.96714     -2902.28414        29.20014
G08  22720825.50014    293489.53314      1604.45114        28.10014
G23  21309643.34114   -333533.37114     -1703.68714        26.60014
C11  21907570.70426   -349252.11426     -1732.22626        38.30026
R16  20020189.51115   -539705.76215     -2723.02115        30.20015
R18  19562094.94314    -16515.25314     -1120.89014        28.80014
> 2025 05 08 11 01 18.0000000  0 10                      
G26  22380311.63325   -907069.04125     -4425.89825        34.10025
G10  21881785.25525    215229.91125       979.45225        32.10025
G02  24314203.82715    354930.81815      1685.18715        30.70015
G27  20371269.86315    -11568.60715      -108.29815        30.00015
G16  20674689.81014   -585187.87414     -2897.84714        29.30014
G08  22720275.68014    295103.47714      1609.42714        28.00014
G23  21309741.67314   -335227.96014     -1699.00914        26.60014
C11  21907663.64026   -350978.50126     -1732.24726        38.30026
R16  20020456.32615   -542397.68115     -2722.90815        30.50015
R18  19562066.16314    -17628.06314     -1116.88514        28.80014
> 2025 05 08 11 01 18.9999999  0 10                      
G26  22380871.94525   -911489.12325     -4426.08425        34.30025
G10  21881307.38625    216214.75625       979.32625        32.20025
G02  24313597.64715    356621.78515      1685.14815        30.80015
G27  20371005.14715    -11670.36415      -107.21115        30.10015
G16  20674956.32615   -588081.52215     -2899.96115        29.50015
G08  22719680.29314    296717.43714      1608.02114        28.00014
G23  21309764.45714   -336921.15614     -1698.44414        26.50014
C11  21907707.71026   -352704.82026     -1732.17526        38.30026
R16  20020684.76815   -545142.28315     -2725.41515        30.70015
R18  19561987.61814    -18731.65114     -1119.02214        28.80014
> 2025 05 08 11 01 19.9999999  0 10                      
G26  22381469.13125   -915909.27725     -4426.02225        34.40025
G10  21880887.97625    217199.88225       979.18125        32.30025
G02  24313044.23015    358311.36915      1683.05515        30.80015
G27  20370787.79715    -11771.83115      -107.15715        30.10015
G16  20675269.30915   -590976.17515     -2900.99015        29.70015
G08  22719141.26614    298330.13914      1606.23614        27.90014
G23  21309856.79314   -338616.25914     -1701.89114        26.70014
C11  21907801.24526   -354431.19226     -1732.17926        38.30026
R16  20020951.58415   -547834.20115     -2723.67715        30.90015
R18  19561967.53214    -19889.52114     -1118.07514        28.80014
> 2025 05 08 11 01 21.0000000  0 10                      
G26  22382089.10225   -920329.45525     -4426.13225        34.60025
G10  21880481.45825    218184.60525       978.57425        32.30025
G02  24312498.00815    360002.57315      1686.06715        30.80015
G27  20370586.93615    -11876.29515      -111.90915        30.20015
G16  20675596.38215   -593872.02315     -2902.38915        29.90015
G08  22718599.54114    299942.43914      1606.15114        27.90014
G23  21309958.72314   -340310.42814     -1699.64714        26.80014
C11  21907911.56826   -356157.63726     -1732.37326        38.30026
R16  20021230.99015   -550529.88715     -2726.30815        31.10015
R18  19561945.34714    -20974.01314     -1115.96514        28.90014
> 2025 05 08 11 01 22.0000000  0 10                      
G26  22382696.48225   -924749.93025     -4426.45625        34.70025
G10  21880056.95225    219169.07025       978.49925        32.30025
G02  24311937.09615    361693.35915      1684.74015        30.80015
G27  20370369.28715    -11981.04615      -110.73115        30.30015
G16  20675906.66815   -596767.41415     -2900.99515        30.10015
G08  22718058.71514    301556.59014      1609.24014        28.00014
G23  21310050.45914   -342004.36814     -1699.66014        26.90014
C11  21908006.90226   -357884.20726     -1732.41426        38.30026
R16  20021499.00515   -553229.44915     -2725.05215        31.20015
R18  19561923.46214    -22123.48414     -1114.59214        28.90014
> 2025 05 08 11 01 22.9999998  0 10                      
G26  22383219.32025   -929170.31725     -4426.28525        34.80025
G10  21879551.20225    220153.31725       978.19125        32.30025
G02  24311293.14215    363385.38315      1686.69515        30.80015
G27  20370075.79015    -12082.18015      -105.27115        30.30015
G16  20676148.60015   -599664.47415     -2903.83915        30.20015
G08  22717440.24314    303171.86514      1609.88914        28.10014
G23  21310061.85114   -343701.21614     -1704.24714        27.10014
C11  21908023.39126   -359610.66526     -1732.29226        38.30026
R16  20021695.66915   -555963.35015     -2725.88815        31.30015
R18  19561795.15114    -23121.66814     -1116.52014        29.00014
> 2025 05 08 11 01 23.9999999  0 10                      
G26  22383837.19225   -933590.97525     -4426.70925        34.90025
G10  21879135.98925    221137.16625       977.73125        32.30025
G02  24310748.11915    365077.13115      1685.68915        30.70015
G27  20369877.62715    -12183.17715      -106.84715        30.40015
G16  20676470.27715   -602559.29815     -2899.62115        30.40015
G08  22716908.11214    304788.35114      1611.17214        28.10014
G23  21310163.78114   -345398.29114     -1703.10514        27.20014
C11  21908127.71926   -361337.31226     -1732.60526        38.20026
R16  20021984.36915   -558709.48015     -2730.81815        31.30015
R18  19561790.05514    -24297.05514     -1119.48614        29.20014
> 2025 05 08 11 01 25.0000000  0 10                      
G26  22384471.55325   -938011.56125     -4426.38225        35.10025
G10  21878743.86125    222120.97125       977.94725        32.20025
G27  20369681.26315    -12287.66415      -112.06915        30.50015
G16  20676808.44315   -605458.16815     -2906.72815        30.50015
G02  24310213.58915    366767.53515      1683.89715        30.70015
G08  22716380.47714    306407.47514      1614.60514        28.10014
G23  21310284.59714   -347095.03114     -1702.40614        27.40014
C11  21908253.03226   -363063.82726     -1732.22926        38.20026
R16  20022288.35815   -561440.37915     -2726.25015        31.30015
R18  19561803.24514    -25473.25514     -1120.88014        29.30014
> 2025 05 08 11 01 26.0000000  0 10                      
G26  22385055.24925   -942432.19325     -4426.59825        35.10025
G10  21878292.97325    223104.47225       977.40225        32.20025
G16  20677102.84015   -608356.55115     -2904.08215        30.60015
G27  20369444.12715    -12390.13215      -107.40415        30.60015
G02  24309631.99215    368459.49915      1686.79515        30.60015
G08  22715818.96614    308026.41214      1612.89614        28.00014
G23  21310353.54914   -348790.92014     -1701.40914        27.50014
C11  21908328.88026   -364790.43426     -1732.54426        38.20026
R16  20022548.87815   -564195.68215     -2729.67915        31.40015
R18  19561748.38314    -26543.23714     -1115.38914        29.40014
> 2025 05 08 11 01 27.0000001  0 10                      
G26  22385694.10625   -946852.80925     -4426.43925        35.30025
G10  21877906.24125    224087.85325       977.48525        32.10025
G16  20677456.59515   -611253.87215     -2902.62415        30.80015
G27  20369253.45915    -12492.57115      -108.26015        30.60015
G02  24309093.56515    370149.27915      1682.85115        30.50015
G23  21310470.76814   -350488.13514     -1703.71214        27.70014
G08  22715303.32314    309640.26214      1605.46914        27.90014
C11  21908451.49526   -366516.92626     -1732.21626        38.20026
R16  20022848.07115   -566901.35815     -2729.86615        31.40015
R18  19561739.98915    -27604.87315     -1122.06515        29.50015
> 2025 05 08 11 01 27.9999999  0 10                      
G26  22386216.04525   -951273.65025     -4426.89625        35.30025
G10  21877415.78025    225070.81325       976.80225        32.10025
G16  20677686.23615   -614150.12515     -2901.66215        30.90015
G27  20368956.96515    -12593.80215      -106.57215        30.60015
G02  24308454.10715    371834.95315      1677.67315        30.30015
G23  21310470.16814   -352181.96214     -1698.07714        27.80014
G08  22714692.34614    311255.76814      1610.38814        27.80014
C11  21908469.48226   -368243.42826     -1732.39826        38.20026
R16  20023033.34215   -569574.87815     -2730.06915        31.40015
R18  19561647.65315    -28795.53215     -1119.91115        29.70015
> 2025 05 08 11 01 28.9999999  0 10                      
G26  22386822.82525   -955694.55725     -4426.77225        35.40025
G10  21876990.37525    226053.59325       976.85425        32.10025
G16  20677998.02015   -617048.09515     -2904.66215        30.90015
G27  20368745.61115    -12697.98215      -111.49115        30.60015
G02  24307901.59015    373528.29615      1691.34215        30.20015
G23  21310543.31814   -353876.43914     -1700.63714        27.80014
G08  22714150.32114    312874.45614      1614.44114        27.70014
C11  21908565.71626   -369970.04526     -1732.45526        38.10026
R16  20023298.95915   -572261.44715     -2731.90115        31.50015
R18  19561612.57715    -29873.96715     -1116.58815        29.70015
> 2025 05 08 11 01 30.0000000  0 10                      
G26  22387436.50026   -960115.38026     -4426.72326        35.50026
G10  21876574.56325    227036.32625       976.76225        32.00025
G16  20678328.69115   -619948.13215     -2907.01315        31.10015
G27  20368543.25115    -12803.90915      -112.74615        30.60015
G02  24307354.76815    375224.44915      1691.61015        30.00015
G23  21310649.44414   -355575.52414     -1707.33314        27.90014
G08  22713606.19814    314495.68414      1616.55214        27.60014
C11  21908672.14226   -371696.44926     -1732.18826        38.10026
R16  20023594.25415   -575041.97315     -2731.19415        31.50015
R18  19561591.29215    -30963.04315     -1113.60015        29.70015
> 2025 05 08 11 01 31.0000000  0 10                      
G26  22388040.58226   -964536.40126     -4426.95326        35.50026
G10  21876150.95625    228019.55825       976.89625        32.00025
G16  20678647.67015   -622847.33915     -2904.62615        31.10015
G27  20368323.20315    -12905.26215      -104.90115        30.70015
G02  24306805.54915    376918.26415      1686.81015        29.80015
G23  21310735.18514   -357276.06214     -1707.09814        27.90014
G08  22713065.67214    316118.63914      1617.98114        27.50014
C11  21908764.47826   -373423.17126     -1732.66226        38.10026
R16  20023875.75915   -577811.85115     -2732.96515        31.50015
R18  19561558.31515    -32052.17615     -1119.31415        29.70015
> 2025 05 08 11 01 31.9999999  0 10                      
G26  22388595.49826   -968957.22326     -4426.66526        35.50026
G10  21875667.39115    229005.32015       981.32915        31.90015
G16  20678920.18115   -625744.33515     -2901.83415        31.10015
G27  20368061.18515    -13007.89415      -109.21815        30.70015
G02  24306214.65815    378609.04615      1683.31815        29.60015
G23  21310772.05914   -358975.98214     -1705.55514        27.90014
G08  22712482.87514    317739.55114      1613.94314        27.30014
R16  20024097.00615   -580517.47215     -2729.77315        31.90015
R18  19561506.45115    -33299.35315     -1118.23215        29.60015
C11  21908814.54316   -375149.55316     -1732.10416        37.60016
> 2025 05 08 11 01 32.9999999  0 9                      
G26  22389203.17725   -973378.22025     -4426.91725        35.40025
G10  21875237.18815    229990.35415       978.83515        31.80015
G16  20679230.46715   -628642.09715     -2903.97815        31.00015
G27  20367848.63215    -13110.42515      -108.31615        30.60015
G02  24305657.04414    380300.75214      1686.33114        29.40014
G23  21310864.39614   -360676.55514     -1706.73414        27.70014
G08  22711940.85114    319357.07414      1609.99214        27.20014
R16  20024371.91625   -583252.95825     -2733.12025        32.60025
C11  21908910.77716   -376874.64916     -1730.23316        35.60016
> 2025 05 08 11 01 34.0000000  0 7                      
G26  22389815.65325   -977799.07725     -4426.72925        35.30025
G10  21874827.97215    230972.71815       975.08215        31.70015
G27  20367637.87815    -13213.08815      -108.67515        30.50015
G08  22711417.41314    320971.99214      1607.66814        27.20014
G02  24305095.23314    381989.88014      1681.89114        28.10014
R16  20024655.81926   -585973.86526     -2733.14026        35.50026
C11  21909010.60815   -378598.24915     -1728.74415        33.60015
> 2025 05 08 11 01 35.0000000  0 9                      
G26  22390420.93425   -982220.00225     -4426.79125        35.20025
G10  21874410.06115    231952.46015       972.59415        31.60015
G27  20367424.72515    -13317.92315      -111.75715        30.40015
G08  22710871.19114    322587.31914      1609.69414        27.30014
G16  20679882.81514   -634447.21314     -2908.97114        29.10014
G02  24304534.62114    383678.44314      1682.44414        26.90014
G23  21311045.47014   -364078.78414     -1710.83414        24.70014
R16  20024928.03126   -588694.06426     -2733.71926        36.60026
C11  21909106.54115   -380325.71615     -1735.18215        32.20015
> 2025 05 08 11 01 35.9999998  0 10                      
G26  22390953.66525   -986641.10425     -4427.13225        35.10025
G10  21873903.41215    232930.69015       971.52815        31.60015
G27  20367121.63515    -13419.68615      -106.17115        30.20015
G08  22710246.72314    324205.10314      1613.06514        27.50014
G16  20680124.74814   -637349.66314     -2908.36614        28.10014
G23  21311044.87114   -365781.50814     -1708.64114        24.10014
G02  24303885.87014    385367.90414      1683.96214        25.90014
R16  20025133.08926   -591473.82526     -2734.72626        36.40026
C11  21909126.32715   -382052.31015     -1732.04715        31.30015
R18  19561320.87914    -37726.03914     -1121.23314        24.40014
> 2025 05 08 11 01 36.9999999  0 9                      
G26  22391594.62225   -991062.53425     -4427.42825        35.10025
G10  21873520.27715    233911.08815       975.64515        31.50015
G08  22709730.18114    325824.00714      1613.62714        27.50014
G16  20680472.80714   -640252.91314     -2909.48414        27.60014
G23  21311182.17614   -367484.49514     -1708.95314        24.90014
G02  24303352.23914    387057.30114      1683.52814        25.20014
R16  20025432.88126   -594181.03026     -2735.19626        36.00026
C11  21909250.74115   -383780.35115     -1734.54615        30.90015
R18  19561336.16914    -38912.17014     -1119.85714        24.10014
> 2025 05 08 11 01 38.0000000  0 8                      
G10  21873093.07315    234892.82415       976.45715        31.50015
G08  22709196.25114    327441.69114      1611.12714        27.70014
G16  20680804.37714   -643157.60814     -2911.36014        27.20014
G23  21311280.50814   -369184.55914     -1704.54714        24.90014
G02  24302811.41414    388747.60614      1684.81214        24.90014
R16  20025725.47926   -596949.32526     -2735.79326        35.70026
C11  21909357.76715   -385509.09115     -1734.98115        30.80015
R18  19561293.59814    -39888.96814     -1121.55814        23.90014
> 2025 05 08 11 01 39.0000000  0 9                      
G10  21872665.26915    235874.42815       975.70315        31.40015
G08  22708647.63014    329054.28614      1604.21414        27.90014
G26  22392811.17915   -999905.58315     -4432.27515        31.50015
G16  20681125.75514   -646056.86314     -2902.36914        26.80014
G23  21311369.84614   -370883.17114     -1703.72014        24.90014
G02  24302261.89414    390439.45714      1686.78814        24.80014
R16  20025982.70126   -599590.03526     -2736.42526        35.50026
C11  21909451.60215   -387234.87315     -1730.08415        30.70015
R18  19561269.31514    -41025.45314     -1113.88214        23.80014
> 2025 05 08 11 01 40.0000001  0 9                      
G10  21872263.84715    236855.33715       974.61515        31.40015
G08  22708111.30214    330667.57514      1607.68814        27.90014
G26  22393426.05415  -1004328.62115     -4428.95215        30.10015
G16  20681445.93314   -648955.87214     -2904.83014        26.40014
G23  21311471.47514   -372580.93714     -1703.28914        24.90014
G02  24301709.37714    392133.10114      1688.59214        24.80014
R16  20026271.40125   -602336.92925     -2736.29925        35.40025
C11  21909553.83215   -388963.68415     -1736.21615        30.60015
R18  19561266.31714    -42212.29714     -1123.23514        23.70014
> 2025 05 08 11 01 40.9999998  0 10                      
G16  20681653.68914   -651859.51914     -2911.79914        27.10014
G10  21871750.00315    237835.51315       973.97315        31.40015
G26  22393934.80215  -1008749.50615     -4425.64015        29.70015
G27  20366016.90015      -105.02415      -110.29315        30.20015
G08  22707481.43814    332281.79814      1608.85414        27.80014
G23  21311452.28914   -374280.17314     -1705.80514        25.10014
G02  24301063.62414    393825.75614      1686.32314        24.90014
R16  20026460.57025   -605093.81625     -2737.98325        35.20025
R18  19561135.30814    -43259.41614     -1119.70614        26.80014
C11  21909559.82715   -390690.54315     -1731.66415        31.70015
> 2025 05 08 11 01 41.9999999  0 10                      
G16  20681988.85715   -654762.44915     -2908.43315        34.60015
G26  22394570.36215  -1013170.93515     -4427.56315        31.30015
G10  21871363.27015    238813.68715       971.30915        31.50015
G27  20365828.63015      -209.86315      -110.70215        31.20015
G08  22706963.69614    333894.99814      1606.82414        27.70014
G23  21311565.91014   -375982.76514     -1710.13114        25.80014
G02  24300529.69314    395518.84114      1687.43714        25.10014
R16  20026754.36625   -607768.92025     -2738.28725        35.00025
C11  21909684.54115   -392416.95515     -1731.99615        33.10015
R18  19561126.91415    -44319.52515     -1119.35015        32.90015
> 2025 05 08 11 01 43.0000000  0 10                      
G16  20682317.43025   -657665.61125     -2909.22225        34.50025
G26  22395186.13515  -1017593.00115     -4428.32615        32.30015
G10  21870957.05115    239790.81215       970.65215        31.60015
G27  20365616.07715      -315.24515      -111.59915        31.40015
G08  22706423.47014    335509.85514      1609.73714        27.60014
G23  21311672.33614   -377683.74614     -1706.12114        26.40014
G02  24299992.46514    397210.93614      1685.65214        25.40014
C11  21909792.16725   -394143.40025     -1732.35325        34.10025
R16  20027041.26825   -610505.87825     -2739.03525        34.70025
R18  19561116.72115    -45468.17615     -1119.86915        32.80015
> 2025 05 08 11 01 44.0000000  0 10                      
G16  20682637.30825   -660569.43325     -2909.98525        34.40025
G26  22395795.31425  -1022014.96325     -4427.74125        32.70025
G27  20365399.92715      -422.36715      -113.82915        31.60015
G10  21870539.74015    240769.31315       973.35415        31.60015
G08  22705885.04314    337121.05314      1603.53314        27.60014
G23  21311761.97414   -379385.85514     -1708.50614        26.70014
G02  24299434.85114    398900.85314      1682.99214        25.70014
C11  21909886.30125   -395870.03525     -1732.51125        34.80025
R16  20027319.77525   -613259.70725     -2739.92825        34.50025
R18  19561088.84015    -46584.04115     -1120.18715        32.60015
> 2025 05 08 11 01 45.0000001  0 10                      
G16  20682963.48225   -663473.36225     -2909.92525        34.30025
G26  22396407.49025  -1026436.79725     -4427.71325        32.80025
G27  20365190.67215      -529.42715      -112.97315        31.90015
G10  21870129.92415    241749.06415       974.42915        31.60015
G23  21311857.30814   -381093.21914     -1715.93614        27.00014
G08  22705352.61114    338735.05114      1609.45014        27.50014
G02  24298882.63414    400594.28014      1689.23314        26.00014
C11  21909991.22925   -397596.59525     -1732.41425        35.40025
R16  20027603.67825   -615979.85125     -2740.36325        34.30025
R18  19561065.15615    -47661.66015     -1121.01515        32.40015
> 2025 05 08 11 01 45.9999998  0 10                      
G16  20683188.62625   -666377.85025     -2910.60125        34.20025
G26  22396915.33825  -1030858.75825     -4427.85725        32.90025
G27  20364886.08315      -635.80715      -111.87715        32.10015
G10  21869606.18715    242728.76315       973.83615        31.60015
G23  21311861.50514   -382797.24514     -1708.19214        27.30014
G08  22704720.94914    340352.58914      1613.47014        27.40014
G02  24298230.28514    402287.18414      1686.80614        26.20014
C11  21909997.52426   -399323.12026     -1732.28926        36.00026
R16  20027798.84325   -618769.60325     -2740.85325        34.10025
R18  19560947.63815    -48779.05015     -1122.61415        32.20015
> 2025 05 08 11 01 46.9999999  0 10                      
G16  20683509.40425   -669282.49925     -2910.67325        34.10025
G26  22397536.20825  -1035280.72525     -4427.91225        32.90025
G27  20364682.82325      -742.33525      -112.54725        32.20025
G10  21869191.87415    243708.02915       973.10415        31.60015
G23  21311954.74114   -384502.16814     -1711.31514        27.60014
G08  22704188.51714    341969.29314      1610.34014        27.20014
G02  24297684.06314    403979.87514      1686.63714        26.50014
C11  21910102.45226   -401049.66026     -1732.43626        36.40026
R16  20028073.75325   -621441.59425     -2741.56325        34.00025
R18  19560941.64215    -49949.85415     -1120.98515        32.00015
> 2025 05 08 11 01 48.0000000  0 10                      
G16  20683856.86425   -672187.59425     -2911.15225        34.20025
G26  22398170.86925  -1039702.78325     -4427.93725        33.00025
G27  20364491.25625      -848.99525      -112.56225        32.40025
G10  21868795.54815    244687.52815       973.77815        31.70015
G23  21312083.35214   -386205.63114     -1708.56814        27.90014
G08  22703678.27114    343576.96514      1597.32014        27.10014
G02  24297162.72414    405670.66014      1683.99414        26.70014
C11  21910228.96426   -402776.20226     -1732.32526        36.80026
R16  20028381.94025   -624193.89425     -2742.20525        33.80025
R18  19560935.04615    -51021.41915     -1123.20515        31.80015
> 2025 05 08 11 01 49.0000000  0 10                      
G16  20684154.55825   -675093.51125     -2911.52125        34.30025
G26  22398756.66325  -1044125.30925     -4427.95125        33.10025
G27  20364252.02225      -956.41525      -112.99725        32.40025
G10  21868356.05215    245666.37715       972.57715        31.70015
G23  21312147.50714   -387911.59314     -1713.15714        28.10014
G02  24296584.72414    407363.76614      1688.31914        26.70014
G08  22703112.86214    345186.83714      1605.02514        27.00014
C11  21910305.11126   -404502.72426     -1732.40326        36.90026
R16  20028644.25825   -626961.42625     -2742.85625        33.60025
R18  19560897.87215    -52186.87215     -1122.69315        31.60015
> 2025 05 08 11 01 50.0000001  0 10                      
G16  20684505.31525   -677999.32025     -2911.83825        34.30025
G26  22399384.12925  -1048547.62025     -4428.28625        33.30025
G27  20364070.64725     -1063.44025      -112.91225        32.40025
G10  21867961.52515    246643.70615       970.73215        31.70015
G23  21312265.02614   -389620.16314     -1715.70814        28.40014
G02  24296057.68914    409056.03714      1686.01714        27.00014
G08  22702594.22114    346802.17814      1612.23814        26.90014
C11  21910427.12726   -406229.29526     -1732.37626        37.00026
R16  20028944.05125   -629668.63125     -2743.43925        33.40025
R18  19560889.47815    -53248.50615     -1121.07615        31.50015
> 2025 05 08 11 01 50.9999999  0 10                      
G16  20684739.15325   -680905.45025     -2912.23425        34.30025
G26  22399912.36325  -1052969.74825     -4427.97825        33.30025
G27  20363778.64925     -1170.59925      -113.17325        32.40025
G10  21867453.07715    247621.62515       972.26815        31.70015
G23  21312271.02214   -391327.30514     -1712.37214        28.60014
G02  24295411.33714    410746.73014      1683.95614        27.40014
G08  22701974.85014    348419.16114      1611.85714        26.90014
C11  21910444.51526   -407955.85826     -1732.44926        37.00026
R16  20029145.21125   -632428.51925     -2744.11625        33.30025
R18  19560799.84015    -54452.15115     -1125.23315        31.30015
> 2025 05 08 11 01 51.9999999  0 10                      
G16  20685057.53325   -683811.94725     -2912.51425        34.40025
G26  22400516.44525  -1057392.16925     -4428.40025        33.30025
G27  20363561.60015     -1278.80415      -115.31315        32.30015
G10  21867029.17115    248598.37415       970.32815        31.80015
G23  21312358.26114   -393032.37614     -1709.86914        28.70014
G02  24294858.81914    412433.37814      1678.79014        27.40014
G08  22701429.22814    350038.59214      1614.81814        26.80014
C11  21910541.34826   -409682.37826     -1732.28126        37.20026
R16  20029415.02525   -635134.96025     -2744.77525        33.20025
R18  19560763.56515    -55523.71415     -1122.30215        31.20015
> 2025 05 08 11 01 53.0000000  0 10                      
G16  20685407.69025   -686718.82825     -2912.93425        34.40025
G26  22401147.80825  -1061814.58825     -4428.27825        33.30025
G10  21866635.54315    249574.59915       970.09915        31.80015
G23  21312473.98114   -394738.77414     -1712.92414        28.80014
G08  22700916.28314    351654.66814      1608.53414        26.80014
G02  24294329.98514    414123.98314      1686.71814        27.30014
G27  20363363.13715     -1393.62915      -123.74815        31.30015
C11  21910663.36326   -411409.04226     -1732.54426        37.20026
R16  20029720.21325   -637871.97425     -2745.42325        33.10025
R18  19560773.45815    -56683.11515     -1122.34515        31.10015
> 2025 05 08 11 01 54.0000000  0 9                      
G16  20685702.98625   -689625.86825     -2913.06225        34.40025
G26  22401735.10115  -1066237.06715     -4429.20015        33.20015
G10  21866197.24715    250552.03915       972.10015        31.90015
G23  21312545.33214   -396446.54414     -1714.40014        29.00014
G08  22700358.36914    353275.83914      1617.77114        27.00014
G02  24293754.08414    415818.92614      1691.16414        27.20014
G27  20363129.59915     -1508.24315      -120.45515        30.00015
C11  21910739.51126   -413135.33726     -1732.00026        37.10026
R16  20029984.03115   -640644.85615     -2747.08415        33.00015
> 2025 05 08 11 01 55.0000001  0 9                      
G16  20686049.54615   -692531.91615     -2912.13615        34.30015
G10  21865809.31525    251529.21125       971.20125        32.10025
G23  21312666.14814   -398154.48114     -1713.85614        29.00014
G08  22699845.42414    354895.57114      1613.17614        27.00014
G27  20362941.62914     -1616.90214      -111.51714        29.20014
G02  24293221.95214    417521.28114      1700.22514        27.10014
G26  22402366.46415  -1070659.93315     -4428.64315        32.40015
C11  21910858.52826   -414861.75626     -1732.26326        37.00026
R18  19560736.58415    -58954.50215     -1122.27715        29.60015
> 2025 05 08 11 01 55.9999999  0 9                      
G10  21865308.36225    252505.97425       970.61225        32.20025
G23  21312677.54014   -399860.34914     -1710.77714        29.00014
G08  22699223.65414    356513.50714      1611.09014        27.00014
G27  20362645.13414     -1723.61014      -111.67714        28.60014
G16  20686284.28315   -695439.26715     -2913.69615        33.90015
G26  22402880.00915  -1075078.77115     -4422.76615        30.60015
C11  21910881.31326   -416588.05226     -1732.12526        36.90026
R18  19560609.77214    -59960.32914     -1126.80214        28.60014
R16  20030482.58514   -646098.95414     -2741.39714        29.40014
> 2025 05 08 11 01 56.9999999  0 10                      
G10  21864881.15825    253482.36925       970.37425        32.20025
G23  21312768.37714   -401567.64714     -1713.84814        28.90014
G16  20686604.46215   -698347.85815     -2915.04415        32.80015
G27  20362439.77614     -1830.35814      -112.60414        28.30014
G08  22698678.33214    358133.84114      1615.69614        27.00014
G26  22403491.88514  -1079493.11514     -4417.92914        28.80014
G02  24292038.37214    420948.58814      1708.49714        25.10014
C11  21910976.04726   -418314.48926     -1732.28826        36.70026
R18  19560607.97314    -61216.72814     -1127.36514        28.00014
R16  20030772.48514   -648914.69614     -2748.81914        27.90014
> 2025 05 08 11 01 58.0000000  0 10                      
G10  21864467.74425    254458.53625       970.10725        32.30025
G16  20686922.54215   -701257.07415     -2915.47115        31.80015
G23  21312858.91514   -403277.01414     -1716.34614        28.90014
G27  20362230.52114     -1933.82514      -107.77314        28.10014
G08  22698146.50014    359750.65314      1609.10314        27.00014
G26  22404109.45814  -1083909.49414     -4423.33914        27.60014
G02  24291483.75614    422658.04014      1703.53214        24.00014
C11  21911077.67726   -420040.70726     -1731.99926        36.50026
R18  19560563.90314    -62183.59614     -1118.55414        27.60014
R16  20031061.48514   -651660.82614     -2753.80414        26.80014
> 2025 05 08 11 01 59.0000000  0 10                      
G10  21864049.83325    255434.64625       970.24625        32.60025
G16  20687234.02615   -704165.39215     -2913.70315        31.30015
G23  21312946.45414   -404987.43614     -1716.78514        29.00014
G27  20362008.67514     -2042.14914      -116.58814        27.90014
G08  22697601.47714    361369.04714      1613.34814        27.00014
G26  22404707.24414  -1088329.88414     -4428.22714        26.70014
G02  24290915.04913    424362.90313      1696.73113        23.20013
C11  21911171.51226   -421767.05426     -1732.19426        36.30026
R18  19560542.91814    -63336.88714     -1126.77614        27.30014
R16  20031329.19914   -654357.33114     -2755.54114        26.00014
> 2025 05 08 11 02 00.0000001  0 10                      
G10  21863658.30425    256410.47325       969.82125        33.00025
G16  20687577.58815   -707074.88715     -2915.94515        31.10015
G23  21313071.16814   -406699.55914     -1718.83614        29.10014
G27  20361827.00014     -2151.58214      -115.85014        27.70014
G08  22697076.54114    362983.76214      1607.01114        27.00014
G26  22405355.09514  -1092753.18314     -4430.61414        25.90014
G02  24290387.71513    426063.04713      1691.92013        22.60013
C11  21911297.42426   -423493.30926     -1732.01826        36.20026
R18  19560542.91814    -64445.11414     -1125.31014        27.10014
R16  20031632.58914   -657085.93714     -2749.72314        25.40014
> 2025 05 08 11 02 00.9999998  0 10                      
G10  21863162.14825    257386.20225       969.73325        33.40025
G16  20687820.42015   -709985.29215     -2916.80415        30.90015
G23  21313077.76314   -408412.84214     -1719.80614        29.10014
G08  22696452.07314    364602.40514      1614.66014        27.00014
G27  20361532.30514     -2261.01314      -115.37614        27.60014
G26  22405878.53314  -1097177.23914     -4430.37714        25.40014
G02  24289748.55713    427754.78113      1681.58213        22.20013
C11  21911314.51326   -425219.52226     -1732.08126        36.00026
R18  19560431.69514    -65533.42114     -1122.25714        26.90014
R16  20031825.05614   -659799.20214     -2754.20714        24.90014
> 2025 05 08 11 02 01.9999999  0 9                      
G10  21862735.54325    258361.70125       969.54825        33.60025
G16  20688143.89615   -712897.21515     -2918.51515        30.80015
G23  21313165.30314   -410121.60314     -1712.33614        29.10014
G08  22695919.64214    366220.83714      1612.48914        27.00014
G27  20361318.85214     -2368.54814      -112.42314        27.40014
G26  22406488.01114  -1101601.05914     -4429.53414        25.10014
C11  21911405.65026   -426945.71626     -1731.96726        35.90026
R18  19560419.10414    -66732.54014     -1120.56214        26.80014
R16  20032107.76014   -662575.96014     -2760.11714        24.50014
> 2025 05 08 11 02 03.0000000  0 9                      
G10  21862324.22825    259337.07125       969.35925        33.80025
G16  20688465.27415   -715812.51115     -2922.92715        30.60015
G23  21313257.03914   -411832.49814     -1717.90514        29.00014
G08  22695374.31914    367841.19214      1615.37014        26.90014
G27  20361119.19014     -2475.44414      -112.52114        27.20014
G26  22407113.97814  -1106023.89514     -4428.28714        24.90014
C11  21911515.37426   -428671.78126     -1731.88926        35.80026
R18  19560392.72214    -67794.88514     -1122.36314        26.70014
R16  20032385.06814   -665260.17914     -2748.39714        24.30014
> 2025 05 08 11 02 04.0000000  0 9                      
G10  21861904.81825    260312.12325       969.05725        34.20025
G16  20688781.25515   -718721.30415     -2911.37415        30.40015
G23  21313351.47414   -413545.95714     -1720.57614        28.90014
G08  22694827.79814    369457.99214      1609.18614        26.90014
G27  20360909.33614     -2582.49214      -112.96114        27.10014
G26  22407698.87314  -1110445.55314     -4426.90014        24.80014
C11  21911614.00526   -430397.98826     -1732.06026        35.80026
R18  19560369.63814    -68936.72014     -1129.96014        26.60014
R16  20032668.67214   -668042.28914     -2752.22914        24.40014
> 2025 05 08 11 02 05.0000001  0 9                      
G10  21861511.49125    261286.92625       968.81425        34.50025
G16  20689136.80915   -721629.67515     -2914.02215        30.30015
G23  21313461.49814   -415260.37914     -1720.76414        28.80014
G08  22694307.95814    371072.60414      1607.65314        26.80014
G27  20360721.96514     -2689.85214      -113.37914        26.80014
G26  22408332.03514  -1114868.23014     -4429.04714        24.80014
C11  21911735.42126   -432124.11726     -1731.90026        35.70026
R18  19560359.74514    -69989.94614     -1122.23914        26.50014
R16  20032986.45214   -670845.79914     -2751.21814        25.10014
> 2025 05 08 11 02 05.9999999  0 9                      
G10  21861011.73625    262261.56825       968.61525        34.80025
G16  20689374.24415   -724539.60015     -2916.64415        30.20015
G23  21313470.19214   -416974.85314     -1720.44614        28.70014
G08  22693685.28914    372688.90414      1611.19614        26.80014
G27  20360431.16714     -2795.92014      -111.36814        26.70014
G26  22408852.77414  -1119290.30014     -4427.70814        25.20014
C11  21911753.40926   -433850.25726     -1732.03526        35.90026
R16  20033172.62315   -673524.66915     -2751.42415        30.30015
R18  19560253.01914    -71101.93614     -1119.29714        26.40014
> 2025 05 08 11 02 06.9999999  0 9                      
G10  21860592.32725    263235.93825       968.39825        34.80025
G16  20689699.21915   -727451.31215     -2918.43815        30.20015
G23  21313547.23814   -418689.20314     -1720.12214        28.60014
G08  22693144.46314    374309.10914      1616.32114        26.80014
G27  20360215.91614     -2903.49914      -114.17114        26.50014
G26  22409457.75514  -1123712.57714     -4428.21214        25.50014
C11  21911846.64426   -435576.36326     -1731.87026        36.10026
R16  20033470.01715   -676379.38815     -2753.57615        30.20015
R18  19560237.72914    -72285.77814     -1123.17714        26.30014
> 2025 05 08 11 02 08.0000000  0 9                      
G10  21860180.41225    264210.13125       968.15725        35.00025
G16  20690023.29515   -730364.48415     -2919.84715        30.10015
G23  21313655.76314   -420400.37014     -1715.52014        28.50014
G08  22692616.22914    375930.41014      1615.90114        26.80014
G26  22410079.22514  -1128136.99514     -4431.43214        25.90014
G27  20360013.55614     -3007.89714      -108.75314        26.40014
C11  21911954.57026   -437302.38226     -1731.86726        36.20026
R16  20033753.32115   -679096.47415     -2753.26815        30.00015
R18  19560230.83414    -73451.99714     -1124.39514        26.20014
> 2025 05 08 11 02 09.0000000  0 10                      
G10  21859754.70725    265184.20625       968.18025        35.10025
G16  20690341.37515   -733278.00715     -2919.53015        30.10015
G23  21313735.20814   -422109.59114     -1714.08214        28.30014
G08  22692064.31114    377552.00014      1615.89714        26.90014
G26  22410683.30714  -1132557.09914     -4423.77814        26.30014
G27  20359796.20614     -3111.25714      -108.67714        26.30014
G02  24285238.77913      5076.58713      1684.78513        21.70013
C11  21912048.40526   -439028.47526     -1731.91026        36.40026
R16  20034024.33415   -681810.55815     -2756.96915        29.70015
R18  19560203.85314    -74574.73514     -1121.26214        26.10014
> 2025 05 08 11 02 10.0000001  0 10                      
G10  21859358.68125    266157.91025       967.65425        35.10025
G16  20690689.43415   -736189.18415     -2915.86715        30.10015
G23  21313842.23414   -423821.15514     -1718.59814        28.20014
G08  22691553.16514    379169.41114      1609.45814        26.90014
G26  22411321.86514  -1136975.52514     -4423.44814        26.30014
G27  20359602.84014     -3219.34714      -116.31814        26.20014
G02  24284720.73813      6769.52613      1687.07513        22.30013
C11  21912172.51926   -440754.43226     -1731.69926        36.60026
R16  20034349.90814   -684656.87114     -2750.18314        29.40014
R18  19560199.65614    -75656.99414     -1126.05414        26.00014
> 2025 05 08 11 02 10.9999999  0 10                      
G10  21858858.02725    267131.46625       967.53625        35.10025
G16  20690928.06915   -739102.21515     -2919.90015        30.10015
G23  21313852.72714   -425532.62314     -1717.36414        28.00014
G08  22690928.09714    380784.40814      1607.84214        26.90014
G26  22411845.60214  -1141398.36914     -4430.99614        26.20014
G27  20359313.84014     -3332.21314      -121.20014        26.10014
G02  24284094.47113      8465.06613      1690.89213        22.90013
C11  21912185.41026   -442480.47826     -1731.98026        36.70026
R16  20034532.78214   -687318.92414     -2752.16414        29.20014
R18  19560084.53514    -76727.74014     -1126.67814        26.00014
> 2025 05 08 11 02 11.9999999  0 10                      
G10  21858429.62425    268104.74125       967.29725        35.10025
G16  20691246.14815   -742014.77115     -2918.15315        30.60015
G08  22690377.67814    382401.88014      1612.87314        27.00014
G23  21313950.75914   -427247.79414     -1722.85714        27.80014
G26  22412440.09114  -1145823.20414     -4431.66214        26.20014
G27  20359094.69214     -3446.38914      -120.66514        26.00014
G02  24283541.05413     10156.87613      1684.10813        23.10013
C11  21912280.14426   -444206.62226     -1731.97326        36.90026
R16  20034823.58014   -690138.48714     -2756.44614        29.10014
R18  19560065.64814    -77892.48314     -1127.74614        26.00014
> 2025 05 08 11 02 12.9999999  0 10                      
G16  20691563.32915   -744927.70215     -2918.97815        34.90015
G10  21858004.21925    269077.73125       966.98325        35.10025
G08  22689827.55914    384021.44214      1614.74214        27.10014
G23  21314040.39714   -428962.79114     -1720.77314        27.60014
G26  22413047.17014  -1150246.18914     -4427.92014        26.20014
G27  20358878.54214     -3558.17114      -116.44914        25.90014
G02  24282977.14513     11848.54213      1685.72913        23.20013
C11  21912375.77826   -445932.74626     -1731.92326        37.40026
R16  20035088.89714   -692821.99814     -2759.40214        29.30014
R18  19560038.06714    -79010.63914     -1123.80314        26.20014
> 2025 05 08 11 02 14.0000000  0 10                      
G16  20691892.80116   -747841.31316     -2919.89516        35.70016
G10  21857589.90525    270050.47725       966.67825        35.00025
G08  22689304.42114    385641.77114      1614.76514        27.40014
G23  21314150.72014   -430676.43214     -1718.90814        27.40014
G26  22413680.03214  -1154670.51714     -4430.94214        26.40014
G27  20358667.78814     -3668.50314      -115.55314        26.40014
G02  24282424.32714     13544.49114      1692.14414        23.70014
C11  21912483.10426   -447658.91926     -1732.08826        37.70026
R16  20035383.59315   -695600.99415     -2757.21815        29.80015
R18  19560019.48014    -80114.22614     -1125.96414        26.90014
> 2025 05 08 11 02 15.0000001  0 10                      
G16  20692235.46326   -750755.49426     -2920.30026        35.70026
G10  21857201.37425    271022.94625       966.49325        34.90025
G08  22688784.28114    387259.42614      1610.48214        27.70014
G27  20358481.01714     -3777.82514      -114.65214        27.00014
G26  22414314.99314  -1159093.53714     -4428.19914        26.90014
G23  21314284.12814   -432392.60014     -1723.26514        27.30014
G02  24281895.49414     15242.21414      1692.77314        24.40014
C11  21912606.01926   -449385.14726     -1732.03726        37.80026
R16  20035694.17815   -698366.28815     -2758.39315        30.10015
R18  19560028.17414    -81265.22614     -1124.32614        27.00014
> 2025 05 08 11 02 15.9999998  0 10                      
G16  20692465.10426   -753669.92926     -2920.42326        35.60026
G10  21856689.32925    271995.05725       966.06925        34.80025
G08  22688150.22014    388877.55014      1612.49314        27.80014
G27  20358175.22914     -3890.87114      -120.77014        27.40014
G26  22414840.52914  -1163516.35214     -4428.57014        27.40014
G23  21314278.73214   -434108.03114     -1720.92614        27.30014
G02  24281251.24014     16939.21214      1690.77014        24.70014
C11  21912611.41526   -451111.24526     -1731.84226        37.90026
R16  20035889.34215   -701154.51115     -2759.14315        30.70015
R18  19559901.06214    -82333.73314     -1125.89614        27.30014
> 2025 05 08 11 02 16.9999999  0 10                      
G16  20692795.17626   -756584.62926     -2920.77526        35.50026
G10  21856284.30925    272967.19225       966.19925        34.80025
G08  22687616.59014    390497.40914      1614.78014        27.90014
G27  20357970.17114     -4003.59714      -118.51314        27.60014
G26  22415450.30714  -1167937.33414     -4426.00914        27.40014
G23  21314389.05614   -435825.06014     -1723.77114        27.30014
G02  24280705.91714     18635.85414      1690.51714        24.70014
C11  21912716.04226   -452837.29326     -1731.91226        37.90026
R16  20036171.74715   -703867.77615     -2759.31115        35.30015
R18  19559879.17714    -83418.99114     -1125.83814        27.70014
> 2025 05 08 11 02 17.9999999  0 10                      
G16  20693115.35426   -759499.59126     -2920.92726        35.50026
G10  21855866.39925    273938.98225       965.78225        34.70025
G08  22687078.46214    392115.88214      1611.94314        28.00014
G27  20357759.41614     -4115.12914      -116.76914        27.60014
G26  22416051.39114  -1172359.96314     -4429.28314        27.40014
G23  21314484.09014   -437542.31914     -1723.20914        27.20014
G02  24280152.80014     20334.81314      1694.28014        24.60014
C11  21912810.77726   -454563.34226     -1731.83126        37.90026
R16  20036455.95026   -706651.41426     -2760.66226        36.10026
R18  19559863.28814    -84600.54114     -1126.85514        27.70014
> 2025 05 08 11 02 19.0000000  0 10                      
G16  20693447.52426   -762415.45926     -2921.51626        35.50026
G10  21855458.98125    274910.61125       965.60125        34.70025
G08  22686534.33914    393736.31914      1615.47114        28.00014
G27  20357551.06114     -4227.14514      -118.20414        27.60014
G26  22416672.86014  -1176786.34714     -4434.20414        27.30014
G23  21314587.81814   -439260.71014     -1724.90014        27.30014
G02  24279605.67914     22034.33114      1693.84914        24.50014
C11  21912916.60426   -456289.46926     -1732.05726        37.80026
R16  20036746.14926   -709405.95126     -2761.24726        36.10026
R18  19559849.49814    -85728.56814     -1125.22814        27.70014
> 2025 05 08 11 02 20.0000000  0 10                      
G16  20693757.51025   -765331.48725     -2922.19025        35.40025
G10  21855036.87325    275881.82525       965.17025        34.60025
G08  22685989.01714    395357.07214      1615.07514        28.00014
G26  22417285.63614  -1181209.89814     -4427.96714        27.60014
G27  20357322.01914     -4338.30714      -116.57214        27.60014
G23  21314669.66114   -440977.42714     -1721.71614        27.30014
G02  24279048.36514     23728.18614      1685.18614        24.50014
C11  21913014.03616   -458015.86016     -1732.30416        37.70016
R16  20037016.26226   -712115.45026     -2762.00326        36.00026
R18  19559819.21914    -86832.97714     -1126.44614        27.70014
> 2025 05 08 11 02 21.0000001  0 9                      
G16  20694101.07225   -768247.51025     -2921.88225        35.40025
G10  21854642.34625    276853.00125       965.29325        34.60025
G26  22417917.29914  -1185633.49214     -4429.47614        28.10014
G08  22685479.96914    396977.76514      1614.79914        28.10014
G27  20357144.24214     -4446.35914      -112.35914        27.50014
G23  21314792.57614   -442690.02114     -1716.39414        27.20014
G02  24278507.23914     25420.07814      1685.04714        24.70014
R16  20037325.64826   -714873.86526     -2762.09326        35.90026
R18  19559818.02014    -87932.03914     -1127.04914        27.60014
> 2025 05 08 11 02 21.9999999  0 9                      
G16  20694344.50325   -771163.72425     -2922.25425        35.30025
G10  21854138.39525    277824.11425       965.13425        34.40025
G26  22418443.73414  -1190057.07014     -4429.51314        28.60014
G08  22684857.00014    398597.02314      1612.59214        28.10014
G27  20356844.75014     -4555.82914      -116.12614        27.40014
G23  21314816.56014   -444401.81614     -1717.34014        27.10014
G02  24277877.37514     27111.28414      1684.91414        25.10014
R16  20037533.10426   -717667.38326     -2762.88826        35.80026
R18  19559714.89114    -89065.41014     -1124.45614        27.60014
> 2025 05 08 11 02 22.9999999  0 10                      
G16  20694663.78225   -774080.47525     -2922.85225        35.30025
G10  21853726.78025    278794.92925       964.82925        34.30025
G26  22419047.21714  -1194484.01614     -4434.46114        28.70014
G08  22684315.27514    400216.72014      1614.08014        28.20014
G27  20356629.49914     -4669.71914      -121.93514        27.30014
G02  24277316.76314     28805.05614      1689.21914        25.40014
G23  21314898.10314   -446112.78414     -1716.38814        26.10014
R16  20037809.51326   -720409.74826     -2763.62426        35.60026
C11  21913246.07515   -463196.17115     -1732.78015        31.40015
R18  19559686.41114    -90178.98614     -1124.24414        27.70014
> 2025 05 08 11 02 24.0000000  0 10                      
G16  20695014.54025   -776997.66425     -2923.26925        35.20025
G10  21853340.94725    279765.16225       964.07925        34.20025
G26  22419682.47714  -1198908.56114     -4429.20614        28.90014
G08  22683796.03514    401836.74414      1614.32414        28.30014
G27  20356452.62114     -4780.18014      -114.61014        27.30014
G02  24276790.02814     30494.93614      1682.07014        25.40014
G23  21315016.52114   -447831.80514     -1728.90914        25.50014
C11  21913372.88815   -464922.30415     -1731.94215        35.20015
R16  20038113.20325   -723139.11825     -2764.41125        35.40025
R18  19559689.40914    -91301.72314     -1128.08714        27.80014
> 2025 05 08 11 02 25.0000000  0 10                      
G16  20695321.22725   -779915.33425     -2923.85425        35.20025
G10  21852896.95425    280735.26025       964.08325        34.00025
G26  22420271.26914  -1203333.40414     -4430.93314        29.40014
G08  22683234.52414    403454.71414      1610.99514        28.70014
G27  20356210.68914     -4889.26314      -114.34114        27.20014
G02  24276199.43714     32187.79114      1688.39414        25.30014
G23  21315090.87014   -449554.57114     -1730.58414        25.10014
C11  21913449.93426   -466648.66626     -1732.36526        36.90026
R16  20038382.41725   -725942.57325     -2765.28325        35.30025
R18  19559640.24314    -92402.25414     -1124.20514        27.80014
> 2025 05 08 11 02 26.0000001  0 10                      
G16  20695671.38525   -782833.43725     -2924.15425        35.10025
G10  21852503.92625    281704.81425       963.44625        33.90025
G26  22420901.73315  -1207757.41615     -4429.43015        29.60015
G08  22682726.67514    405069.96814      1608.06014        28.70014
G27  20356040.70614     -5001.82514      -120.13714        27.00014
G02  24275672.10214     33880.33414      1686.55114        25.20014
G23  21315214.68414   -451279.07014     -1731.20014        24.70014
C11  21913574.94826   -468374.98726     -1732.08326        37.80026
R16  20038691.20325   -728697.93025     -2765.81025        35.20025
R18  19559633.94714    -93473.82114     -1127.00214        27.80014
> 2025 05 08 11 02 26.9999999  0 10                      
G16  20695912.41825   -785752.27125     -2925.14225        35.10025
G10  21852014.66525    282673.71625       962.62925        33.70025
G26  22421412.57915  -1212178.78315     -4425.98615        29.70015
G08  22682095.01214    406689.90114      1616.32514        28.60014
G27  20355751.10714     -5118.23514      -124.27914        26.90014
G02  24275031.14614     35575.19114      1690.06714        25.20014
G23  21315220.98014   -453002.36714     -1728.64014        24.40014
C11  21913590.23726   -470101.80526     -1732.95626        38.30026
R16  20038886.36825   -731424.95325     -2767.14725        35.10025
R18  19559522.72414    -94563.65614     -1126.02914        27.70014
> 2025 05 08 11 02 27.9999999  0 10                      
G16  20696224.50225   -788671.80625     -2925.71925        35.00025
G10  21851599.75225    283642.16725       962.38925        33.60025
G26  22422026.85415  -1216601.03915     -4428.53315        29.80015
G08  22681555.38614    408310.58714      1615.22514        28.60014
G27  20355533.15814     -5233.16914      -120.03114        26.70014
G02  24274475.93014     37270.09114      1689.08414        25.10014
G23  21315310.91714   -454725.13414     -1728.33614        24.10014
C11  21913684.37226   -471828.82726     -1732.90726        38.60026
R16  20039166.97325   -734190.24725     -2767.84825        35.10025
R18  19559511.93214    -95770.41414     -1125.81114        27.70014
> 2025 05 08 11 02 29.0000000  0 10                      
G16  20696575.55925   -791592.12025     -2926.56425        35.00025
G10  21851202.82725    284610.01125       961.67725        33.40025
G26  22422659.71615  -1221027.14515     -4433.89215        29.80015
G08  22681040.94214    409927.47714      1609.12814        28.60014
G27  20355336.19414     -5342.25614      -112.02714        26.60014
G02  24273950.39414     38966.00214      1690.55214        25.00014
G23  21315424.53914   -456448.35914     -1729.31714        23.90014
C11  21913809.38526   -473556.37626     -1733.62026        38.80026
R16  20039486.25225   -737001.40025     -2769.05025        35.10025
R18  19559520.92514    -96923.70414     -1129.57914        27.80014
> 2025 05 08 11 02 30.0000000  0 10                      
G16  20696874.45225   -794513.14725     -2927.32725        35.00025
G10  21850768.12825    285577.22725       960.95425        33.30025
G26  22423252.70515  -1225453.50615     -4432.42915        30.00015
G08  22680480.03014    411545.59514      1612.78414        28.80014
G27  20355108.65214     -5455.26414      -120.91414        26.50014
G02  24273365.79914     40662.47814      1690.81114        24.90014
G23  21315511.47814   -458171.72214     -1729.37614        23.80014
C11  21913884.63326   -475284.16826     -1733.80426        38.90026
R16  20039740.17725   -739722.30825     -2770.13025        35.00025
R18  19559480.75314    -98073.11914     -1133.53514        27.90014
> 2025 05 08 11 02 31.0000001  0 10                      
G16  20697224.61025   -797434.82025     -2927.83025        34.90025
G10  21850372.40225    286543.77025       960.37225        33.20025
G26  22423893.66115  -1229880.28615     -4432.82415        30.20015
G08  22679964.98714    413165.36314      1614.75614        29.00014
G27  20354928.47614     -5572.45614      -125.12014        26.30014
G02  24272843.56014     42353.66914      1682.71114        24.80014
G23  21315627.19814   -459893.79414     -1727.26114        23.80014
C11  21914012.34526   -477012.45926     -1734.32226        39.00026
R16  20040049.26325   -742479.95825     -2770.99325        35.10025
R18  19559482.85214    -99190.50814     -1130.37414        28.00014
> 2025 05 08 11 02 31.9999998  0 10                      
G16  20697452.45225   -800357.55825     -2929.13125        34.90025
G10  21849864.25425    287509.71525       959.78125        33.10025
G26  22424401.81015  -1234307.51015     -4433.30415        30.50015
G08  22679332.42514    414784.78814      1613.38914        29.10014
G27  20354621.78914     -5689.45214      -122.76114        26.20014
G02  24272183.71714     44046.00214      1687.04014        24.60014
G23  21315647.28414   -461616.89614     -1729.47914        23.90014
C11  21914016.84226   -478741.23526     -1734.82826        39.10026
R16  20040251.02325   -745304.10625     -2772.25925        35.20025
R18  19559365.33314   -100308.66914     -1130.54314        28.20014
> 2025 05 08 11 02 32.9999999  0 10                      
G16  20697784.02225   -803280.66325     -2929.23325        34.90025
G10  21849451.14025    288475.08325       959.13325        33.00025
G26  22425026.87715  -1238735.37715     -4434.13215        30.50015
G08  22678795.49714    416404.85414      1614.43814        29.20014
G27  20354415.53114     -5805.58814      -121.65314        26.20014
G02  24271632.99814     45740.63014      1689.82714        24.50014
G23  21315758.80714   -463342.17814     -1732.31714        24.00014
C11  21914123.56826   -480470.24026     -1735.00926        39.20026
R16  20040537.92425   -748041.06425     -2773.06325        35.20025
R18  19559339.55114   -101374.06414     -1131.37914        28.30014
> 2025 05 08 11 02 34.0000000  0 10                      
G16  20698137.47825   -806204.40825     -2929.89925        34.90025
G10  21849060.81025    289439.92225       958.73825        32.90025
G26  22425657.64015  -1243163.10415     -4433.49015        30.40015
G08  22678282.55214    418022.77514      1611.01314        29.30014
G27  20354235.05614     -5920.93914      -120.79414        26.30014
G02  24271105.96314     47436.90614      1691.26414        24.40014
G23  21315876.32614   -465073.24814     -1739.79814        24.00014
C11  21914250.08026   -482199.40226     -1735.02326        39.40026
R16  20040848.80925   -750807.88625     -2773.82625        35.20025
R18  19559338.65214   -102474.65114     -1130.56414        28.40014
> 2025 05 08 11 02 35.0000000  0 10                      
G16  20698434.87225   -809128.40625     -2930.06725        34.90025
G10  21848616.81725    290404.78525       958.92725        32.90025
G26  22426243.13515  -1247590.30215     -4432.87415        30.30015
G08  22677723.43914    419640.00814      1610.94014        29.40014
G27  20354000.61914     -6037.95014      -123.78714        26.60014
G02  24270530.66114     49132.01714      1688.58114        24.50014
G23  21315943.18014   -466803.56914     -1735.89014        23.90014
C11  21914326.82726   -483928.41326     -1734.82626        39.50026
R16  20041113.82625   -753588.41125     -2774.22625        35.20025
R18  19559304.77514   -103657.67414     -1129.00014        28.40014
> 2025 05 08 11 02 36.0000001  0 10                      
G16  20698785.62925   -812052.52925     -2930.02025        34.80025
G10  21848223.78925    291369.33325       958.55525        32.90025
G26  22426871.20015  -1252015.13415     -4429.48215        30.20015
G08  22677206.89615    421259.15715      1614.27015        29.50015
G27  20353814.44714     -6152.32414      -118.89114        26.80014
G02  24270004.52514     50827.40114      1689.68414        24.60014
G23  21316063.39614   -468533.43114     -1735.46714        23.80014
C11  21914452.14026   -485657.45126     -1734.83326        39.60026
R16  20041433.40425   -756401.85825     -2774.66825        35.30025
R18  19559305.97414   -104769.72114     -1134.91514        28.40014
> 2025 05 08 11 02 36.9999998  0 10                      
G16  20699011.37325   -814977.26025     -2930.89625        34.80025
G10  21847722.53625    292333.74925       958.48625        32.80025
G26  22427384.14515  -1256443.37115     -4435.79915        30.10015
G08  22676572.83515    422879.13915      1614.53415        29.50015
G27  20353502.96314     -6269.54714      -124.51214        26.80014
G02  24269357.57314     52523.48914      1690.57414        24.60014
G23  21316060.09914   -470260.47414     -1731.49514        23.80014
C11  21914455.13826   -487386.47026     -1734.81726        39.60026
R16  20041612.38025   -759105.24125     -2775.27425        35.40025
R18  19559198.04914   -105939.04814     -1129.47714        28.40014
> 2025 05 08 11 02 37.9999999  0 10                      
G16  20699340.84525   -817902.13425     -2930.88825        34.80025
G10  21847315.71825    293297.76325       957.86625        32.90025
G26  22428009.21215  -1260872.03615     -4434.82215        30.10015
G08  22676036.80615    424501.32115      1617.33515        29.50015
G27  20353304.80014     -6385.33914      -121.02214        26.90014
G02  24268815.54914     54221.62414      1693.21114        24.60014
G23  21316171.02214   -471987.98514     -1733.69014        23.80014
C11  21914563.66326   -489115.47726     -1734.89126        39.60026
R16  20041906.77725   -761880.41625     -2776.15625        35.40025
R18  19559178.26314   -107037.28814     -1134.61614        28.50014
> 2025 05 08 11 02 39.0000000  0 10                      
G16  20699685.00625   -820827.87325     -2932.00625        34.70025
G10  21846924.18925    294261.30525       957.46925        32.90025
G26  22428636.07815  -1265301.15215     -4435.17415        30.30015
G08  22675520.26414    426117.05714      1606.67614        29.40014
G27  20353121.92714     -6504.95814      -127.36714        27.00014
G02  24268284.61614     55920.19114      1692.94614        24.50014
G23  21316295.13614   -473717.06614     -1735.69914        23.80014
C11  21914686.27826   -490845.00326     -1735.56926        39.60026
R16  20042218.26126   -764651.06026     -2777.28326        35.50026
R18  19559194.15214   -108227.24514     -1133.97314        28.70014
> 2025 05 08 11 02 40.0000000  0 10                      
G16  20700007.28325   -823754.24625     -2932.55225        34.70025
G10  21846498.48425    295224.36825       956.96025        32.90025
G26  22429245.55615  -1269728.05715     -4431.65915        30.30015
G08  22674972.54314    427732.33214      1609.18014        29.30014
G27  20352915.67014     -6623.34214      -123.63014        27.00014
G02  24267719.20814     57615.71414      1688.13614        24.40014
G23  21316393.76814   -475447.18714     -1736.50314        23.80014
C11  21914780.11326   -492574.59426     -1735.43126        39.60026
R16  20042497.96726   -767411.76826     -2777.86126        35.50026
R18  19559164.47214   -109333.94214     -1134.81414        28.70014
> 2025 05 08 11 02 41.0000001  0 10                      
G16  20700340.95225   -826680.93225     -2932.78625        34.70025
G10  21846090.46625    296187.15725       956.70625        33.00025
G26  22429873.62215  -1274156.15915     -4434.64415        30.30015
G08  22674438.61314    429348.85714      1611.20314        29.30014
G27  20352714.20914     -6741.04514      -123.30914        27.10014
G02  24267174.48514     59310.19814      1688.01714        24.30014
G23  21316497.19614   -477171.15214     -1726.83214        23.80014
C11  21914890.13726   -494304.27226     -1735.61226        39.50026
R16  20042799.55926   -770226.68726     -2778.68826        35.50026
R18  19559142.88714   -110421.48814     -1134.22114        28.70014
> 2025 05 08 11 02 41.9999998  0 10                      
G16  20700573.89125   -829607.96325     -2933.03625        34.60025
G10  21845587.71425    297149.52425       956.31825        33.00025
G26  22430400.95715  -1278586.21715     -4436.86715        30.30015
G08  22673797.05714    430968.51714      1615.39014        29.20014
G27  20352401.52614     -6862.13914      -128.62414        27.30014
G02  24266532.02914     61005.80614      1690.33314        24.20014
G23  21316502.29314   -478891.60214     -1724.52614        23.70014
C11  21914894.33426   -496033.92126     -1735.41626        39.50026
R16  20042985.73026   -772967.52326     -2779.24726        35.60026
R18  19559027.46714   -111551.86414     -1132.65014        29.00014
> 2025 05 08 11 02 42.9999999  0 10                      
G16  20700928.54525   -832535.47725     -2933.61825        34.60025
G10  21845194.38725    298111.65925       956.15625        33.10025
G26  22431034.71815  -1283016.75815     -4436.64315        30.30015
G08  22673277.81614    432588.86414      1614.82714        29.10014
G27  20352207.56014     -6979.54614      -121.42814        27.50014
G02  24266004.09514     62705.37514      1695.68514        24.00014
G23  21316607.81914   -480613.10514     -1727.89214        23.60014
C11  21915017.84926   -497763.84326     -1735.86926        39.50026
R16  20043302.01126   -775763.39026     -2779.90126        35.90026
R18  19559037.96014   -112712.79014     -1134.54914        29.00014
> 2025 05 08 11 02 43.9999999  0 9                      
G16  20701227.43825   -835463.05025     -2933.54425        34.50025
G10  21844761.78625    299073.77225       956.15525        33.10025
G26  22431608.82015  -1287444.94115     -4432.94515        30.30015
G08  22672716.60514    434207.96314      1612.52714        29.00014
G27  20351975.22114     -7093.18314      -117.69714        27.50014
G02  24265424.89614     64406.99014      1696.69014        23.90014
C11  21915096.39426   -499493.45526     -1735.34626        39.40026
R16  20043567.62726   -778546.20826     -2780.51826        35.90026
R18  19558992.39114   -113831.65214     -1132.63514        29.10014
> 2025 05 08 11 02 45.0000000  0 9                      
G16  20701569.20225   -838390.96725     -2933.92225        34.50025
G10  21844367.85925    300035.68125       955.97125        33.10025
G26  22432241.68215  -1291872.90015     -4433.68115        30.20015
G08  22672201.86114    435827.00314      1613.17414        28.90014
G27  20351799.84214     -7206.38314      -118.81914        27.40014
G02  24264896.96114     66110.09114      1698.00714        23.70014
C11  21915219.30926   -501223.08026     -1735.41326        39.40026
R16  20043878.51226   -781313.03026     -2780.89326        35.90026
R18  19558997.18814   -114963.55614     -1127.79514        29.10014
> 2025 05 08 11 02 46.0000000  0 9                      
G16  20701898.07425   -841319.07325     -2934.06225        34.50025
G10  21843949.04925    300997.61025       956.07525        33.10025
G26  22432848.76215  -1296299.46215     -4431.72215        30.30015
G08  22671657.73814    437444.90614      1611.47014        28.80014
G27  20351584.29114     -7321.83414      -122.43814        27.20014
G02  24264330.95314     67815.98214      1701.42114        23.50014
C11  21915315.54326   -502952.37726     -1734.94226        39.40026
R16  20044153.12226   -784046.98726     -2781.11426        35.90026
R18  19558971.10614   -116090.11614     -1135.48914        29.10014
> 2025 05 08 11 02 46.9999998  0 9                      
G16  20702137.90825   -844246.98125     -2933.75225        34.50025
G10  21843448.99525    301959.67225       956.18025        33.10025
G26  22433373.99815  -1300727.80215     -4435.17115        30.30015
G08  22671039.56614    439060.98914      1609.22514        28.80014
G27  20351291.39414     -7439.35214      -124.49814        27.10014
G02  24263695.69313     69522.07513      1700.24713        23.30013
C11  21915329.63326   -504681.26126     -1734.56726        39.50026
R16  20044366.27426   -786871.84226     -2781.63726        35.90026
R18  19558868.57714   -117226.54714     -1134.88514        29.10014
> 2025 05 08 11 02 47.9999999  0 9                      
G16  20702487.76625   -847175.20225     -2934.21125        34.40025
G10  21843049.07225    302921.65725       956.11225        33.20025
G26  22434013.45615  -1305155.17515     -4432.72315        30.40015
G08  22670517.02814    440678.58414      1612.51514        28.70014
G27  20351090.53314     -7557.07314      -123.65714        26.90014
G02  24263158.46513     71228.43813      1700.66113        23.00013
C11  21915454.64626   -506410.03626     -1734.50326        39.50026
R16  20044678.35826   -789644.77926     -2781.71126        35.90026
R18  19558862.28114   -118299.63614     -1134.64614        29.10014
> 2025 05 08 11 02 48.9999999  0 9                      
G16  20702806.74525   -850103.78125     -2934.61925        34.40025
G10  21842635.35825    303883.38925       955.74025        33.40025
G26  22434616.33815  -1309581.35015     -4431.43515        30.40015
G08  22669972.90414    442299.81114      1617.17814        28.60014
G27  20350882.47714     -7675.87014      -125.19814        26.80014
G02  24262596.95413     72932.98513      1697.77413        22.80013
C11  21915549.68126   -508138.80926     -1734.58026        39.50026
R16  20044962.26126   -792427.65326     -2782.47926        36.00026
R18  19558825.40714   -119368.14414     -1131.48114        29.10014
> 2025 05 08 11 02 50.0000000  0 10                      
G16  20703139.21525   -853032.44325     -2934.64625        34.40025
G10  21842225.54225    304844.99925       955.60425        33.70025
G26  22435225.51715  -1314004.87915     -4428.14915        30.30015
G08  22669435.97614    443920.15114      1613.95014        28.90014
G27  20350678.91814     -7793.35114      -122.76914        26.90014
G23  21317187.61813     -6915.21413     -1735.89213        22.00013
G02  24262049.53313     74631.30013      1689.25213        22.60013
C11  21915658.20626   -509867.58826     -1734.67326        39.30026
R16  20045257.85726   -795210.47026     -2783.29726        36.10026
R18  19558833.20215   -120613.03315     -1133.56015        29.50015
> 2025 05 08 11 02 51.0000000  0 10                      
G16  20703461.49225   -855961.74025     -2935.44925        34.40025
G10  21841801.63525    305806.25825       955.24625        33.80025
G26  22435835.89415  -1318430.48115     -4432.47015        30.10015
G08  22668893.95114    445541.03614      1615.32114        29.00014
G27  20350469.66314     -7910.08414      -122.19614        27.30014
G23  21317282.95213     -8649.30913     -1739.95713        22.90013
G02  24261488.32113     76325.61513      1686.47713        22.40013
C11  21915752.04126   -511596.33126     -1734.50626        39.10026
R16  20045541.76026   -797994.10826     -2783.89526        36.10026
R18  19558814.01515   -121774.72515     -1131.48215        29.60015
> 2025 05 08 11 02 52.0000000  0 10                      
G16  20703781.37025   -858891.68925     -2936.13525        34.30025
G10  21841379.52825    306766.91225       954.48925        33.90025
G08  22668355.82414    447160.64114      1613.10014        29.30014
G26  22436446.27115  -1322862.64415     -4441.30315        29.90015
G27  20350255.01214     -8029.47414      -126.58014        27.90014
G23  21317380.68413    -10386.68913     -1744.88313        23.30013
G02  24260933.40513     78018.29313      1685.99413        22.30013
C11  21915843.47726   -513325.48826     -1735.17226        38.90026
R16  20045822.36626   -800758.63826     -2785.05826        36.10026
R18  19558790.93115   -122918.08515     -1136.29815        29.60015
> 2025 05 08 11 02 52.9999999  0 10                      
G16  20704057.47925   -861821.74325     -2936.05025        34.30025
G10  21840906.45525    307727.68525       954.88525        34.00025
G08  22667758.33715    448779.05215      1611.86815        29.60015
G26  22437006.58415  -1327294.07015     -4436.99915        29.80015
G27  20350002.88614     -8150.07114      -127.14614        28.50014
G23  21317425.35414    -12123.49214     -1742.46014        23.50014
G02  24260325.72613     79710.52913      1686.06913        22.20013
C11  21915896.54126   -515054.39926     -1734.67926        38.50026
R16  20046055.00526   -803525.40426     -2785.12026        36.30026
R18  19558700.39315   -123957.51515     -1134.41115        29.70015
> 2025 05 08 11 02 53.9999999  0 10                      
G27  20349785.23715     -8270.13715      -125.63715        34.20015
G16  20704376.75825   -864752.22125     -2936.52425        34.30025
G10  21840491.24325    308687.94425       954.16525        34.10025
G08  22667216.31315    450398.99415      1614.87015        30.00015
G26  22437611.26515  -1331724.39915     -4435.61315        29.60015
G23  21317532.97914    -13858.14314     -1739.40914        23.60014
G02  24259784.60113     81399.91513      1682.12213        22.10013
C11  21915992.47426   -516783.40626     -1734.83726        38.20026
R16  20046340.10826   -806314.39326     -2786.15026        36.50026
R18  19558679.40815   -125110.04015     -1132.41915        29.90015
> 2025 05 08 11 02 54.9999999  0 10                      
G16  20704694.53825   -867683.13925     -2936.99825        34.30025
G10  21840063.43925    309647.81625       953.81525        34.30025
G27  20349566.08925     -8389.63825      -125.08125        34.20025
G08  22666668.29215    452020.17215      1615.93015        30.20015
G26  22438218.34515  -1336154.41915     -4435.72615        29.50015
G23  21317635.80814    -15591.74414     -1738.93914        24.00014
G02  24259220.69113     83090.99813      1686.06813        22.00013
R16  20046622.51226   -809089.62326     -2786.73626        36.50026
C11  21916087.20926   -518512.50826     -1734.95826        37.80026
R18  19558657.22315   -126257.22215     -1135.16615        30.10015
> 2025 05 08 11 02 55.9999999  0 10                      
G10  21839646.42725    310607.51625       953.75025        34.40025
G16  20705016.81525   -870614.50025     -2937.44425        34.30025
G27  20349354.13525     -8509.61025      -126.07125        34.10025
G08  22666118.47315    453639.64415      1612.75515        30.50015
G26  22438826.62414  -1340586.16314     -4438.46514        29.30014
G23  21317723.04714    -17330.07814     -1746.56214        24.30014
G02  24258660.97813     84781.00313      1683.60113        21.80013
R16  20046904.91726   -811864.08926     -2787.40026        36.70026
C11  21916180.74426   -520241.60926     -1734.90826        37.50026
R18  19558634.13915   -127399.81615     -1136.45715        30.40015
> 2025 05 08 11 02 57.0000000  0 10                      
G10  21839236.91125    311567.29725       953.87525        34.50025
G16  20705351.68325   -873545.87325     -2937.32225        34.30025
G27  20349151.47625     -8629.40925      -125.65925        33.90025
G08  22665586.64115    455262.94615      1619.27015        30.60015
G26  22439448.39314  -1345017.31814     -4436.80314        29.20014
G23  21317838.16814    -19074.52014     -1753.44114        24.60014
G02  24258090.17413     86471.50713      1684.80713        21.70013
R16  20047200.81226   -814649.19926     -2787.87726        36.70026
C11  21916292.86626   -521970.56726     -1734.77826        37.10026
R18  19558617.35115   -128513.33315     -1132.11315        30.50015
> 2025 05 08 11 02 58.0000000  0 10                      
G10  21838824.99625    312526.81625       953.55125        34.50025
G16  20705666.16625   -876477.45925     -2937.52625        34.30025
G27  20348939.22325     -8748.98625      -125.30225        33.70025
G08  22665040.71915    456882.06515      1611.19215        30.60015
G26  22440051.57614  -1349446.42214     -4433.91014        29.10014
G23  21317923.60914    -20820.81214     -1753.05014        24.60014
G02  24257527.76313     88164.32913      1688.14213        21.60013
R16  20047481.41726   -817414.49326     -2787.93126        36.90026
C11  21916384.30326   -523699.36826     -1734.50326        37.00026
R18  19558597.26515   -129671.20615     -1137.73815        30.60015
> 2025 05 08 11 02 59.0000001  0 10                      
G10  21838438.86325    313486.25025       953.52725        34.40025
G16  20706021.42025   -879409.47425     -2938.09125        34.30025
G27  20348750.95325     -8868.86325      -125.88925        33.50025
G08  22664522.67715    458501.14015      1613.18715        30.60015
G26  22440684.43714  -1353871.46414     -4428.87314        29.00014
G23  21318050.42114    -22570.80414     -1757.70514        24.50014
G02  24257005.82413     89860.67613      1692.24613        21.50013
C11  21916507.21826   -525428.12826     -1734.54826        36.90026
R16  20047796.19926   -820202.71726     -2788.94326        36.90026
R18  19558598.76415   -130784.77915     -1135.27815        30.80015
> 2025 05 08 11 02 59.9999999  0 10                      
G10  21837943.00725    314445.70125       953.51225        34.40025
G16  20706263.65225   -882341.56925     -2938.07725        34.30025
G27  20348454.45815     -8988.83415      -125.96515        33.30015
G08  22663894.91215    460122.71915      1616.88315        30.50015
G26  22441202.77914  -1358297.77414     -4432.88514        28.90014
G23  21318063.91114    -24312.05214     -1742.81914        24.50014
G02  24256359.47213     91556.64313      1689.82913        21.40013
C11  21916526.70426   -527156.66526     -1734.31626        37.00026
R16  20048004.85526   -823003.11426     -2789.17626        36.90026
R18  19558490.83915   -131893.71315     -1134.59315        31.20015
> 2025 05 08 11 03 00.9999998  0 10                      
G10  21837522.69825    315404.85825       953.17325        34.40025
G16  20706576.63525   -885273.82725     -2938.17325        34.30025
G27  20348247.00215     -9108.93515      -126.00115        33.00015
G08  22663349.59015    461747.93215      1621.19415        30.40015
G26  22441795.46814  -1362729.08914     -4439.65014        28.80014
G23  21318148.75314    -26045.78314     -1735.80814        24.70014
G02  24255800.05913     93253.90713      1692.07613        21.20013
C11  21916621.73826   -528885.04626     -1734.08526        37.30026
R16  20048282.16326   -825750.06426     -2789.48226        36.80026
R18  19558467.75515   -133035.54515     -1134.39615        31.40015
> 2025 05 08 11 03 02.0000000  0 10                      
G16  20706928.89125   -888206.28825     -2938.42325        34.40025
G10  21837133.56725    316364.06225       953.36425        34.40025
G27  20348059.63115     -9229.09415      -126.05115        32.80015
G08  22662836.64515    463370.64215      1615.59315        30.20015
G26  22442422.93414  -1367168.04614     -4448.63814        28.60014
G23  21318274.96514    -27776.20514     -1734.62914        24.70014
G02  24255279.32013     94950.40213      1690.24613        21.00013
C11  21916748.25126   -530613.33926     -1734.05826        37.50026
R16  20048607.13826   -828593.31926     -2790.14726        36.70026
R18  19558466.85515   -134136.13315     -1134.71315        31.60015
> 2025 05 08 11 03 03.0000000  0 10                      
G16  20707250.56925   -891139.06925     -2938.80225        34.40025
G10  21836708.46125    317323.15725       953.17625        34.40025
G27  20347844.98015     -9351.29815      -129.08915        32.50015
G08  22662291.62215    464988.58715      1609.69815        30.10015
G23  21318368.20114    -29510.58714     -1742.22414        24.90014
G26  22443029.71414  -1371609.71614     -4448.88714        27.70014
G02  24254717.20913     96646.29513      1689.72713        20.80013
C11  21916842.08626   -532341.44626     -1733.82126        37.60026
R16  20048893.14026   -831386.89326     -2790.67626        36.60026
R18  19558433.27815   -135223.73715     -1135.87115        31.80015
> 2025 05 08 11 03 04.0000001  0 10                      
G16  20707584.83725   -894071.93525     -2938.85125        34.40025
G10  21836297.74625    318282.15425       953.00225        34.30025
G27  20347638.72315     -9471.30415      -124.85415        32.30015
G08  22661745.10015    466609.96015      1617.13815        29.90015
G23  21318471.92914    -31248.37414     -1745.43314        25.10014
G26  22443652.08314  -1376052.79414     -4449.72314        26.40014
G02  24254166.79013     98341.13013      1688.35913        20.60013
C11  21916948.51226   -534069.34826     -1733.69026        37.70026
R16  20049182.44026   -834136.08026     -2791.04926        36.50026
R18  19558428.48215   -136399.88515     -1136.54815        31.90015
> 2025 05 08 11 03 04.9999998  0 10                      
G10  21835793.79525    319240.85525       952.71625        34.40025
G16  20707812.97925   -897005.20925     -2939.31225        34.50025
G27  20347338.33115     -9592.33715      -127.38215        32.10015
G08  22661118.83415    468231.21415      1615.35815        29.90015
G23  21318468.03214    -32989.57814     -1748.74714        25.20014
G26  22444184.51414  -1380493.65514     -4445.58514        25.30014
G02  24253524.93413    100037.93913      1691.95913        20.40013
C11  21916953.60926   -535797.34626     -1733.82826        37.70026
R16  20049377.90426   -836927.36126     -2791.71026        36.40026
R18  19558320.25715   -137567.68615     -1134.51215        32.00015
> 2025 05 08 11 03 05.9999999  0 10                      
G10  21835412.45925    320199.68425       953.03025        34.50025
G16  20708164.63625   -899938.37125     -2938.96825        34.50025
G27  20347154.85815     -9713.30615      -126.80015        31.90015
G08  22660600.19315    469854.84315      1618.95315        29.80015
G23  21318591.84614    -34730.01114     -1745.90914        25.30014
G26  22444826.37014  -1384927.34714     -4435.96814        24.50014
G02  24252999.69813    101734.70613      1690.88113        20.30013
C11  21917080.72126   -537524.93026     -1733.18526        37.70026
R16  20049687.89026   -839689.59826     -2791.89526        36.40026
R18  19558315.16025   -138646.12325     -1134.67925        32.00025
> 2025 05 08 11 03 06.9999999  0 10                      
G10  21834982.85625    321158.42625       952.83425        34.60025
G16  20708487.81225   -902871.78925     -2939.40625        34.50025
G27  20346947.10215     -9835.30615      -128.37815        31.70015
G08  22660057.56915    471481.49915      1622.30415        29.90015
G23  21318685.68114    -36466.78114     -1740.80114        25.30014
G26  22445420.85814  -1389359.02414     -4436.52814        23.90014
G02  24252444.78213    103425.46713      1681.89213        20.10013
C11  21917174.55626   -539252.40126     -1733.22326        37.80026
R16  20049977.48926   -842502.28026     -2792.22526        36.30026
R18  19558293.27525   -139794.82925     -1134.65925        32.00025
> 2025 05 08 11 03 08.0000000  0 10                      
G10  21834582.33325    322117.36425       953.08925        34.60025
G16  20708824.17925   -905805.28525     -2939.47925        34.60025
G27  20346745.04215     -9953.85215      -122.76415        31.50015
G08  22659524.83715    473104.33015      1614.97215        29.90015
G23  21318800.20214    -38205.26814     -1745.29114        25.30014
G26  22446041.42913  -1393786.35713     -4431.10413        23.40013
G02  24251905.45513    105111.02913      1677.01613        20.00013
C11  21917278.88426   -540979.60626     -1732.96326        37.80026
R16  20050270.38726   -845271.33926     -2792.95826        36.20026
R18  19558284.58125   -140951.88225     -1134.76625        32.10025
> 2025 05 08 11 03 09.0000000  0 10                      
G16  20709141.95925   -908738.91025     -2939.52425        34.70025
G10  21834161.12525    323075.96825       952.60125        34.60025
G27  20346527.09215    -10074.04015      -126.84515        31.40015
G08  22658990.30715    474728.76415      1619.39815        30.00015
G23  21318890.43914    -39946.74614     -1748.80814        25.40014
G26  22446653.30513  -1398214.32713     -4434.11913        23.10013
G02  24251337.64813    106792.29113      1673.27513        19.80013
C11  21917376.61626   -542706.71026     -1732.83526        37.80026
R16  20050559.38726   -848081.72926     -2793.28526        36.20026
R18  19558263.29625   -142103.64525     -1134.77725        32.20025
> 2025 05 08 11 03 10.0000000  0 10                      
G16  20709463.63725   -911672.66525     -2939.68125        34.70025
G10  21833740.81625    324034.77325       953.04025        34.70025
G27  20346323.53315    -10196.31915      -129.18815        31.20015
G08  22658440.48815    476353.81715      1619.49915        30.10015
G23  21318986.37314    -41691.58914     -1752.38614        25.40014
G26  22447260.08513  -1402642.70413     -4434.44113        22.90013
G02  24250786.93013    108471.89913      1672.91613        19.60013
C11  21917470.15126   -544433.41926     -1732.32026        37.90026
R16  20050849.58626   -850897.46826     -2793.41326        36.10026
R18  19558226.12225   -143171.38925     -1134.20325        32.30025
> 2025 05 08 11 03 10.9999999  0 10                      
G16  20709739.74625   -914606.32225     -2939.55125        34.80025
G10  21833272.54025    324993.68125       953.01425        34.70025
G27  20346059.41615    -10312.04815      -118.40015        31.10015
G08  22657840.30415    477979.96015      1620.74015        30.10015
G23  21319036.13814    -43435.29214     -1749.07814        25.50014
G26  22447829.69113  -1407070.20213     -4433.00113        22.80013
G02  24250172.35513    110154.87413      1678.71113        19.50013
C11  21917513.62126   -546159.78426     -1732.08326        37.90026
R16  20051081.92526   -853662.70626     -2793.81526        36.10026
R18  19558148.47625   -144279.55925     -1134.37025        32.40025
> 2025 05 08 11 03 11.9999999  0 10                      
G16  20710061.72325   -917540.16225     -2939.76625        34.80025
G10  21832849.83325    325952.62925       953.13125        34.70025
G27  20345836.07115    -10431.18615      -126.67815        31.00015
G08  22657293.18215    479608.34315      1623.66715        30.10015
G23  21319134.17114    -45173.91314     -1741.91414        25.50014
G26  22448441.86713  -1411501.32213     -4438.76213        22.80013
G02  24249607.84613    111843.75313      1685.99413        19.50013
C11  21917609.85426   -547885.88726     -1731.75426        37.90026
R16  20051365.22926   -856444.05126     -2793.99426        36.00026
R18  19558121.19425   -145400.77025     -1134.02525        32.50025
> 2025 05 08 11 03 12.9999999  0 10                      
G16  20710380.70225   -920474.03825     -2939.75425        34.90025
G10  21832429.82325    326911.47325       952.92825        34.70025
G27  20345614.82415    -10551.61115      -126.93215        30.90015
G08  22656753.25615    481235.32415      1620.41515        30.10015
G23  21319229.20514    -46912.30214     -1744.13514        25.50014
G26  22449051.34513  -1415935.20813     -4441.12913        22.90013
G02  24249039.43913    113539.47013      1693.27213        19.50013
C11  21917703.09026   -549611.78526     -1731.60326        38.00026
R16  20051647.33326   -859216.98826     -2794.39326        35.90026
R18  19558102.90725   -146567.80825     -1134.25825        32.60025
> 2025 05 08 11 03 13.9999999  0 10                      
G16  20710700.28125   -923408.29025     -2940.30225        35.00025
G10  21832006.21725    327870.17625       952.76725        34.70025
G08  22656210.03215    482859.82015      1617.38815        30.20015
G27  20345392.67815    -10672.03015      -126.27915        30.70015
G23  21319329.33514    -48649.97414     -1743.17614        25.60014
G26  22449672.21513  -1420366.07613     -4435.21813        23.10013
G02  24248478.22813    115237.42513      1693.21013        19.80013
C11  21917796.32526   -551337.67326     -1731.69226        38.00026
R16  20051927.63926   -861980.75326     -2795.37126        35.90026
R18  19558080.42325   -147713.45925     -1134.18925        32.70025
> 2025 05 08 11 03 15.0000000  0 10                      
G16  20711054.33525   -926343.04225     -2940.86225        35.10025
G10  21831620.98325    328828.39225       952.10925        34.70025
G08  22655693.49015    484487.58715      1623.53815        30.50015
G27  20345220.89715    -10791.71315      -125.17815        30.60015
G23  21319451.65114    -50388.08814     -1744.19814        25.60014
G26  22450299.08114  -1424793.28014     -4431.23214        23.70014
G02  24247944.29713    116936.63213      1693.96813        20.10013
C11  21917921.03926   -553063.72226     -1731.93826        38.00026
R16  20052258.31026   -864854.58126     -2795.99326        35.80026
R18  19558086.71825   -148853.00025     -1134.63425        32.70025
> 2025 05 08 11 03 16.0000001  0 10                      
G16  20711389.20425   -929278.21425     -2941.32525        35.10025
G10  21831207.86925    329786.50925       952.12125        34.80025
G08  22655158.66015    486112.90415      1618.14415        30.70015
G27  20345013.14015    -10909.81115      -123.25115        30.50015
G23  21319559.27614    -52126.13414     -1743.95614        25.70014
G26  22450915.45514  -1429222.56114     -4436.26214        24.20014
G02  24247390.58113    118635.28713      1692.43013        20.40013
C11  21918025.96626   -554789.70726     -1731.84426        37.90026
R16  20052547.01126   -867600.71126     -2796.83526        35.80026
R18  19558072.02825   -149977.97425     -1134.93225        32.70025
> 2025 05 08 11 03 16.9999998  0 10                      
G16  20711623.64125   -932213.63525     -2941.37925        35.20025
G10  21830698.82225    330744.20725       951.65125        34.80025
G08  22654518.00415    487739.58915      1621.53215        30.70015
G27  20344696.85915    -11028.39715      -124.66615        30.30015
G23  21319556.27814    -53862.68514     -1741.63814        25.80014
G26  22451425.70114  -1433651.36814     -4434.40314        24.50014
G02  24246720.54513    120335.05013      1694.48013        20.60013
C11  21918029.86426   -556515.78426     -1731.90326        37.90026
R16  20052744.57426   -870401.92826     -2797.24026        35.70026
R18  19557949.41325   -151069.39725     -1134.89525        32.80025
> 2025 05 08 11 03 17.9999999  0 10                      
G16  20711971.10125   -935149.24025     -2941.55925        35.20025
G10  21830309.39125    331701.89925       951.82625        34.80025
G08  22654006.25815    489366.43815      1621.06815        30.70015
G27  20344511.28815    -11146.38215      -123.54815        30.20015
G23  21319678.59414    -55598.91514     -1741.93214        25.80014
G26  22452048.67014  -1438079.25014     -4433.27914        24.60014
G02  24246185.11513    122033.89113      1692.51613        20.70013
C11  21918159.07426   -558241.76526     -1731.74226        37.90026
R16  20053054.55926   -873163.40026     -2797.72826        35.60026
R18  19557957.50825   -152216.57825     -1135.10025        32.80025
> 2025 05 08 11 03 18.9999999  0 10                      
G16  20712289.48025   -938085.31725     -2942.17325        35.20025
G10  21829890.58125    332659.37625       951.50625        34.70025
G08  22653456.13915    490995.19515      1623.84615        30.60015
G27  20344299.03515    -11265.55115      -125.62315        30.00015
G23  21319781.12314    -57341.44914     -1751.54814        25.80014
G26  22452654.55114  -1442505.35614     -4431.07714        24.80014
G02  24245622.10513    123729.98113      1688.85013        20.80013
C11  21918252.90926   -559967.64426     -1731.63626        38.00026
R16  20053346.85726   -875991.36926     -2798.22226        35.50026
R18  19557940.12025   -153390.48725     -1134.83325        32.90025
> 2025 05 08 11 03 19.9999999  0 10                      
G16  20712611.45725   -941021.47025     -2942.05225        35.20025
G10  21829472.07125    333616.73025       951.42825        34.60025
G08  22652922.80815    492623.53015      1622.25915        30.60015
G27  20344094.87615    -11387.53115      -129.24915        29.90015
G23  21319871.96014    -59086.46214     -1752.11414        25.80014
G26  22453265.52814  -1446931.05814     -4431.36014        25.10014
G02  24245049.50113    125421.60613      1683.52713        20.80013
C11  21918347.64426   -561693.32526     -1731.39026        38.10026
R16  20053628.36225   -878761.24925     -2798.74725        35.40025
R18  19557906.84325   -154478.09125     -1135.11925        32.90025
> 2025 05 08 11 03 21.0000000  0 10                      
G16  20712946.92525   -943957.59825     -2942.05825        35.30025
G10  21829068.25125    334574.28225       951.70425        34.60025
G08  22652384.98015    494248.78815      1617.77215        30.50015
G27  20343892.21615    -11505.01415      -121.18115        29.70015
G23  21319979.58514    -60832.26014     -1752.13514        25.90014
G26  22453877.40414  -1451358.13914     -4433.71314        25.50014
G02  24244493.68613    127112.24713      1684.20213        20.80013
C11  21918453.17126   -563418.67726     -1731.07926        38.10026
R16  20053925.75625   -881554.00325     -2798.85525        35.40025
R18  19557893.05225   -155607.64725     -1134.82525        32.90025
> 2025 05 08 11 03 22.0000000  0 10                      
G16  20713276.69725   -946893.97825     -2942.34025        35.30025
G10  21828643.14525    335531.67725       951.48125        34.50025
G08  22651828.86515    495876.15715      1622.58815        30.80015
G27  20343677.26515    -11626.43915      -129.23215        29.50015
G23  21320083.31314    -62575.75014     -1748.17014        26.00014
G26  22454483.28514  -1455782.34414     -4428.59914        25.90014
G02  24243936.07213    128803.20513      1685.27913        20.70013
C11  21918548.20526   -565144.01726     -1731.11526        38.10026
R16  20054209.66025   -884336.87625     -2799.58125        35.30025
R18  19557871.16825   -156755.59225     -1134.95525        33.00025
> 2025 05 08 11 03 23.0000000  0 10                      
G16  20713595.67625   -949830.36925     -2942.25825        35.30025
G10  21828229.13125    336489.16125       951.66325        34.50025
G08  22651282.04415    497503.09415      1620.85615        31.00015
G27  20343465.01214    -11749.18814      -129.27314        29.30014
G26  22455093.66214  -1460207.32514     -4431.22914        26.00014
G23  21320168.75414    -64319.58814     -1749.87314        26.00014
G02  24243381.45613    130495.31713      1686.82513        21.00013
C11  21918638.74226   -566868.92126     -1730.49426        38.00026
R16  20054501.95725   -887164.84525     -2799.75225        35.20025
R18  19557851.38125   -157914.98925     -1134.24025        33.00025
> 2025 05 08 11 03 24.0000001  0 10                      
G16  20713944.03525   -952766.81725     -2942.33725        35.30025
G10  21827835.20425    337446.59025       951.53925        34.40025
G08  22650766.70115    499130.32515      1621.51315        31.00015
G27  20343280.94014    -11869.43814      -124.86414        29.20014
G26  22455727.72314  -1464633.58314     -4432.75614        26.00014
G23  21320298.26514    -66064.51214     -1751.32914        26.00014
G02  24242860.71713    132189.54813      1689.42713        21.40013
C11  21918766.75426   -568593.54926     -1730.30026        38.00026
R16  20054822.73525   -889985.16925     -2800.02925        35.20025
R18  19557847.48425   -159001.06525     -1134.62625        33.00025
> 2025 05 08 11 03 24.9999998  0 10                      
G16  20714170.67825   -955703.35425     -2942.44225        35.30025
G10  21827321.66025    338404.01625       951.55925        34.40025
G08  22650130.54115    500760.04815      1625.10415        31.10015
G27  20342979.04914    -11989.01114      -125.09814        29.00014
G26  22456239.46914  -1469059.45214     -4431.53414        26.00014
G23  21320304.26014    -67809.60414     -1751.03914        25.90014
G02  24242208.66813    133887.81813      1694.42313        21.90013
C11  21918770.65126   -570317.98326     -1730.14426        38.00026
R16  20055014.60225   -892757.34225     -2800.40025        35.10025
R18  19557726.06825   -160097.83625     -1134.51525        33.00025
> 2025 05 08 11 03 25.9999999  0 10                      
G16  20714502.84825   -958639.88625     -2942.47225        35.30025
G10  21826911.54425    339361.73425       951.91925        34.30025
G08  22649598.40915    502389.63315      1623.56915        31.30015
G27  20342781.48514    -12106.38214      -122.21614        28.90014
G26  22456854.34314  -1473486.44614     -4433.49914        26.00014
G23  21320398.69514    -69554.51114     -1750.75814        25.90014
G02  24241666.04413    135591.19013      1699.97713        22.50013
C11  21918880.37526   -572042.03026     -1729.74526        38.00026
R16  20055308.39925   -895531.75325     -2800.90925        35.00025
R18  19557713.47725   -161235.02925     -1134.04725        33.00025
> 2025 05 08 11 03 27.0000000  0 10                      
G16  20714857.80225   -961576.64225     -2942.70225        35.30025
G10  21826525.11125    340319.29925       951.65225        34.30025
G08  22649080.66815    504018.28815      1622.35315        31.50015
G27  20342600.41114    -12225.16814      -125.32914        28.80014
G26  22457493.20114  -1477910.71114     -4428.73314        26.00014
G23  21320524.00814    -71298.18414     -1748.89114        25.90014
G02  24241138.10913    137298.41913      1703.32013        23.20013
C11  21918999.69226   -573765.90726     -1729.57326        37.90026
R16  20055618.08525   -898291.69625     -2801.10025        35.00025
R18  19557714.67625   -162347.07325     -1134.08825        33.00025
> 2025 05 08 11 03 28.0000000  0 10                      
G16  20715179.18025   -964513.41825     -2942.64725        35.40025
G10  21826100.30525    341276.79225       951.59325        34.20025
G08  22648532.94715    505648.12515      1624.56415        31.60015
G27  20342388.15814    -12345.55314      -127.04814        28.80014
G26  22458108.07514  -1482334.47314     -4429.37014        26.00014
G23  21320619.34214    -73044.92514     -1754.13714        25.90014
G02  24240572.40114    139006.57414      1702.75414        23.70014
C11  21919093.82726   -575489.58726     -1729.39126        37.90026
R16  20055912.18125   -901128.83625     -2801.58225        34.90025
R18  19557691.89225   -163491.19825     -1134.03525        33.00025
> 2025 05 08 11 03 29.0000000  0 10                      
G16  20715499.65825   -967450.31825     -2942.82325        35.40025
G10  21825678.19725    342234.26825       951.60325        34.20025
G08  22647984.92615    507277.18315      1622.80415        31.70015
G27  20342164.81214    -12465.33414      -125.34214        28.80014
G26  22458704.66214  -1486761.89814     -4435.11714        26.00014
G23  21320716.17514    -74790.07614     -1750.21814        25.90014
G02  24239994.40114    140713.22214      1700.02914        23.90014
C11  21919187.06326   -577212.98226     -1729.06026        37.90026
R16  20056199.98225   -903933.11125     -2801.88625        34.80025
R18  19557667.90825   -164627.68525     -1134.13525        33.00025
> 2025 05 08 11 03 30.0000000  0 10                      
G16  20715822.83425   -970387.26325     -2942.82725        35.40025
G10  21825265.08325    343192.09825       952.14325        34.10025
G08  22647440.20315    508907.04315      1624.39615        31.70015
G27  20341952.85914    -12588.25914      -130.36114        28.80014
G26  22459305.44614  -1491190.30114     -4434.75114        26.00014
G23  21320811.21014    -76531.84014     -1745.93214        25.90014
G02  24239448.17914    142412.71814      1690.05614        24.30014
C11  21919279.99826   -578935.97326     -1728.59826        38.00026
R16  20056487.48325   -906735.85725     -2802.14325        34.70025
R18  19557638.22925   -165735.14625     -1133.56925        33.00025
> 2025 05 08 11 03 31.0000001  0 10                      
G16  20716175.99025   -973324.44825     -2943.16625        35.40025
G10  21824887.04525    344149.51125       951.34125        34.30025
G08  22646919.76415    510534.81015      1620.85715        31.60015
G27  20341758.89314    -12712.34814      -130.53414        28.70014
G26  22459938.90814  -1495616.65914     -4431.19614        26.20014
G23  21320931.42614    -78273.50114     -1747.47314        25.80014
G02  24238931.93714    144113.28414      1695.23614        24.80014
C11  21919404.71226   -580659.00526     -1728.86226        38.20026
R16  20056792.97125   -909472.87025     -2802.86825        34.70025
R18  19557640.92725   -166855.59225     -1134.17325        32.90025
> 2025 05 08 11 03 31.9999998  0 10                      
G16  20716408.02925   -976261.85125     -2943.37325        35.40025
G10  21824376.49925    345106.86725       951.46325        34.40025
G08  22646282.10515    512165.22615      1625.87515        31.60015
G27  20341455.80314    -12833.86814      -126.09814        28.60014
G26  22460450.95314  -1500038.19014     -4424.97714        26.50014
G02  24238289.18214    145816.28414      1698.35314        25.10014
G23  21320937.12214    -80014.40414     -1746.38414        25.70014
C11  21919408.01026   -582381.87626     -1728.59926        38.70026
R16  20056998.32925   -912316.89025     -2803.23925        34.60025
R18  19557538.99725   -168056.23825     -1133.84325        32.90025
> 2025 05 08 11 03 32.9999999  0 10                      
G16  20716740.79925   -979199.33525     -2943.46825        35.30025
G10  21823971.17925    346064.28725       951.50525        34.60025
G08  22645744.87715    513796.49915      1625.75415        31.50015
G27  20341255.84214    -12954.51614      -126.15814        28.40014
G26  22461063.72914  -1504459.72114     -4427.47314        26.80014
G02  24237736.66414    147519.93914      1698.03514        25.30014
G23  21321045.64714    -81755.99714     -1747.88314        25.60014
C11  21919514.13626   -584104.46626     -1728.33926        39.00026
R16  20057286.43025   -915059.96325     -2803.68425        34.60025
R18  19557518.01225   -169147.60225     -1133.69425        32.80025
> 2025 05 08 11 03 33.9999999  0 10                      
G16  20717066.67325   -982136.78225     -2943.26225        35.30025
G10  21823552.96925    347021.83525       951.77725        34.70025
G08  22645199.55515    515428.23215      1626.12715        31.40015
G27  20341053.48214    -13075.22314      -126.57114        28.30014
G26  22461673.80714  -1508883.00514     -4429.99214        27.00014
G02  24237174.85314    149223.03014      1696.97214        25.40014
G23  21321140.68114    -83495.08114     -1743.66414        25.50014
C11  21919606.47226   -585826.72626     -1727.87726        39.30026
R16  20057577.52825   -917881.81625     -2803.60925        34.50025
R18  19557495.82725   -170294.01925     -1133.75225        32.60025
> 2025 05 08 11 03 35.0000000  0 10                      
G16  20717425.22525   -985074.48225     -2943.68825        35.20025
G10  21823169.83425    347979.07625       951.22225        34.80025
G08  22644677.61615    517059.18415      1624.69715        31.40015
G27  20340867.61014    -13196.34614      -127.19514        28.20014
G26  22462310.86614  -1513307.06714     -4430.31214        27.20014
G02  24236646.01914    150926.95814      1698.48114        25.90014
G23  21321265.99514    -85234.54814     -1745.52014        25.40014
C11  21919727.58826   -587548.85326     -1727.87026        39.30026
R16  20057907.60025   -920751.05825     -2804.53325        34.50025
R18  19557495.22825   -171397.66125     -1133.54625        32.50025
> 2025 05 08 11 03 36.0000000  0 10                      
G16  20717744.80425   -988012.41525     -2943.90925        35.20025
G10  21822745.62825    348936.44525       951.56925        34.90025
G08  22644133.19315    518691.84415      1627.64915        31.30015
G27  20340644.26514    -13313.62714      -121.22214        28.10014
G26  22462907.15314  -1517729.70214     -4427.78014        27.40014
G02  24236086.30714    152630.42914      1697.37914        26.30014
G23  21321354.73314    -86978.91714     -1752.68314        25.20014
C11  21919823.22226   -589270.89626     -1727.80926        39.20026
R16  20058181.31025   -923478.90025     -2804.88125        34.40025
R18  19557474.54225   -172551.71525     -1133.59825        32.40025
> 2025 05 08 11 03 37.0000000  0 10                      
G16  20718062.58425   -990950.54325     -2944.08725        35.20025
G10  21822325.91825    349893.63925       951.24325        34.90025
G08  22643593.86615    520322.84015      1624.30115        31.20015
G27  20340433.21114    -13427.92014      -118.66314        28.00014
G26  22463507.33714  -1522151.07714     -4426.60514        27.60014
G02  24235523.29614    154337.26914      1702.65814        26.50014
G23  21321460.86014    -88726.29814     -1754.74714        25.10014
C11  21919916.15826   -590992.70026     -1727.49226        39.20026
R16  20058476.00625   -926319.86225     -2805.23125        34.40025
R18  19557437.96715   -173622.51415     -1133.64615        32.40015
> 2025 05 08 11 03 38.0000000  0 10                      
G10  21821901.41225    350850.83325       951.32925        34.90025
G16  20718388.15825   -993888.66125     -2943.97325        35.10025
G08  22643035.95215    521954.75815      1626.51415        31.10015
G26  22464117.11514  -1526574.48414     -4430.28314        27.80014
G27  20340227.25414    -13547.53014      -128.13114        27.90014
G02  24234959.38714    156042.42614      1698.45114        26.70014
G23  21321564.58814    -90471.67614     -1750.23914        25.00014
C11  21920011.79226   -592714.31126     -1727.32426        39.10026
R16  20058754.81325   -929075.22025     -2805.44325        34.40025
R18  19557414.28425   -174760.53125     -1133.80125        32.30025
> 2025 05 08 11 03 39.0000001  0 10                      
G10  21821512.28125    351807.89325       951.12925        34.90025
G16  20718734.41925   -996827.13225     -2944.51025        35.00025
G08  22642519.71015    523586.74415      1626.15615        31.10015
G26  22464751.17614  -1530998.58314     -4430.30514        27.90014
G27  20340041.68214    -13667.71314      -126.33214        27.90014
G02  24234429.35414    157747.96614      1699.86814        26.70014
G23  21321695.59714    -92215.19814     -1748.45614        24.90014
C11  21920135.30626   -594435.76226     -1727.17926        39.00026
R16  20059068.69625   -931858.85825     -2806.36325        34.40025
R18  19557417.88125   -175886.32225     -1133.27725        32.20025
> 2025 05 08 11 03 39.9999998  0 10                      
G10  21821008.63025    352764.86825       951.06925        35.10025
G16  20718966.45825   -999765.59025     -2944.31225        34.90025
G08  22641888.04715    525218.35015      1625.55115        31.10015
G27  20339736.49314    -13786.60714      -124.11314        28.00014
G26  22465272.81514  -1535422.22114     -4429.26614        28.00014
G02  24233774.00714    159447.26114      1690.30714        26.70014
G23  21321698.89514    -93960.15314     -1751.53414        25.10014
C11  21920138.30426   -596157.05126     -1727.01626        39.00026
R16  20059267.45825   -934668.48325     -2806.55925        34.40025
R18  19557302.16125   -177015.17225     -1133.63825        32.10025
> 2025 05 08 11 03 40.9999999  0 10                      
G10  21820601.21226    353721.85026       951.03826        35.50026
G16  20719306.12325  -1002704.38025     -2944.89925        34.90025
G08  22641354.11715    526849.52215      1625.00815        31.00015
G27  20339529.03714    -13905.41614      -124.71114        28.20014
G26  22465900.58114  -1539849.30214     -4434.74614        28.00014
G02  24233237.97814    161147.40314      1694.61914        26.60014
G23  21321798.12614    -95704.69214     -1750.27514        25.50014
C11  21920244.43126   -597878.19526     -1726.96326        38.90026
R16  20059569.04925   -937484.16625     -2807.07925        34.40025
R18  19557291.66925   -178163.05925     -1133.62825        32.00025
> 2025 05 08 11 03 42.0000000  0 10                      
G10  21820212.98126    354678.43526       950.55026        35.90026
G16  20719660.77725  -1005643.52225     -2945.15325        34.90025
G08  22640836.37515    528484.34015      1630.80415        30.90015
G27  20339342.86614    -14022.88014      -122.62714        28.30014
G26  22466536.14114  -1544273.98614     -4429.31714        27.90014
G23  21321938.12914    -97453.26614     -1756.42714        25.80014
G02  24232707.34614    162854.84214      1705.25014        26.50014
C11  21920367.04626   -599599.40226     -1727.01926        38.80026
R16  20059883.23225   -940268.56825     -2807.97925        34.40025
R18  19557305.15925   -179339.25925     -1133.73825        31.90025
> 2025 05 08 11 03 43.0000000  0 10                      
G10  21819792.07226    355634.94026       950.60026        36.20026
G16  20719980.95625  -1008582.95525     -2945.43825        34.80025
G08  22640294.95015    530114.71915      1622.29415        30.90015
G27  20339133.01114    -14137.05714      -118.39814        28.30014
G26  22467134.22714  -1548699.99714     -4432.53414        27.90014
G23  21322023.27014    -99201.50414     -1753.93014        26.20014
G02  24232135.94114    164567.67714      1709.66914        26.30014
C11  21920462.67926   -601320.47926     -1726.82026        38.60026
R16  20060166.53625   -943047.62025     -2808.20225        34.30025
R18  19557268.28525   -180407.77025     -1133.93025        31.80025
> 2025 05 08 11 03 44.0000000  0 10                      
G10  21819375.96026    356591.55526       950.80626        36.60026
G16  20720297.53725  -1011522.29425     -2945.15325        34.80025
G08  22639748.72815    531745.84315      1625.63215        30.80015
G27  20338921.05814    -14257.16014      -128.92914        28.30014
G26  22467728.71514  -1553125.83814     -4431.61514        27.80014
G23  21322122.50214   -100949.37514     -1753.55014        26.50014
G02  24231580.12614    166279.11114      1704.86914        26.10014
C11  21920555.91526   -603041.19026     -1726.33726        38.50026
R16  20060457.63425   -945868.70925     -2808.43525        34.30025
R18  19557256.89325   -181612.99625     -1133.44325        31.80025
> 2025 05 08 11 03 45.0000000  0 10                      
G10  21818954.15226    357547.99026       950.48126        36.80026
G16  20720618.61425  -1014461.89125     -2945.58625        34.90025
G08  22639196.21115    533379.52815      1629.10215        30.70015
G27  20338699.21214    -14376.15314      -124.30014        28.40014
G26  22468331.29814  -1557550.04614     -4429.25314        27.70014
G23  21322222.93214   -102697.33114     -1753.86214        26.70014
G02  24231007.52314    167989.20214      1703.55514        26.00014
C11  21920649.15026   -604761.89126     -1726.50426        38.30026
R16  20060752.33025   -948708.90725     -2809.11725        34.20025
R18  19557212.82325   -182642.55325     -1133.65725        31.80025
> 2025 05 08 11 03 46.0000001  0 10                      
G10  21818564.42226    358504.36026       950.47426        37.00026
G16  20720967.27325  -1017401.84425     -2945.99325        34.90025
G08  22638682.06715    535013.90415      1628.85615        30.60015
G27  20338515.73914    -14494.71314      -124.20614        28.40014
G26  22468966.85814  -1561970.01914     -4423.71414        27.60014
G23  21322341.05014   -104443.15414     -1750.61714        26.70014
G02  24230472.69314    169692.20814      1693.60014        25.90014
C11  21920772.06526   -606482.29126     -1726.05926        38.20026
R16  20061065.91325   -951490.25125     -2809.45025        34.10025
R18  19557231.11125   -183847.01625     -1133.66325        31.80025
> 2025 05 08 11 03 46.9999998  0 10                      
G10  21818055.67426    359460.48026       950.13126        37.10026
G16  20721209.20525  -1020341.91325     -2945.98725        35.00025
G08  22638030.61815    536648.00915      1628.10515        30.50015
G27  20338214.14714    -14615.44114      -127.67514        28.40014
G26  22469483.40014  -1566395.63914     -4434.30314        27.50014
G23  21322345.24814   -106190.50414     -1753.97614        26.80014
G02  24229829.93814    171396.58014      1699.19014        25.80014
C11  21920778.06126   -608202.83826     -1726.42826        38.10026
R16  20061270.97125   -954333.50625     -2810.28625        34.10025
R18  19557123.18525   -185015.58125     -1133.98725        31.90025
> 2025 05 08 11 03 47.9999999  0 10                      
G10  21817663.54626    360416.42526       949.99426        37.30026
G16  20721558.76325  -1023282.31525     -2946.42925        35.00025
G08  22637520.37115    538284.93015      1632.46615        30.40015
G27  20338031.27414    -14733.99814      -123.33614        28.40014
G26  22470112.06514  -1570821.18714     -4431.37314        27.50014
G23  21322456.47114   -107939.61814     -1755.85714        27.00014
G02  24229293.90914    173103.31014      1702.04414        25.80014
C11  21920901.57626   -609923.24526     -1726.14626        38.00026
R16  20061584.85425   -957115.61525     -2810.64025        34.00025
R18  19557124.38525   -186127.62725     -1133.85325        32.00025
> 2025 05 08 11 03 48.9999999  0 10                      
G10  21817245.33526    361372.27626       949.93926        37.40026
G16  20721881.64025  -1026222.97725     -2946.65325        35.00025
G08  22636968.45315    539920.05315      1628.35915        30.30015
G27  20337817.82214    -14856.11614      -129.76014        28.50014
G23  21322560.79814   -109687.34114     -1752.89014        27.00014
G26  22470724.84114  -1575244.12814     -4427.49714        27.30014
G02  24228744.98914    174811.69314      1703.34514        25.90014
C11  21920993.31226   -611643.46126     -1725.92826        37.90026
R16  20061880.14925   -959960.39925     -2811.26025        34.00025
R18  19557091.40715   -187217.52215     -1133.82715        32.00015
> 2025 05 08 11 03 49.9999999  0 10                      
G10  21816826.82526    362327.91226       949.66426        37.60026
G16  20722203.01725  -1029163.93825     -2946.97225        35.00025
G08  22636418.33415    541553.18515      1626.27115        30.20015
G27  20337599.87314    -14977.07714      -126.24714        28.50014
G23  21322650.73614   -111434.65114     -1752.96514        27.00014
G26  22471322.92714  -1579666.71614     -4428.27214        27.20014
G02  24228175.98314    176522.47814      1706.12014        26.00014
C11  21921087.14726   -613363.74726     -1726.13126        37.80026
R16  20062168.25025   -962765.43825     -2811.73625        34.00025
R18  19557060.22925   -188315.82025     -1134.27625        32.00025
> 2025 05 08 11 03 50.9999999  0 10                      
G10  21816406.51626    363283.33926       949.45926        37.70026
G16  20722524.09525  -1032105.20925     -2947.28725        34.90025
G08  22635877.50815    543188.77515      1630.95415        30.10015
G27  20337381.32414    -15097.65714      -126.25214        28.50014
G23  21322750.56714   -113183.29914     -1755.17914        27.00014
G26  22471926.10914  -1584085.25514     -4422.37314        27.10014
G02  24227616.57014    178230.57914      1700.89514        26.00014
C11  21921178.28426   -615083.96526     -1725.99226        37.70026
R16  20062456.95025   -965573.53425     -2812.48025        34.00025
R18  19557042.24125   -189485.91025     -1133.90325        32.00025
> 2025 05 08 11 03 52.0000000  0 10                      
G10  21816020.38326    364238.61326       949.33426        37.80026
G16  20722874.85225  -1035046.74625     -2947.53225        34.90025
G08  22635356.16915    544821.10815      1624.84215        29.90015
G27  20337195.75214    -15220.38314      -129.66314        28.50014
G23  21322880.07714   -114933.83314     -1757.33914        27.00014
G26  22472556.87314  -1588504.31914     -4425.18714        27.00014
G02  24227083.53914    179939.99114      1704.20314        26.10014
C11  21921300.59926   -616804.11626     -1725.92726        37.60026
R16  20062766.33625   -968332.71325     -2812.86725        34.00025
R18  19557035.64625   -190555.18425     -1134.28025        32.00025
> 2025 05 08 11 03 53.0000000  0 10                      
G10  21815597.97626    365193.77926       949.24726        37.90026
G16  20723205.22425  -1037988.41125     -2947.58925        34.90025
G08  22634802.45215    546452.75515      1625.43815        29.80015
G27  20336978.40314    -15340.96314      -125.37014        28.60014
G26  22473174.74514  -1592927.28914     -4430.78214        27.00014
G23  21322976.31114   -116683.77514     -1755.50814        26.90014
G02  24226524.12614    181650.04314      1704.50814        26.20014
C11  21921392.33626   -618524.06626     -1725.65826        37.50026
R16  20063064.62925   -971192.78325     -2813.25325        34.00025
R18  19557008.66525   -191677.15825     -1134.28325        31.90025
> 2025 05 08 11 03 54.0000000  0 10                      
G10  21815181.56426    366148.82926       949.12726        38.00026
G16  20723530.49825  -1040930.36925     -2947.96625        34.80025
G08  22634265.22415    548088.14715      1631.40015        29.70015
G27  20336770.94614    -15458.57914      -121.99714        28.70014
G26  22473777.62714  -1597350.03614     -4428.49514        27.50014
G23  21323065.94914   -118434.86914     -1757.53214        26.90014
G02  24225953.62114    183358.55314      1701.87314        26.30014
C11  21921490.96826   -620244.01326     -1725.75426        37.40026
R16  20063351.53125   -973990.94325     -2813.95025        33.90025
R18  19556981.08425   -192795.31325     -1134.25925        31.90025
> 2025 05 08 11 03 54.9999998  0 10                      
G10  21814682.11026    367103.63626       948.73926        38.10026
G16  20723773.93025  -1043872.70425     -2948.46625        34.80025
G08  22633637.45915    549726.97915      1634.60415        29.60015
G27  20336481.04714    -15576.63414      -124.22014        28.90014
G26  22474307.96014  -1601771.78514     -4427.19214        27.90014
G23  21323093.23014   -120190.11314     -1763.26214        27.00014
G02  24225320.16014    185065.91414      1700.84014        26.50014
C11  21921504.75826   -621963.76626     -1725.54826        37.40026
R16  20063556.28925   -976770.70325     -2814.60325        34.00025
R18  19556883.95115   -193962.29515     -1134.95715        31.80015
> 2025 05 08 11 03 55.9999999  0 10                      
G10  21814298.07626    368058.12426       948.49226        38.10026
G16  20724121.38925  -1046815.19025     -2948.39625        34.70025
G08  22633123.91415    551361.23815      1626.13715        29.50015
G27  20336300.27214    -15698.81614      -130.08114        28.90014
G26  22474947.11814  -1606195.59214     -4430.66914        28.00014
G23  21323213.74614   -121942.92014     -1757.42414        27.00014
G02  24224788.62814    186774.60814      1703.52414        26.70014
C11  21921628.57226   -623683.60626     -1725.66426        37.30026
R16  20063885.16125   -979633.83025     -2815.19625        34.00025
R18  19556883.35115   -195063.64815     -1135.91115        31.70015
> 2025 05 08 11 03 56.9999999  0 10                      
G10  21813872.97026    369012.57826       948.57326        38.10026
G16  20724454.45925  -1049757.89425     -2948.67525        34.60025
G08  22632567.79914    552998.64014      1633.10914        29.40014
G27  20336083.52214    -15818.23614      -123.90214        28.90014
G26  22475546.70314  -1610615.65914     -4424.05714        28.00014
G02  24224231.61314    188483.98214      1703.84914        26.70014
G23  21323304.58314   -123695.03614     -1757.63214        26.90014
R16  20064163.36925   -982386.89525     -2815.52225        34.10025
C11  21921723.00716   -625405.31616     -1728.45416        37.20016
R18  19556858.76815   -196197.84315     -1134.93715        31.70015
> 2025 05 08 11 03 57.9999999  0 10                      
G10  21813450.56226    369966.70226       948.09526        38.00026
G16  20724774.93715  -1052700.35615     -2948.95115        34.40015
G27  20335873.66814    -15937.53214      -125.09714        28.90014
G08  22632029.07214    554634.41914      1629.10214        29.30014
G26  22476140.29214  -1615036.43214     -4426.98514        27.90014
G02  24223654.51314    190196.75114      1708.60114        26.70014
G23  21323395.12114   -125449.27214     -1761.15814        26.80014
R16  20064445.17425   -985158.30425     -2815.81225        34.10025
R18  19556825.49115   -197286.22015     -1141.66115        31.60015
C11  21921815.04316   -627129.25216     -1730.85716        35.70016
> 2025 05 08 11 03 58.9999999  0 10                      
G10  21813053.93726    370920.88726       948.29626        38.00026
G16  20725111.90415  -1055645.65715     -2952.38715        33.20015
G27  20335669.80914    -16056.52714      -124.76314        28.90014
G08  22631514.92814    556273.33514      1634.56614        29.20014
G26  22476767.15814  -1619459.92714     -4430.77114        27.90014
G02  24223116.98514    191908.74114      1705.68114        27.00014
G23  21323504.84514   -127199.71314     -1754.46114        26.60014
R16  20064759.65625   -988006.10725     -2816.79425        34.30025
R18  19556817.39715   -198411.20515     -1141.99115        31.50015
C11  21921925.36715   -628846.46615     -1719.71615        33.90015
> 2025 05 08 11 03 59.9999999  0 9                      
G10  21812635.72726    371874.87426       948.04226        38.20026
G27  20335456.95614    -16176.18414      -125.83414        29.10014
G16  20725444.07415  -1058592.13515     -2952.90815        32.00015
G26  22477372.73914  -1623891.27514     -4441.11514        27.80014
G02  24222555.47414    193618.13114      1702.24414        27.10014
G23  21323608.57314   -128948.97514     -1754.51614        26.40014
R16  20065047.45725   -990811.14625     -2817.13925        34.70025
C11  21922021.90015   -630565.07915     -1725.10315        32.50015
R18  19556793.41415   -199548.45215     -1134.22815        30.70015
> 2025 05 08 11 04 00.9999998  0 10                      
G10  21812213.31926    372828.78926       948.01626        38.20026
G27  20335243.80414    -16295.66014      -125.24714        29.30014
G02  24221992.76314    195329.21114      1706.06014        27.30014
G26  22477978.61914  -1628320.76214     -4434.41614        27.70014
G16  20725756.15815  -1061536.31415     -2948.89115        31.10015
G23  21323715.89914   -130697.84014     -1754.52814        26.20014
G08  22630413.49114    559555.77814      1637.72414        26.70014
R16  20065335.85725   -993616.94925     -2817.64625        35.10025
C11  21922110.03915   -632283.41315     -1724.00315        31.40015
R18  19556766.43215   -200669.66415     -1135.81615        29.90015
> 2025 05 08 11 04 02.0000000  0 10                      
G10  21811825.08826    373782.33826       947.50126        38.20026
G27  20335066.32715    -16417.81315      -129.35615        29.50015
G02  24221461.83114    197037.16814      1700.53214        27.70014
G26  22478607.88414  -1632741.65214     -4422.45214        27.70014
G16  20726113.81015  -1064482.26815     -2952.70215        30.20015
G23  21323858.90014   -132448.75414     -1757.80014        25.90014
G08  22629894.85014    561199.90514      1638.26214        25.50014
R16  20065659.03325   -996450.26725     -2818.39725        35.30025
C11  21922236.55115   -634002.92615     -1725.91115        30.60015
R18  19556781.12214   -201853.50214     -1132.81114        29.20014
> 2025 05 08 11 04 03.0000000  0 10                      
G10  21811409.87526    374735.43326       947.00526        38.10026
G27  20334845.97915    -16538.83215      -126.31515        29.60015
G02  24220908.11414    198741.52914      1696.69914        28.10014
G26  22479204.77014  -1637164.39514     -4429.52914        27.90014
G16  20726431.29014  -1067432.13414     -2957.68314        29.20014
G23  21323957.83114   -134200.57514     -1758.13714        25.70014
G08  22629348.02814    562842.03514      1635.26714        24.70014
R16  20065944.73625   -999242.31325     -2819.38725        35.40025
C11  21922326.48915   -635723.81215     -1727.38015        30.00015
R18  19556746.34614   -202933.46414     -1127.71314        28.70014
> 2025 05 08 11 04 04.0000000  0 9                      
G10  21810988.96726    375688.01926       946.46626        38.10026
G27  20334629.82915    -16660.79115      -128.29215        29.60015
G02  24220342.10614    200448.19514      1701.95314        28.40014
G26  22479808.55214  -1641594.49614     -4439.64014        27.90014
G16  20726748.47114  -1070383.46114     -2957.91814        28.40014
G23  21324039.37514   -135952.98814     -1758.57114        25.50014
G08  22628795.21114    564478.46414      1627.71514        24.10014
R16  20066236.13426  -1002064.93126     -2820.16426        35.50026
C11  21922414.92815   -637441.30215     -1721.60115        29.50015
> 2025 05 08 11 04 05.0000000  0 7                      
G10  21810571.35626    376640.10326       945.96926        38.00026
G27  20334419.67415    -16782.89015      -128.03215        29.50015
G02  24219786.89014    202156.80114      1703.71214        28.70014
G26  22480416.23214  -1646023.70314     -4434.62014        27.80014
G08  22628250.78814    566114.09414      1629.36514        23.50014
R16  20066533.22826  -1004919.65126     -2821.30326        35.50026
C11  21922506.66414   -639161.49714     -1727.35614        29.10014
> 2025 05 08 11 04 06.0000001  0 8                      
G10  21810185.82326    377591.86126       945.73226        38.00026
G27  20334233.80314    -16905.11114      -128.14714        29.40014
G02  24219260.75514    203862.71514      1698.70314        28.70014
G26  22481051.79214  -1650445.60214     -4424.10514        27.80014
G16  20727418.50714  -1076280.50614     -2953.42114        25.60014
G08  22627732.14713    567753.08513      1634.80713        23.10013
R16  20066846.81125  -1007700.99525     -2821.58725        35.40025
C11  21922642.17114   -640884.29814     -1729.91314        28.80014
> 2025 05 08 11 04 06.9999998  0 9                      
G10  21809678.87326    378543.18926       945.24726        38.00026
G27  20333931.01214    -17026.55114      -126.91214        29.40014
G02  24218594.91614    205568.51714      1699.88014        28.60014
G26  22481557.24214  -1654863.91414     -4422.37814        27.90014
G16  20727664.33714  -1079226.01714     -2951.37214        25.10014
G08  22627091.79013    569390.34713      1630.53413        22.90013
R16  20067057.26515  -1010571.00215     -2822.70215        35.30015
R18  19556616.23624                     -1135.84524        29.20024
C11  21922648.16614   -642605.16814     -1725.71214        28.50014
> 2025 05 08 11 04 07.9999999  0 9                      
G10  21809286.44526    379494.14226       944.90226        37.90026
G27  20333744.84115    -17147.21915      -126.14515        29.60015
G02  24218054.39014    207272.88014      1697.78014        28.50014
G16  20728030.68314  -1082172.71114     -2953.14614        27.30014
G26  22482185.00714  -1659284.24214     -4427.19514        27.90014
G08  22626565.05513    571027.50213      1631.23713        22.80013
R16  20067374.44615  -1013371.45515     -2826.53815        34.30015
C11  21922768.38314   -644325.06314     -1725.21614        28.40014
R18  19556625.23014     -1154.05914     -1139.63714        29.10014
> 2025 05 08 11 04 08.9999999  0 9                      
G10  21808868.83426    380444.53026       944.24226        37.90026
G27  20333523.59515    -17269.66315      -129.19515        29.60015
G16  20728344.26614  -1085120.19914     -2953.74714        28.30014
G02  24217490.18014    208980.25614      1703.01814        28.40014
G26  22482792.98614  -1663707.07514     -4429.94614        27.80014
G08  22626026.92713    572659.27613      1623.21913        22.80013
R16  20067646.65715  -1016092.41715     -2822.08115        33.30015
C11  21922861.31914   -646042.58014     -1722.13614        28.40014
R18  19556568.27014     -2114.87414     -1145.65214        28.80014
> 2025 05 08 11 04 10.0000000  0 9                      
G10  21808458.11926    381394.36426       943.60926        37.90026
G27  20333327.83015    -17390.99815      -126.72715        29.50015
G16  20728682.13214  -1088068.62914     -2954.84414        28.50014
G02  24216942.46014    210691.35014      1707.00614        28.20014
G26  22483419.25314  -1668126.50014     -4423.66214        27.80014
G08  22625494.19613    574286.06013      1618.34213        22.90013
R16  20067965.63615  -1019000.58415     -2822.14115        32.50015
C11  21922974.34114   -647761.26314     -1725.15814        28.40014
R18  19556583.55914     -3400.23714     -1133.39714        28.40014
> 2025 05 08 11 04 11.0000000  0 9                      
G10  21808041.70726    382343.32826       942.69326        37.90026
G27  20333109.28114    -17514.93614      -131.07514        29.40014
G16  20729010.40514  -1091017.68314     -2955.19914        29.10014
G26  22484018.83814  -1672549.42414     -4430.50614        27.90014
G02  24216395.63814    212399.15214      1700.31914        28.10014
G08  22624949.77313    575914.83313      1623.93013        23.10013
R16  20068261.83115  -1021849.95415     -2824.28715        32.00015
C11  21923071.47314   -649486.33714     -1734.05014        28.40014
R18  19556572.46714     -4607.75714     -1142.10614        28.00014
> 2025 05 08 11 04 12.0000000  0 8                      
G10  21807624.39626    383291.31826       941.63926        37.90026
G27  20332895.82915    -17638.29315      -128.92915        29.60015
G16  20729333.58115  -1093967.69915     -2956.35815        29.60015
G26  22484626.81714  -1676974.52114     -4432.04314        28.40014
G02  24215844.91914    214104.46814      1698.20714        28.00014
G08  22624401.75313    577547.74913      1629.12313        23.20013
R16  20068544.53615  -1024625.94915     -2831.50815        31.60015
C11  21923156.01514   -651210.53914     -1729.57514        28.30014
> 2025 05 08 11 04 13.0000001  0 8                      
G10  21807242.16026    384238.56726       941.01526        37.90026
G16  20729694.23115  -1096918.46415     -2957.00115        29.80015
G27  20332721.35015    -17763.40015      -131.84515        29.70015
G26  22485262.67714  -1681402.09014     -4434.66414        28.60014
G02  24215309.79014    215809.64014      1699.23614        27.90014
G08  22623886.40913    579180.51613      1626.82913        23.30013
R16  20068886.59915  -1027560.15815     -2839.27615        31.30015
C11  21923283.12714   -652933.32314     -1727.88414        28.30014
> 2025 05 08 11 04 13.9999998  0 8                      
G10  21806734.91226    385184.67926       939.67826        37.90026
G16  20729918.47615  -1099870.58215     -2958.65515        29.90015
G27  20332412.26415    -17890.32515      -133.69715        29.90015
G26  22485782.51714  -1685831.31714     -4435.91614        28.60014
G02  24214667.93414    217513.39414      1697.18014        27.80014
G08  22623241.85613    580813.33113      1626.97413        23.40013
R16  20069069.47215  -1030284.17915     -2840.06515        31.00015
C11  21923283.72614   -654653.81414     -1725.15314        28.20014
> 2025 05 08 11 04 14.9999999  0 8                      
G10  21806344.88226    386130.16626       939.31226        37.90026
G16  20730279.42615  -1102822.84415     -2958.19615        30.20015
G27  20332232.68815    -18018.15615      -134.14815        30.00015
G26  22486420.77514  -1690258.23914     -4431.63014        28.80014
G02  24214146.59514    219215.58014      1695.53714        27.70014
G08  22622713.32114    582444.36914      1624.28514        23.80014
R16  20069384.25415  -1033070.87315     -2832.14715        30.60015
C11  21923403.64314   -656374.96714     -1727.29314        28.20014
> 2025 05 08 11 04 15.9999999  0 7                      
G10  21805932.06726    387074.90626       938.50126        37.90026
G16  20730602.90215  -1105775.75715     -2959.09915        30.30015
G27  20332029.12915    -18146.59215      -134.60115        30.10015
G26  22487018.26114  -1694682.59314     -4428.92914        28.80014
G02  24213597.07614    220917.19614      1695.46714        27.60014
G08  22622156.60714    584073.13914      1621.77214        24.10014
C11  21923509.17014   -658100.12214     -1732.96414        28.10014
> 2025 05 08 11 04 16.9999999  0 8                      
G10  21805512.95726    388019.15426       938.13826        38.00026
G16  20730925.47915  -1108734.08115     -2966.89015        30.30015
G27  20331811.78015    -18275.79915      -135.45615        30.10015
G26  22487619.64514  -1699112.29414     -4438.23414        28.90014
G02  24213030.76814    222620.60514      1698.44014        27.40014
G08  22621616.68114    585705.30014      1627.99114        24.40014
C11  21923598.80814   -659825.72014     -1731.62814        28.00014
R16  20069991.33414  -1038847.57314     -2834.01914        27.70014
> 2025 05 08 11 04 17.9999999  0 8                      
G10  21805101.34226    388962.53326       937.08026        38.00026
G16  20731252.55315  -1111690.29415     -2961.02015        30.30015
G27  20331604.92315    -18405.04615      -135.13115        30.10015
G26  22488238.71614  -1703543.05414     -4437.14914        28.90014
G02  24212450.96914    224329.70414      1706.08014        27.30014
G08  22621060.86514    587336.99914      1625.60414        24.60014
R16  20070265.04514  -1041575.41514     -2834.58714        27.80014
C11  21923677.65414   -661548.52414     -1727.21614        27.90014
> 2025 05 08 11 04 19.0000000  0 8                      
G10  21804719.70726    389905.93326       937.54826        38.00026
G16  20731601.81115  -1114645.84015     -2961.07315        30.20015
G27  20331409.15815    -18536.14115      -137.88215        30.10015
G26  22488876.97414  -1707972.02914     -4433.94314        28.80014
G02  24211920.03714    226041.31814      1707.00814        27.20014
G08  22620542.82414    588970.13414      1627.98714        24.80014
R16  20070577.42814  -1044350.64514     -2839.15814        27.80014
C11  21923807.46414   -663276.76514     -1736.76814        27.80014
> 2025 05 08 11 04 20.0000000  0 9                      
G10  21804300.59726    390848.33626       936.04026        38.00026
G16  20731930.98315  -1117602.69615     -2963.37315        30.10015
G27  20331196.90515    -18664.47515      -132.81715        30.00015
G26  22489484.35414  -1712401.79114     -4436.01514        28.80014
G02  24211361.52314    227745.62814      1694.79214        27.00014
G08  22619992.10514    590603.98214      1628.34214        25.00014
R16  20070875.72214  -1047209.95114     -2833.91914        28.70014
C11  21923911.79214   -665007.45014     -1737.71514        27.80014
R18  19556354.21814     -1349.58314     -1138.13314        26.20014
> 2025 05 08 11 04 21.0000000  0 7                      
G10  21803889.58126    391790.62326       936.36426        38.00026
G27  20330985.25215    -18793.79815      -135.68115        29.90015
G26  22490093.53214  -1716830.55714     -4434.12814        28.70014
G02  24210791.61814    229445.83314      1692.28814        26.90014
G08  22619442.58614    592237.76314      1627.88214        25.00014
R16  20071172.21715  -1050060.84915     -2832.11315        29.70015
C11  21923995.13414   -666737.22114     -1735.12314        27.70014
> 2025 05 08 11 04 22.0000000  0 8                      
G10  21803471.97026    392732.45726       935.74426        38.00026
G27  20330777.79515    -18923.92215      -136.38715        29.80015
G26  22490702.71114  -1721256.85114     -4430.91914        28.70014
G02  24210222.01214    231145.00014      1692.78414        26.90014
G08  22618902.36014    593870.73714      1626.70614        25.00014
G16  20732579.73414  -1123513.08214     -2961.25414        28.30014
R16  20071465.71315  -1052894.93215     -2838.26015        29.70015
C11  21924082.97314   -668467.64414     -1736.55814        27.60014
> 2025 05 08 11 04 23.0000001  0 9                      
G10  21803084.93826    393673.96126       935.47526        38.00026
G27  20330597.92015    -19053.70115      -135.47015        29.70015
G26  22491337.37114  -1725683.30014     -4432.38514        28.50014
G02  24209693.17814    232847.84014      1698.81214        26.80014
G16  20732932.88914  -1126470.86714     -2963.64614        27.50014
G08  22618374.42514    595502.49914      1625.29114        25.10014
R18  19556277.77125                     -1147.19825        31.30025
R16  20071802.68015  -1055800.86115     -2833.92815        29.60015
C11  21924207.08714   -670195.98714     -1733.11114        27.50014
> 2025 05 08 11 04 23.9999998  0 10                      
G10  21802581.28726    394615.16626       935.19126        37.90026
G27  20330296.32915    -19180.02815      -130.46315        29.50015
G26  22491862.00814  -1730116.69914     -4442.73414        28.40014
G16  20733180.81814  -1129430.28614     -2966.09714        27.20014
G02  24209038.73114    234551.03214      1697.50314        26.80014
G08  22617738.86514    597133.50614      1624.76614        25.20014
G23  21325916.37513    -28066.23413     -1777.78213        21.10013
R18  19556169.24615     -1165.50915     -1145.91115        31.30015
R16  20071997.24515  -1058586.79215     -2840.49615        29.60015
C11  21924217.28014   -671922.56814     -1731.50914        27.40014
> 2025 05 08 11 04 24.9999999  0 10                      
G10  21802202.64926    395555.87426       934.59426        37.80026
G27  20330106.26014    -19309.37814      -136.72514        29.40014
G26  22492485.87614  -1734549.33314     -4438.11214        28.40014
G02  24208500.30414    236252.82214      1695.22414        27.20014
G16  20733545.96514  -1132388.78214     -2963.89614        27.10014
G08  22617225.32114    598764.74314      1625.48714        25.50014
G23  21326048.28413    -29838.07413     -1777.70213        21.80013
R18  19556177.64015     -2316.50715     -1146.94415        31.20015
R16  20072314.42615  -1061388.00915     -2840.19915        30.10015
C11  21924343.19314   -673649.12014     -1732.34514        27.90014
> 2025 05 08 11 04 25.9999999  0 10                      
G10  21801777.84326    396496.51426       934.74326        37.60026
G27  20329890.41014    -19439.24414      -135.98814        29.30014
G26  22493081.86314  -1738978.37914     -4433.11114        28.60014
G02  24207936.69414    237954.14714      1695.22814        27.70014
G16  20733875.13714  -1135346.71714     -2963.51514        27.10014
G08  22616687.19314    600394.54914      1623.22514        25.50014
G23  21326142.41913    -31606.75413     -1772.96213        22.20013
R16  20072614.21816  -1064254.95816     -2840.80616        35.60016
R18  19556151.85815     -3443.83015     -1145.04715        31.20015
C11  21924437.32814   -675375.55414     -1732.18514        28.90014
> 2025 05 08 11 04 26.9999999  0 10                      
G10  21801361.43226    397436.52126       933.82626        37.40026
G27  20329682.35414    -19572.30714      -140.52414        29.10014
G02  24207377.28114    239656.35414      1696.78414        28.00014
G26  22493682.34814  -1743404.95614     -4431.20114        28.60014
G16  20734194.71614  -1138308.25314     -2969.19714        27.30014
G08  22616126.58114    602024.97114      1624.86514        25.50014
G23  21326248.24613    -33377.78813     -1778.07313        22.60013
R16  20072908.31526  -1067093.62726     -2841.50226        36.60026
R18  19556136.56815     -4629.96015     -1145.72815        31.20015
C11  21924537.15914   -677101.39214     -1731.34814        29.00014
> 2025 05 08 11 04 27.9999999  0 10                      
G10  21800948.01826    398376.36226       933.89426        37.30026
G02  24206815.77014    241358.97014      1696.95514        28.70014
G27  20329468.30214    -19706.65414      -140.85214        29.00014
G26  22494290.32714  -1747839.52814     -4444.43114        28.50014
G16  20734514.59414  -1141270.22814     -2968.05614        27.30014
G08  22615584.25714    603653.21714      1621.29514        25.40014
G23  21326357.67013    -35153.99713     -1784.65913        22.80013
R16  20073200.31326  -1069920.83126     -2841.66426        36.50026
R18  19556117.38215     -5793.18115     -1145.96915        31.30015
C11  21924633.09214   -678828.53114     -1733.59814        29.40014
> 2025 05 08 11 04 29.0000000  0 10                      
G10  21800558.88726    399315.88526       933.50026        37.20026
G02  24206277.34314    243061.53614      1696.67714        29.10014
G27  20329283.63014    -19841.63314      -141.15914        28.80014
G26  22494929.78414  -1752274.29514     -4440.72414        28.30014
G16  20734859.95514  -1144228.22114     -2961.86314        27.30014
G08  22615071.61214    605280.05814      1620.27414        25.30014
G23  21326489.27913    -36927.84913     -1778.53413        23.10013
R16  20073528.88526  -1072781.66526     -2842.79226        36.40026
R18  19556114.38415     -6882.31215     -1147.14115        31.30015
C11  21924758.40615   -680554.18715     -1730.72215        30.20015
> 2025 05 08 11 04 30.0000000  0 10                      
G10  21800151.46926    400254.93926       932.95626        37.10026
G02  24205715.53214    244763.22114      1695.37914        29.40014
G26  22495537.46314  -1756703.03214     -4431.58114        28.20014
G27  20329077.67214    -19978.56514      -143.77214        28.60014
G16  20735189.12714  -1147186.69714     -2964.57914        27.20014
G08  22614515.49714    606903.15814      1615.36414        25.10014
G23  21326589.11013    -38702.23013     -1780.50813        23.10013
R16  20073820.88326  -1075607.34126     -2843.41426        36.20026
C11  21924850.14215   -682281.29315     -1733.64015        31.10015
R18  19556087.40215     -8002.75815     -1146.84415        31.30015
> 2025 05 08 11 04 31.0000000  0 10                      
G10  21799735.95726    401193.48026       932.42126        37.00026
G02  24205158.81715    246466.90015      1698.81115        29.70015
G26  22496146.64214  -1761133.08014     -4436.56314        28.10014
G27  20328872.61414    -20110.26414      -134.94514        28.40014
G16  20735517.40014  -1150148.69714     -2969.62314        27.10014
G08  22613967.47614    608525.84014      1616.61014        25.00014
G23  21326677.54813    -40477.65413     -1781.80713        23.10013
R16  20074108.08426  -1078408.55826     -2844.40626        36.10026
C11  21924947.27515   -684009.13115     -1734.01315        31.80015
R18  19556069.11515     -9171.32115     -1148.49715        31.20015
> 2025 05 08 11 04 32.0000000  0 10                      
G10  21799318.04626    402131.46326       931.83926        36.90026
G02  24204599.40515    248169.81915      1696.67415        29.90015
G26  22496764.81414  -1765569.39214     -4445.30414        28.30014
G16  20735849.57014  -1153112.75214     -2970.94414        27.10014
G27  20328660.36114    -20243.82414      -140.35314        28.10014
G08  22613412.86014    610150.92814      1620.42614        24.80014
G23  21326783.67513    -42257.88313     -1788.49413        23.10013
R16  20074411.17426  -1081294.61526     -2845.50926        35.90026
C11  21925041.41015   -685736.65715     -1733.17915        32.30015
R18  19556048.13015    -10325.37615     -1145.34115        31.30015
> 2025 05 08 11 04 32.9999999  0 10                      
G10  21798852.76826    403068.94926       931.29126        36.70026
G02  24203982.73115    249871.38115      1694.93815        30.00015
G26  22497320.92914  -1770003.49014     -4438.93414        28.60014
G16  20736128.07714  -1156076.11214     -2968.95614        27.40014
G27  20328394.14614    -20377.32514      -139.41814        27.90014
G08  22612821.37014    611781.92514      1628.00414        24.60014
G23  21326834.64013    -44041.43313     -1791.15513        23.10013
R16  20074655.50526  -1084123.29226     -2846.23726        35.80026
C11  21925086.37925   -687464.41025     -1733.75725        32.70025
R18  19555976.17915    -11464.09615     -1149.07315        31.30015
> 2025 05 08 11 04 33.9999999  0 9                      
G10  21798432.75926    404005.41726       930.12226        36.60026
G02  24203420.32115    251573.36715      1696.36115        30.10015
G26  22497933.70514  -1774436.66214     -4438.54114        28.90014
G16  20736450.95414  -1159042.96214     -2974.42914        27.50014
G08  22612258.05914    613416.17514      1630.03914        24.40014
G23  21326942.86513    -45822.43713     -1785.56413        23.10013
R16  20074945.40426  -1086938.26726     -2847.76026        35.70026
C11  21925184.11125   -689192.93325     -1734.68925        33.00025
R18  19555945.00115    -12562.39715     -1148.34715        31.40015
> 2025 05 08 11 04 34.9999999  0 9                      
G10  21798015.44826    404941.22926       929.62126        36.40026
G02  24202857.61015    253275.09515      1695.73315        30.50015
G26  22498538.68614  -1778868.90214     -4437.63314        29.20014
G16  20736787.32114  -1162011.73714     -2975.59714        27.50014
G23  21327045.69313    -47598.04013     -1778.76513        23.40013
G08  22611702.24414    615049.04914      1626.32214        24.30014
R16  20075249.09426  -1089827.38126     -2848.69626        35.60026
C11  21925279.44525   -690921.75925     -1734.78725        33.10025
R18  19555927.91315    -13737.83515     -1151.92215        31.50015
> 2025 05 08 11 04 36.0000000  0 10                      
G10  21797627.51626    405876.42026       929.01626        36.30026
G02  24202334.77215    254976.42515      1695.26815        30.80015
G26  22499173.64615  -1783300.90915     -4437.75115        29.50015
G16  20737136.27914  -1164977.97714     -2970.83414        27.40014
G23  21327174.30413    -49372.49613     -1779.74513        23.40013
G08  22611196.19514    616679.06514      1622.72314        24.10014
G27  20327774.77414    -20775.46514      -137.68914        24.60014
R16  20075570.47226  -1092649.99926     -2849.87926        35.60026
C11  21925405.65825   -692651.18025     -1735.52625        33.40025
R18  19555944.10215    -14928.55215     -1150.47715        31.60015
> 2025 05 08 11 04 37.0000000  0 10                      
G10  21797211.40526    406810.81226       928.12926        36.10026
G02  24201778.65715    256675.31315      1691.80215        30.90015
G26  22499778.62715  -1787734.53915     -4440.30015        29.50015
G16  20737454.65914  -1167942.02514     -2968.81314        27.40014
G08  22610668.56014    618308.64714      1623.50114        24.00014
G23  21327279.53213    -51149.79413     -1784.58113        23.40013
G27  20327567.61814    -20908.29414      -138.69214        23.80014
R16  20075868.16626  -1095507.01226     -2850.77626        35.60026
C11  21925503.09025   -694380.96625     -1735.77825        33.50025
R18  19555916.22115    -16045.17815     -1149.55915        31.80015
> 2025 05 08 11 04 38.0000000  0 10                      
G10  21796803.38726    407745.10026       928.37226        36.00026
G02  24201212.34915    258376.14915      1695.94515        30.90015
G26  22500387.20614  -1792167.11114     -4437.90414        29.40014
G08  22610114.84314    619938.59214      1624.26214        26.70014
G16  20737796.42214  -1170908.71814     -2973.87614        27.30014
G27  20327370.95413    -21043.65013      -142.48213        23.40013
G23  21327387.15713    -52932.28113     -1790.94313        23.30013
R16  20076159.86426  -1098331.15926     -2851.28126        35.90026
C11  21925595.42625   -696110.63625     -1735.42025        33.80025
R18  19555893.43715    -17189.30315     -1151.45315        32.10015
> 2025 05 08 11 04 39.0000000  0 10                      
G10  21796384.87726    408678.63926       927.30026        35.90026
G02  24200651.43815    260071.15815      1686.23115        30.80015
G26  22501006.57714  -1796604.50014     -4445.65614        29.30014
G08  22609580.91314    621567.86114      1623.06614        27.90014
G16  20738123.49614  -1173879.95714     -2979.37314        27.30014
G27  20327172.19214    -21182.32214      -146.19414        24.20014
G23  21327495.68213    -54717.86013     -1792.98713        23.20013
R16  20076453.66026  -1101166.00626     -2852.60926        35.90026
C11  21925691.06025   -697840.80625     -1736.22825        34.40025
R18  19555876.04915    -18362.45315     -1152.11115        32.20015
> 2025 05 08 11 04 40.0000001  0 10                      
G10  21796001.44226    409611.38626       926.48726        35.80026
G02  24200117.80715    261766.03015      1688.93815        30.70015
G26  22501634.64214  -1801046.25814     -4449.80214        29.20014
G08  22609052.07914    623196.11414      1621.88114        27.90014
G16  20738480.54914  -1176857.57314     -2986.66614        27.20014
G27  20326981.22414    -21321.91414      -145.91514        24.90014
G23  21327625.79213    -56503.24213     -1791.14613        23.10013
R16  20076779.83526  -1104014.61126     -2853.72126        35.90026
C11  21925817.87225   -699571.55125     -1736.84225        34.80025
R18  19555879.04725    -19483.66425     -1152.86525        32.20025
> 2025 05 08 11 04 40.9999998  0 9                      
G10  21795497.79126    410543.32726       925.67426        35.90026
G26  22502140.69214  -1805483.31714     -4440.56914        29.10014
G08  22608422.21514    624821.55914      1618.17614        27.80014
G16  20738715.88614  -1179828.37414     -2973.25414        27.00014
G27  20326674.83614    -21461.11714      -144.87214        25.20014
G02  24199468.45714    263460.17114      1687.91014        29.10014
R16  20076988.79026  -1106877.73826     -2855.01026        35.90026
C11  21925821.76925   -701302.74825     -1737.23125        35.10025
R18  19555766.02525    -20626.26025     -1153.38925        32.20025
> 2025 05 08 11 04 41.9999999  0 9                      
G10  21795115.55526    411474.82526       925.41226        36.00026
G26  22502777.45114  -1809918.68514     -4440.38314        29.00014
G08  22607911.66814    626446.44214      1618.73714        27.80014
G16  20739063.94514  -1182790.63014     -2963.84414        26.80014
G27  20326493.46114    -21597.07714      -140.20114        25.60014
G02  24198941.42114    265156.98514      1692.28714        27.70014
R16  20077315.86326  -1109732.45826     -2855.56926        35.80026
C11  21925945.28425   -703034.28625     -1737.51725        35.30025
R18  19555776.81725    -21791.00525     -1153.84325        32.10025
> 2025 05 08 11 04 42.9999999  0 9                      
G10  21794696.14626    412405.78626       924.83026        36.20026
G26  22503379.13514  -1814352.86914     -4439.45114        28.90014
G08  22607367.84514    628074.68714      1624.06214        27.80014
G27  20326283.60714    -21734.77214      -144.42614        25.80014
G16  20739390.11914  -1185752.41814     -2967.41514        26.60014
G02  24198380.51014    266854.64714      1692.22114        26.80014
C11  21926041.21826   -704766.02226     -1737.64426        35.70026
R16  20077603.96426  -1112538.26126     -2856.46426        35.80026
R18  19555754.03325    -22933.60225     -1153.93025        32.10025
