     4.01           OBSERVATION DATA    M                   RINEX VERSION / TYPE
GnssLogger          samsung 13          20250503 080039 UTC PGM / RUN BY / DATE
Google GnssLogger                                           MARKER NAME
Unknown                                                     MARKER NUMBER
Unknown             Unknown                                 OBSERVER / AGENCY
Unknown             GnssLogger          v3.1.0.4            REC # / TYPE / VERS
Unknown             Unknown                                 ANT # / TYPE
        0.0000        0.0000        0.0000                  ANTENNA: DELTA H/E/N
G    4 C1C L1C D1C S1C                                      SYS / # / OBS TYPES
R    4 C1C L1C D1C S1C                                      SYS / # / OBS TYPES
C    4 C2C L2C D2C S2C                                      SYS / # / OBS TYPES
  2025    05    03    08    00   39.0000000     GPS         TIME OF FIRST OBS
 3 R09 -2 R10 -7 R16 -1                                     GLONASS SLOT / FRQ #
samsung SM-A515F (Android 13) HW Year: 2016 HW Model:       COMMENT
S.LSI,K102                                                  COMMENT
                                                            END OF HEADER
> 2025 05 03 08 00 39.9999999  0 11                      
G31  21193862.29414    -14715.54114     -1147.72414        28.90014
G28  21354786.68914    -37046.88914     -2861.13414        27.70014
G25  21833718.93114    -51325.85314     -3952.09614        23.70014
G29  20653529.55913    -31066.77113     -2405.38113        22.50013
G18  22072143.87313     14572.96913      1603.76713        21.20013
R16  21786244.39714    -61076.51614     -4676.76614        26.00014
R10  20924064.97114     24161.07014      1829.31414        23.80014
C36  23661318.81014    -51808.90214     -3993.34714        23.80014
R09  19066612.05913    -15878.08513     -1241.14413        23.10013
C30  23853700.12713    -11469.58613     -3829.79313        22.30013
C29  21426082.43213    -13838.84713     -1070.60413        23.20013
> 2025 05 03 08 00 41.0000000  0 11                      
G31  21193871.88815    -15863.45715     -1157.59915        29.50015
G28  21355129.65114    -39901.31314     -2860.22814        27.60014
G25  21834259.15714    -55275.89714     -3960.05514        23.70014
G29  20653775.68913    -33461.57213     -2398.18213        22.50013
G18  22071632.42713     16180.13713      1598.15013        21.20013
R16  21786900.94214    -65689.17114     -4679.55914        26.10014
R10  20923493.26714     26105.26014      1817.82214        23.90014
C36  23661868.32914    -55792.85314     -3987.08114        23.70014
R09  19066629.44713    -17076.85813     -1242.45613        23.10013
C30  23854256.84213    -15293.60113     -3829.83613        22.50013
C29  21426092.32513    -14908.28513     -1081.16613        22.90013
> 2025 05 03 08 00 41.9999999  0 11                      
G31  21193840.11015    -17015.34615     -1159.79215        29.90015
G28  21355426.14614    -42759.47014     -2865.94014        27.50014
G25  21834759.51114    -59230.60014     -3962.94814        23.60014
G29  20653984.94413    -35853.51013     -2396.42213        23.00013
G18  22071077.21113     17780.52613      1591.08113        21.20013
R16  21787520.61314    -70329.30714     -4663.49514        26.50014
C36  23662382.77314  31162190.21414     -3980.21414        24.00014
R10  20922912.86914     27872.53914      1817.50814        23.90014
C30  23854726.61613    -19112.85013     -3822.72813        22.90013
R09  19066605.16413    -18274.83113     -1236.80513        23.10013
C29  21426077.63513    -15988.53013     -1088.30013        22.70013
> 2025 05 03 08 00 43.0000000  0 11                      
G31  21193859.29715    -18170.12915     -1162.07515        30.10015
G28  21355752.32014    -45623.05614     -2872.14214        27.40014
G29  20654231.07313    -38244.16113     -2395.85113        23.30013
G25  21835307.83114    -63188.18014     -3964.86114        23.50014
G18  22070557.07113     19379.60313      1592.57413        21.10013
R16  21788190.64914    -75013.81214     -4662.31214        26.80014
C36  23662931.09414  31158217.78214     -3976.11914        24.20014
R10  20922389.13114     29561.21814      1809.60114        23.90014
C30  23855246.75613    -22929.24413     -3820.75613        23.00013
R09  19066623.15113    -19476.66213     -1243.54913        23.00013
C29  21426085.73013    -17073.68013     -1093.53113        22.70013
> 2025 05 03 08 00 44.0000000  0 11                      
G31  21193841.30915    -19325.53315     -1161.57715        30.40015
G28  21356068.60114    -48488.15814     -2871.72114        27.40014
G29  20654452.02014    -40635.76714     -2397.94414        23.60014
G25  21835820.17613    -67139.80513     -3954.50713        23.40013
G18  22070021.04213     20982.52513      1598.98013        21.20013
R16  21788828.00815    -79686.08615     -4661.06515        31.10015
C36  23663461.42714  31154248.42114     -3976.36414        24.40014
R10  20921812.33114     31371.17114      1803.84014        24.20014
C30  23855743.21313    -26747.55313     -3825.07413        23.30013
R09  19066616.55613    -20708.28913     -1237.35313        23.00013
C29  21426049.75413    -18164.32513     -1095.31913        22.70013
> 2025 05 03 08 00 45.0000000  0 11                      
G31  21193835.61315    -20484.06215     -1166.00815        30.50015
G28  21356395.37514    -51353.70114     -2871.68014        27.30014
G25  21836346.31214    -71076.48814     -3935.12814        23.50014
G29  20654691.55514    -43026.68414     -2396.48914        23.60014
G18  22069492.80813     22601.43613      1620.98613        21.70013
R16  21789461.47015    -84237.56415     -4658.68615        32.20015
C36  23664003.75114  31150278.41114     -3974.97714        24.50014
R10  20921269.70614     33097.26214      1801.93614        24.50014
C30  23856259.75514    -30565.58914     -3823.76114        23.50014
C29  21426034.16513    -19251.45513     -1090.53513        22.90013
R09  19066588.07613    -21723.65213     -1235.36013        22.90013
> 2025 05 03 08 00 46.0000000  0 11                      
G18  22068930.39714     24227.83114      1624.29014        29.30014
G31  21193820.02415    -21646.25915     -1169.87515        30.50015
G28  21356710.45714    -54217.55514     -2868.85214        27.20014
G25  21836861.05614    -75005.21414     -3930.58814        23.80014
G29  20654908.90414    -45422.34314     -2403.87314        23.60014
R16  21790116.51615    -89003.08515     -4660.16315        31.90015
C36  23664530.78614  31146311.75214     -3972.77814        24.90014
R10  20920675.51814     35001.03114      1801.46614        24.70014
C30  23856754.41314    -34383.24314     -3823.25214        23.50014
C29  21426007.78313    -20333.06613     -1082.83013        23.20013
R09  19066557.49713    -22826.15613     -1235.46513        22.90013
> 2025 05 03 08 00 47.0000000  0 11                      
G18  22068377.88015     25854.54115      1621.00415        31.10015
G31  21193805.33415    -22806.64515     -1165.34215        30.50015
G28  21357016.24514    -57081.70114     -2870.15214        27.00014
G25  21837383.89414    -78930.04214     -3928.73914        23.80014
G29  20655118.75914    -47817.73314     -2401.11614        23.50014
R16  21790757.17315    -93692.17715     -4657.95015        31.40015
C36  23665059.02114  31142346.32314     -3971.87514        25.10014
R10  20920102.61414     36791.91614      1804.48414        24.90014
C30  23857250.56914    -38196.65314     -3817.09414        23.70014
C29  21425973.60713    -21409.81013     -1082.41413        23.20013
R09  19066590.47413    -24267.90113     -1239.40613        22.80013
> 2025 05 03 08 00 48.0000000  0 11                      
G31  21193808.93115    -23968.38215     -1168.33215        30.50015
G18  22067842.75015     27477.95815      1615.85015        30.90015
G28  21357328.92914    -59946.62514     -2871.22914        26.80014
G29  20655350.79814    -50211.18514     -2398.40014        23.50014
G25  21837904.03414    -82850.95314     -3924.86814        23.80014
R16  21791398.42915    -98286.45615     -4655.37315        30.80015
C36  23665600.74614  31138379.78814     -3973.35914        25.10014
R10  20919532.40914     38664.44914      1803.80814        24.90014
C30  23857760.81614    -42009.97814     -3819.14514        23.80014
C29  21425958.61814    -22486.29014     -1083.47414        23.50014
R09  19066621.65213    -25602.63813     -1238.59413        22.70013
> 2025 05 03 08 00 49.0000000  0 11                      
G31  21193788.54515    -25130.88915     -1168.73415        30.80015
G18  22067296.22915     29098.11115      1612.67615        30.50015
G28  21357635.61714    -62815.31714     -2876.41914        26.70014
G29  20655555.85614    -52606.89314     -2402.67914        23.50014
G25  21838416.67914    -86770.84914     -3925.23114        23.70014
R16  21792023.49615   -102892.23815     -4660.72715        30.20015
C36  23666126.28214  31134410.46314     -3976.53714        25.10014
R10  20918968.79914     40404.99714      1814.05314        24.90014
C30  23858250.97714    -45823.36714     -3819.20914        23.80014
C29  21425927.73914    -23565.36014     -1082.99414        23.60014
R09  19066612.95913    -26822.04013     -1230.33213        22.60013
> 2025 05 03 08 00 50.0000000  0 11                      
G31  21193782.55015    -26294.93915     -1170.68415        30.90015
G18  22066756.30215     30715.55415      1610.22315        29.50015
G28  21357954.29614    -65684.45814     -2875.22614        26.70014
G29  20655784.59814    -55004.11714     -2403.84314        23.90014
G25  21838925.72614    -90695.42014     -3932.76814        23.60014
R16  21792647.06415   -107489.61215     -4662.33715        29.90015
R10  20918379.10714     42285.88114      1800.50014        24.80014
C36  23666654.51614  31130437.91814     -3978.87114        25.00014
C30  23858740.23814    -49637.38714     -3820.14314        24.20014
C29  21425894.76214    -24642.06114     -1084.81714        23.60014
R09  19066609.06113    -28067.42513     -1237.95713        22.50013
> 2025 05 03 08 00 51.0000000  0 11                      
G31  21193779.25215    -27458.94515     -1169.90115        30.90015
G28  21358285.26714    -68556.33314     -2879.15914        27.20014
G18  22066227.76814     32332.30614      1610.48714        28.80014
G29  20656030.72714    -57397.25114     -2397.00514        24.40014
G25  21839451.56214    -94627.66314     -3941.99414        23.60014
R16  21793304.50915   -112170.25915     -4663.99015        29.70015
C30  23859250.18514    -53447.02414     -3813.30714        24.80014
R10  20917816.39714     44118.75314      1802.05814        24.90014
C36  23667207.93314  31126461.94014     -3986.42714        25.00014
C29  21425886.36814    -25719.30514     -1080.75914        23.50014
R09  19066617.15613    -29279.91513     -1238.34513        22.40013
> 2025 05 03 08 00 52.0000000  0 11                      
G31  21193763.96315    -28625.79115     -1174.11015        30.80015
G28  21358600.64814    -71432.73314     -2884.50514        27.20014
G18  22065686.04314     33949.93314      1612.21814        28.30014
G29  20656239.98314    -59790.72614     -2399.48914        24.70014
G25  21839969.00414    -98566.40714     -3947.83614        23.60014
R16  21793943.96715   -116851.70915     -4669.10215        29.50015
R10  20917251.58814     45866.16614      1812.15914        25.30014
C30  23859746.94114    -57251.88814     -3808.26714        25.30014
C36  23667731.37114  31122480.61514     -3990.98314        25.00014
C29  21425859.68613    -26793.58513     -1080.69413        23.40013
R09  19066606.96313    -30490.91413     -1240.31713        22.50013
> 2025 05 03 08 00 53.0000000  0 11                      
G31  21193747.17415    -29791.58815     -1171.13515        30.70015
G28  21358907.93614    -74311.92314     -2886.44614        27.20014
G18  22065152.11314     35562.32614      1603.91214        28.00014
G29  20656453.13514    -62186.30814     -2402.49714        24.80014
G25  21840485.84614   -102509.46114     -3951.06814        23.80014
C30  23860240.09914    -61058.59214     -3813.43114        26.50014
R16  21794602.61114   -121637.10814     -4677.59014        29.40014
C36  23668254.50814  31118494.20114     -3993.37214        25.20014
R10  20916686.17914     47616.62914      1814.09814        25.60014
R09  19066598.26913    -31711.08513     -1246.67713        22.70013
C29  21425832.40513    -27867.65613     -1079.27313        23.30013
> 2025 05 03 08 00 54.0000000  0 11                      
G31  21193756.46815    -30955.48415     -1168.86215        30.60015
G28  21359225.11614    -77191.51614     -2885.71014        27.40014
G18  22064632.57314     37165.52114      1592.67714        27.80014
G25  21841005.08714   -106453.75114     -3950.82514        24.80014
G29  20656696.86614    -64588.84414     -2411.92914        24.80014
C36  23668797.73215  31114507.29915     -3992.66915        32.10015
C30  23860749.44715    -64867.32515     -3815.60815        33.90015
R16  21795262.75414   -126330.74714     -4682.45514        29.30014
R10  20916122.27014     49456.36514      1813.80514        25.90014
R09  19066608.16213    -32931.98013     -1247.97313        22.70013
C29  21425811.12013    -28942.07213     -1079.14113        23.10013
> 2025 05 03 08 00 55.0000000  0 11                      
G31  21193738.18015    -32118.76315     -1168.81615        30.60015
G28  21359536.00114    -80069.14914     -2882.49714        27.50014
G18  22064092.64714     38771.76214      1601.91714        27.60014
G25  21841520.43014   -110399.20014     -3951.86814        25.00014
G29  20656924.10914    -66995.35414     -2414.34014        24.70014
C36  23669325.06715  31110519.93715     -3993.73315        34.70015
C30  23861245.60315    -68680.90715     -3821.79615        33.50015
R16  21795883.62414   -130913.59914     -4673.02514        29.20014
R10  20915536.77514     51312.84414      1810.91014        26.10014
R09  19066593.17213    -34117.76313     -1249.20413        22.80013
C29  21425783.83813    -30016.41313     -1080.57313        22.90013
> 2025 05 03 08 00 56.0000001  0 11                      
G31  21193751.97115    -33278.75915     -1164.21615        30.50015
G28  21359881.96114    -82943.99614     -2879.31414        27.60014
G18  22063573.40614     40375.60814      1596.78614        27.50014
G25  21842061.25614   -114347.14014     -3955.04714        25.10014
G29  20657171.43814    -69405.32314     -2417.56114        24.70014
C36  23669888.67715  31106530.93215     -3997.08515        34.60015
C30  23861773.83815    -72495.33415     -3820.65715        32.80015
R16  21796566.85114   -135670.71914     -4686.19314        29.10014
R10  20914989.35414     53126.61114      1816.49814        26.40014
R09  19066655.82913    -35557.21713     -1245.10413        23.00013
C29  21425788.63513    -31091.79013     -1082.52013        22.70013
> 2025 05 03 08 00 56.9999998  0 11                      
G31  21193645.54415    -34439.29215     -1166.66315        30.40015
G28  21360102.90814    -85820.16514     -2882.69114        28.10014
G18  22062938.14614     41976.59614      1593.69314        27.40014
G25  21842485.76214   -118297.46414     -3957.37614        25.20014
G29  20657306.64414    -71816.52114     -2417.67314        24.60014
C36  23670327.57315  31102540.06215     -3998.22615        34.50015
C30  23862178.55815    -76311.46415     -3822.78715        32.10015
R16  21797125.06414   -140399.55614     -4699.10114        29.00014
R10  20914301.33014     55050.97214      1815.97214        27.10014
R09  19066556.89713    -36775.85613     -1250.55913        23.40013
C29  21425679.81113    -32173.01413     -1090.96013        22.50013
> 2025 05 03 08 00 58.0000001  0 11                      
G31  21193743.27715    -35597.37715     -1162.78015        30.40015
G28  21360517.52114    -88695.51014     -2880.84914        28.50014
G18  22062495.65214     43581.91714      1601.56914        27.40014
G25  21843099.13714   -122250.73414     -3960.65914        25.40014
G29  20657640.61314    -74226.05614     -2414.62014        24.40014
C36  23670967.63015  31098545.59115     -4003.09815        34.30015
C30  23862789.83415    -80130.09515     -3825.74415        31.50015
R16  21797865.85114   -145045.04314     -4691.34114        28.80014
R10  20913859.13714     56721.38714      1817.41714        27.30014
R09  19066653.43014    -37979.17714     -1245.47614        23.70014
C29  21425756.85713    -33259.71013     -1094.12213        22.40013
> 2025 05 03 08 00 59.0000001  0 10                      
G31  21193717.49515    -36755.66015     -1164.22515        30.30015
G28  21360831.40414    -91574.71814     -2886.98414        28.50014
G18  22061952.42814     45187.79314      1600.30614        27.60014
G25  21843627.67114   -126207.45514     -3964.28814        25.40014
G29  20657848.96914    -76628.76614     -2405.14014        24.30014
C36  23671499.46215  31094547.86015     -4003.84715        34.10015
C30  23863281.19415    -83956.95015     -3836.75515        30.90015
R10  20913286.53314     58509.98414      1816.56514        27.30014
R09  19066668.42014    -39324.65114     -1248.39914        23.80014
C29  21425730.17613    -34348.55913     -1096.47113        22.20013
> 2025 05 03 08 00 59.9999998  0 11                      
G31  21193613.76615    -37911.46315     -1160.42615        30.10015
G28  21361046.35514    -94449.49314     -2878.41714        28.40014
G18  22061324.36314     46792.57414      1598.37014        27.90014
G25  21844048.58014   -130166.64014     -3966.27614        25.70014
G29  20657970.68414    -79030.21114     -2406.67514        24.20014
C36  23671930.26415  31090551.88015     -4001.16715        33.70015
C30  23863702.10315    -87782.71115     -3831.02115        30.40015
R10  20912605.40514     60396.21014      1823.33114        27.30014
R09  19066552.40014    -40453.13214     -1256.03914        24.00014
R16  21799058.72614   -154431.63414     -4691.19714        27.10014
C29  21425610.55813    -35439.92013     -1097.99013        22.00013
> 2025 05 03 08 01 00.9999998  0 11                      
G31  21193638.05015    -39065.81415     -1159.48715        30.00015
G28  21361385.42114    -97315.84914     -2868.00914        28.40014
G18  22060816.21514     48389.70614      1587.44214        27.90014
G25  21844593.60314   -134128.16414     -3968.55414        26.00014
G29  20658225.80814    -81434.25414     -2411.20214        24.30014
C30  23864223.14215    -91608.76815     -3832.01215        30.00015
R10  20912044.79314     62281.67214      1818.69614        27.30014
C36  23672491.17515  31086553.60515     -4004.36315        32.30015
R09  19066588.07614    -41749.70514     -1245.92114        24.40014
C29  21425602.76413    -36532.68313     -1098.00613        21.90013
R16  21799785.12314   -159418.04714     -4688.58014        25.80014
> 2025 05 03 08 01 01.9999997  0 11                      
G31  21193594.58015    -40220.96515     -1161.46915        29.90015
G28  21361672.02214   -100178.67714     -2866.97914        28.40014
G18  22060247.20914     49990.73514      1597.05914        28.00014
G25  21845091.25814   -138093.03914     -3972.46614        26.20014
G29  20658432.36514    -83833.53614     -2402.81814        24.30014
C36  23673017.31115  31082555.26915     -4004.59415        31.20015
C30  23864732.48915    -95437.79415     -3836.37215        29.60015
R10  20911453.00214     64109.96914      1818.31414        27.30014
R09  19066571.28714    -42988.17314     -1251.00014        24.60014
C29  21425574.88313    -37626.15013     -1098.77013        21.80013
R16  21800417.98514   -164126.97814     -4697.41514        24.70014
> 2025 05 03 08 01 02.9999998  0 11                      
G31  21193608.97015    -41374.70115     -1158.87215        29.70015
G18  22059755.24914     51593.40314      1597.64114        28.30014
G28  21362017.38314   -103042.61014     -2870.32914        28.30014
G25  21845646.17414   -142058.25714     -3971.23114        26.20014
G29  20658697.08214    -86234.58514     -2407.77614        24.50014
C36  23673576.12415  31078556.51715     -4000.29815        30.90015
C30  23865275.11414    -99263.81214     -3830.30314        29.20014
R10  20910925.96714     65815.43214      1834.47814        27.20014
R09  19066618.05514    -44343.58314     -1256.51014        24.60014
C29  21425587.77413    -38719.74313     -1099.38113        21.80013
R16  21801080.52614   -168772.50314     -4710.27814        23.80014
> 2025 05 03 08 01 03.9999998  0 11                      
G18  22059214.72314     53196.30214      1597.15114        28.90014
G31  21193587.68515    -42529.99915     -1161.94115        29.60015
G28  21362331.86514   -105911.83514     -2877.73214        28.20014
G25  21846158.81914   -146023.38314     -3970.94014        26.10014
G29  20658913.83214    -88636.41414     -2408.08114        24.50014
C36  23674104.65815  31074560.38015     -4003.66515        31.00015
C30  23865763.47614   -103088.86414     -3830.37614        28.90014
R10  20910322.48514     67768.77314      1819.77014        27.10014
R09  19066619.85414    -45619.52514     -1265.55114        24.60014
C29  21425564.99013    -39814.26713     -1100.07213        21.70013
R16  21801733.77413   -173528.85613     -4706.00213        23.00013
> 2025 05 03 08 01 04.9999999  0 10                      
G18  22058692.48514     54797.61814      1594.60514        29.10014
G31  21193599.67614    -43686.99814     -1163.76714        29.40014
G28  21362656.54114   -108785.15414     -2881.28214        28.10014
G25  21846686.75314   -149987.65914     -3969.76614        26.00014
G29  20659146.17114    -91036.60414     -2405.28614        24.40014
C36  23674656.27715  31070562.71615     -4005.68615        31.00015
C30  23866262.33014   -106916.06314     -3834.13414        28.70014
R10  20909724.09914     69792.32114      1810.10814        27.00014
C29  21425543.10513    -40908.30113     -1099.58913        21.60013
R16  21802374.43013   -178120.07713     -4708.17513        22.40013
> 2025 05 03 08 01 05.9999999  0 10                      
G18  22058148.66114     56398.58214      1594.94014        29.10014
G31  21193582.88814    -44847.16414     -1167.59514        29.30014
G28  21362966.82614   -111659.11014     -2880.11714        28.40014
G25  21847214.98814   -153951.20014     -3969.01614        26.00014
G29  20659372.21414    -93436.60414     -2405.74914        24.30014
C36  23675181.81315  31066564.06815     -4003.43715        31.00015
C30  23866750.99214   -110747.60114     -3839.49714        28.40014
R10  20909184.47314     71404.73214      1807.17614        26.80014
C29  21425520.62113    -42002.03313     -1099.00313        21.60013
R16  21802944.63613   -182432.35713     -4706.12813        21.90013
> 2025 05 03 08 01 06.9999999  0 10                      
G18  22057615.33114     57999.32914      1594.77414        29.20014
G31  21193583.78714    -46007.88914     -1166.86614        29.10014
G28  21363274.41314   -114532.98014     -2879.68814        28.50014
G25  21847736.92614   -157916.33014     -3971.78514        26.20014
G29  20659602.75514    -95841.75514     -2413.58714        24.10014
C36  23675713.34515  31062565.65515     -4007.70615        30.90015
C30  23867248.34814   -114582.44214     -3842.29814        28.10014
R10  20908617.56514     73163.58614      1820.06314        26.70014
C29  21425507.43013    -43095.77313     -1100.31413        21.60013
R16  21803573.90013   -187058.77013     -4695.76113        21.50013
> 2025 05 03 08 01 07.9999999  0 11                      
G18  22057098.18914     59600.36514      1595.26114        29.20014
G31  21193587.68514    -47169.57214     -1168.08014        29.00014
G28  21363608.98114   -117406.78214     -2879.68414        28.50014
G25  21848269.65814   -161881.74014     -3971.46514        26.60014
G29  20659835.09414    -98252.87714     -2420.02514        24.10014
C36  23676259.56715  31058566.93815     -4006.13615        30.80015
R10  20908050.65814     75019.33914      1817.88514        26.70014
C30  23867763.99114   -118414.26414     -3836.17514        27.80014
R09  19066637.24214     -1540.27114     -1253.39614        24.30014
C29  21425507.43013    -44191.32713     -1102.17513        21.60013
R16  21804204.96313   -191598.77913     -4677.55413        21.30013
> 2025 05 03 08 01 08.9999999  0 11                      
G18  22056550.76814     61199.98714      1593.06914        29.40014
G28  21363928.86014   -120283.18014     -2883.53814        28.50014
G31  21193586.48514    -48328.83914     -1163.90314        28.90014
G25  21848791.59614   -165846.13214     -3969.72514        26.60014
G29  20660059.93814   -100664.96814     -2418.41814        24.00014
C36  23676798.89315  31054565.17415     -4006.32615        30.70015
R10  20907484.05014     76775.90214      1815.51614        27.00014
C30  23868263.44514   -122245.48714     -3836.71214        27.50014
R09  19066609.06114     -2656.53014     -1257.32614        24.30014
C29  21425472.65413    -45289.67213     -1106.29513        21.50013
R16  21804778.16613   -195927.11013     -4680.01713        21.10013
> 2025 05 03 08 01 09.9999999  0 11                      
G18  22056007.54415     62797.56815      1590.69615        29.50015
G28  21364234.94814   -123158.47614     -2880.60714        28.80014
G31  21193574.49414    -49490.38514     -1168.54814        28.80014
G25  21849312.33614   -169808.71514     -3967.54014        26.80014
G29  20660273.39014   -103074.31514     -2413.83514        23.90014
C36  23677328.92615  31050564.68515     -4011.29715        30.60015
R10  20906903.35214     78607.97414      1813.05814        27.30014
C30  23868753.90614   -126073.59114     -3832.35214        27.20014
R09  19066621.65214     -3989.01114     -1259.95614        24.30014
C29  21425444.17413    -46389.97213     -1104.91813        21.50013
R16  21805499.16713   -201045.75413     -4688.10013        20.90013
> 2025 05 03 08 01 11.0000000  0 11                      
G18  22055497.89715     64395.33915      1592.00215        29.50015
G28  21364574.31314   -126034.40714     -2882.10914        29.30014
G31  21193579.89014    -50652.58314     -1168.38714        28.80014
G25  21849857.35914   -173771.96314     -3969.44014        26.90014
G29  20660524.31714   -105480.13414     -2409.91714        24.00014
C36  23677888.03915  31046559.01215     -4010.93515        30.50015
R10  20906348.13614     80463.69114      1816.70914        27.40014
C30  23869280.94114   -129902.83914     -3835.62714        27.00014
R09  19066642.63814     -5207.65214     -1258.08314        25.30014
C29  21425459.46313    -47491.15513     -1109.35713        21.80013
R16  21806203.38013   -205913.69913     -4701.69513        20.70013
> 2025 05 03 08 01 11.9999999  0 10                      
G28  21364872.90615   -128912.87015     -2885.64515        29.50015
G18  22054934.88615     65992.50615      1590.94415        29.50015
G31  21193540.01814    -51812.49714     -1164.68914        28.90014
G25  21850360.41014   -177734.02114     -3967.37914        26.90014
G29  20660733.87214   -107886.54914     -2412.62914        24.60014
R10  20905747.35214     82339.27214      1809.59114        27.40014
R09  19066639.34014     -6517.94014     -1257.19614        25.80014
C30  23869777.69714   -133732.86314     -3836.27414        26.70014
C29  21425414.79413    -48593.95513     -1106.95413        22.10013
R16  21806867.42013   -210789.24913     -4705.31713        20.80013
> 2025 05 03 08 01 12.9999999  0 10                      
G18  22054390.46315     67590.22015      1592.14115        29.90015
G28  21365188.28815   -131793.96415     -2888.25215        29.60015
G31  21193518.13314    -52978.12514     -1174.32814        29.00014
G25  21850872.45614   -181696.14814     -3968.00314        26.80014
G29  20660964.71214   -110291.67114     -2410.31914        24.80014
R10  20905153.46314     84240.75314      1812.07814        27.40014
R09  19066619.85414     -7680.04114     -1258.37214        25.80014
C30  23870275.65214   -137562.59714     -3835.37814        26.50014
C36  23678948.40514  31038543.24714     -4010.84414        27.80014
C29  21425391.71013    -49696.55213     -1110.22813        22.10013
> 2025 05 03 08 01 14.0000000  0 10                      
G18  22053877.81815     69187.96015      1591.88915        30.00015
G28  21365518.65915   -134677.42215     -2890.50115        29.60015
G31  21193532.22314    -54148.28914     -1178.29514        29.00014
G25  21851428.87114   -185654.64814     -3962.54714        26.70014
G29  20661216.83714   -112695.40614     -2408.90314        24.90014
R10  20904615.03614     86007.99414      1808.39714        27.50014
C30  23870800.28914   -141391.16614     -3833.79414        26.30014
R09  19066608.76114     -8726.77014     -1263.78314        25.80014
C36  23679511.11614  31034541.16914     -4006.79314        26.80014
C29  21425386.31413    -50802.89013     -1115.82113        22.00013
> 2025 05 03 08 01 15.0000000  0 10                      
G18  22053330.69715     70782.31715      1586.80115        30.00015
G28  21365830.74315   -137565.38815     -2896.08115        29.50015
G31  21193516.33414    -55323.32014     -1183.32814        29.00014
G25  21851944.51414   -189613.28014     -3964.55714        26.60014
G29  20661434.78614   -115099.76414     -2410.53014        25.10014
R10  20904052.92514     87740.14914      1809.09714        27.70014
C30  23871290.15014   -145211.50114     -3822.02514        26.20014
R09  19066607.86214     -9987.43214     -1264.14614        25.70014
C36  23680049.24314  31030542.64014     -4005.72014        26.20014
C29  21425355.73513    -51911.10213     -1110.81913        22.00013
> 2025 05 03 08 01 16.0000000  0 10                      
G28  21366168.90915   -140456.53415     -2898.65215        29.80015
G18  22052820.15015     72375.14915      1586.15015        29.90015
G31  21193525.02814    -56497.41214     -1179.53914        28.90014
G25  21852483.24114   -193575.68414     -3970.20614        26.50014
G29  20661682.41514   -117504.54514     -2410.90914        25.30014
R10  20903502.80614     89507.42914      1803.95814        27.70014
C30  23871793.80114   -149023.48914     -3813.67714        26.30014
R09  19066668.12014    -11476.50814     -1258.97914        25.60014
C36  23680591.56814  31026547.49814     -3997.37614        25.60014
C29  21425342.54413    -53013.28513     -1104.12213        21.90013
> 2025 05 03 08 01 17.0000000  0 10                      
G28  21366485.19015   -143349.18715     -2899.24915        29.80015
G18  22052280.52415     73969.35415      1589.04615        29.80015
G31  21193508.53914    -57677.37814     -1188.74714        28.80014
G25  21852994.08714   -197540.09114     -3971.25014        26.30014
G29  20661892.56914   -119912.33114     -2415.13214        25.40014
R10  20902917.91114     91360.85814      1807.45914        27.70014
C30  23872293.55514   -152833.75514     -3815.19314        26.30014
R09  19066658.82714    -12692.85714     -1255.36914        25.50014
C36  23681122.20014  31022561.55714     -3986.31414        24.90014
C29  21425316.76213    -54112.53213     -1105.92213        21.80013
> 2025 05 03 08 01 18.0000000  0 10                      
G28  21366786.78115   -146242.33415     -2899.25515        29.80015
G18  22051738.19915     75564.41215      1589.62115        29.70015
G31  21193497.44714    -58862.26414     -1193.20914        28.80014
G29  20662101.22514   -122314.79514     -2405.66314        26.00014
G25  21853531.31514   -201499.70714     -3963.08114        26.10014
R10  20902327.62014     93244.02714      1793.30014        27.60014
C30  23872785.21514   -156648.62614     -3822.98014        26.50014
R09  19066646.83514    -13894.68714     -1265.71314        25.40014
C36  23681642.94014  31018584.84714     -3976.91914        24.40014
C29  21425289.18113    -55213.75713     -1107.22913        21.70013
> 2025 05 03 08 01 19.0000000  0 10                      
G28  21367100.66415   -149134.30215     -2897.23915        30.00015
G18  22051206.66715     77161.01415      1591.50915        29.60015
G31  21193483.95614    -60044.41314     -1186.64214        28.80014
G29  20662321.87214   -124715.69414     -2405.97914        26.20014
G25  21854041.86214   -205454.59414     -3958.38214        26.00014
R10  20901751.11914     95052.45514      1794.56214        27.60014
C30  23873279.27314   -160468.24114     -3827.79414        26.50014
R09  19066662.42414    -15244.74414     -1260.67114        25.20014
C29  21425271.79313    -56311.63613     -1102.34813        22.00013
C36  23682159.78214  31014617.08314     -3971.45314        23.90014
> 2025 05 03 08 01 20.0000000  0 10                      
G28  21367438.53015   -152022.24815     -2891.85215        30.00015
G31  21193482.15814    -61227.00314     -1188.73014        28.80014
G29  20662571.30014   -127124.74714     -2419.04614        26.30014
G25  21854570.39614   -209401.57614     -3948.94614        25.80014
R10  20901221.38614     96709.90314      1791.91514        27.60014
C30  23873798.81314   -164290.38814     -3829.27414        26.40014
R09  19066687.00714    -16544.34014     -1263.80414        25.00014
R16  21812020.55214     -4774.83014     -4678.27214        26.40014
C29  21425272.39313    -57408.23613     -1102.16213        22.00013
C36  23682689.81513  31010654.00713     -3968.73413        23.40013
> 2025 05 03 08 01 21.0000000  0 10                      
G28  21367751.21415   -154910.76915     -2894.65115        30.00015
G31  21193473.46414    -62410.02114     -1189.07414        28.90014
G29  20662787.45014   -129534.61514     -2416.11914        26.50014
G25  21855067.45214   -213343.60114     -3945.38814        25.70014
R16  21812666.00614     -9488.38114     -4676.95414        29.40014
R10  20900662.57214     98426.04114      1790.14414        27.60014
C30  23874309.65914   -168118.44314     -3836.79914        26.20014
R09  19066697.20014    -17863.83614     -1277.49414        24.80014
C29  21425239.41513    -58503.48213     -1098.21013        22.00013
C36  23683205.15813  31006693.73513     -3963.82213        22.90013
> 2025 05 03 08 01 22.0000001  0 10                      
G28  21368101.67115   -157799.30415     -2894.40315        30.00015
G31  21193486.65414    -63595.62914     -1192.76614        29.20014
G29  20663035.97814   -131943.65514     -2414.48714        26.60014
G25  21855614.57314   -217284.29314     -3945.88514        25.50014
R16  21813336.34114    -14175.94314     -4678.48614        29.20014
R10  20900109.75514    100268.79014      1783.02314        27.60014
C30  23874837.89414   -171955.19214     -3846.90314        26.00014
R09  19066696.30114    -18964.81114     -1270.00614        24.50014
C29  21425244.21213    -59594.59513     -1094.62813        21.90013
C36  23683758.87513  31002738.52313     -3958.52213        22.50013
> 2025 05 03 08 01 23.0000000  0 9                      
G31  21193455.77614    -64780.25214     -1190.04814        29.20014
G29  20663249.73014   -134357.08414     -2421.54014        26.60014
G25  21856103.53414   -221224.21214     -3945.44814        25.40014
G18  22049064.35013     83573.87813      1610.72713        22.20013
R16  21813955.71314    -18813.78714     -4679.87114        28.90014
R10  20899535.05314    102005.55814      1775.83114        27.40014
R09  19066675.31514    -20181.11814     -1269.54314        24.40014
C29  21425210.93513    -60684.80513     -1097.00013        21.90013
C36  23684263.72513  30998786.06713     -3957.82313        22.20013
> 2025 05 03 08 01 24.0000000  0 10                      
G31  21193451.87914    -65963.34814     -1188.17614        29.10014
G29  20663470.67714   -136768.00814     -2415.51414        26.60014
G25  21856617.37914   -225165.63214     -3948.01214        25.30014
G28  21368709.95014   -163579.78114     -2897.11314        27.70014
G18  22048529.22113     85189.84913      1610.10713        21.30013
R16  21814573.58514    -23380.58614     -4677.20814        28.50014
R10  20898930.37214    103965.00614      1788.97214        27.20014
R09  19066660.32614    -21366.90314     -1261.39514        24.20014
C29  21425179.75713    -61780.04713     -1103.87513        21.80013
C36  23684797.05613  30994832.15513     -3962.26413        21.70013
> 2025 05 03 08 01 25.0000001  0 10                      
G29  20663727.89914   -139178.79014     -2416.57314        26.60014
G25  21857161.50214   -229107.83214     -3948.45014        25.10014
G31  21193464.17014    -67144.19714     -1185.58814        28.50014
G28  21369051.71314   -166468.23314     -2894.31314        26.50014
G18  22048018.67413     86806.83513      1611.62913        20.80013
R16  21815228.93114    -27987.13214     -4669.86014        28.00014
R10  20898371.55814    105840.55414      1791.73814        27.00014
R09  19066694.80214    -22658.13014     -1269.56214        24.10014
C29  21425186.05213    -62879.96513     -1107.50113        21.80013
C36  23685342.37913  30990877.03013     -3961.58513        21.40013
> 2025 05 03 08 01 26.0000000  0 10                      
G29  20663929.35914   -141587.99814     -2414.33714        26.50014
G25  21857663.35514   -233055.15514     -3955.79914        25.00014
G31  21193456.37514    -68324.08414     -1185.32414        27.40014
G28  21369343.71114   -169354.30014     -2890.79114        25.50014
G18  22047463.15913     88420.61613      1606.25913        20.50013
R16  21815821.62114    -32482.81214     -4673.81414        27.60014
R10  20897792.65914    107600.20314      1784.28414        26.80014
R09  19066719.68514    -24118.17114     -1265.47614        24.00014
C29  21425147.97913    -63984.68513     -1113.44113        21.90013
C36  23685852.32613  30986924.56413     -3956.90713        21.00013
> 2025 05 03 08 01 27.0000001  0 10                      
G29  20664190.47914   -144002.61014     -2423.15814        26.40014
G25  21858217.67114   -237005.35114     -3957.47514        25.30014
G28  21369686.07414   -172231.81814     -2879.08614        24.80014
G31  21193480.95814    -69505.13414     -1187.47614        26.20014
G18  22046941.52013     90027.87813      1598.15613        20.30013
R16  21816513.84214    -37285.78914     -4675.17414        27.20014
R10  20897278.51514    109237.78614      1788.98014        26.60014
R09  19066707.99314    -25161.84514     -1267.58914        23.90014
C29  21425143.48213    -65091.92213     -1113.73913        21.90013
C36  23686399.74713  30982975.12013     -3954.05613        20.70013
> 2025 05 03 08 01 27.9999998  0 10                      
G29  20664313.99314   -146420.39714     -2425.23614        26.30014
G25  21858637.08014   -240957.27314     -3958.64414        25.30014
G28  21369907.32114   -175107.27714     -2880.29014        24.40014
G31  21193375.43114    -70690.27214     -1193.04314        25.30014
G18  22046302.06313     91623.87913      1584.50513        20.20013
R16  21817072.65514    -42018.44814     -4680.88614        26.80014
R10  20896592.59014    111149.94414      1796.76314        26.30014
R09  19066635.44314    -26520.30414     -1267.65114        23.80014
C29  21425031.95913    -66202.32513     -1115.63813        21.90013
C36  23686824.25313  30979029.08313     -3950.19813        20.40013
> 2025 05 03 08 01 29.0000001  0 10                      
G29  20664629.67514   -148839.36914     -2425.48114        26.20014
G25  21859256.75114   -244912.17314     -3962.30414        25.30014
G31  21193457.57514    -71878.48314     -1195.66514        24.70014
G28  21370335.12514   -177988.30914     -2889.73514        24.10014
G18  22045861.36813     93217.40713      1586.37413        20.20013
R16  21817830.83014    -46755.65614     -4682.78414        26.50014
R10  20896128.51114    112937.05314      1795.69314        26.10014
R09  19066716.08714    -27639.57714     -1261.26814        23.60014
C29  21425117.10013    -67311.19713     -1112.95213        22.00013
C36  23687449.02013  30975084.12413     -3950.28813        20.10013
> 2025 05 03 08 01 29.9999998  0 10                      
G29  20664767.27914   -151258.53614     -2425.10614        26.10014
G25  21859679.75914   -248874.95114     -3972.55914        25.30014
G31  21193362.54014    -73064.83514     -1191.26714        24.40014
G28  21370545.57914   -180874.54814     -2894.68514        23.90014
G18  22045229.40513     94804.26513      1577.67613        20.20013
R16  21818386.64514    -51472.26214     -4694.43614        26.30014
R10  20895481.85914    114640.98814      1792.01414        25.90014
R09  19066626.44913    -28907.11613     -1258.05513        23.40013
C29  21424996.88313    -68419.16313     -1114.74913        22.00013
C36  23687884.91913  30971139.50413     -3951.97413        19.70013
> 2025 05 03 08 01 30.9999999  0 10                      
G29  20665020.90414   -153676.54914     -2423.29814        26.00014
G25  21860224.78114   -252845.95814     -3980.98314        25.20014
G31  21193386.82414    -74251.97614     -1193.39714        24.10014
G28  21370886.44314   -183770.01214     -2905.93714        23.80014
G18  22044718.55913     96388.71613      1577.38313        20.20013
R16  21819030.59914    -56018.42614     -4680.37914        26.20014
R10  20894922.74614    116518.05914      1786.93414        25.70014
R09  19066706.49413    -30440.54913     -1261.19713        23.20013
C29  21424998.68213    -69530.74413     -1120.79313        22.00013
C36  23688435.03813  30967192.08613     -3955.06813        19.40013
> 2025 05 03 08 01 32.0000001  0 10                      
G29  20665321.89514   -156099.20014     -2430.88514        25.90014
G25  21860829.16314   -256823.59214     -3986.86214        25.10014
G31  21193457.27514    -75439.16514     -1193.13014        23.90014
G28  21371282.76914   -186666.00814     -2902.17814        23.60014
G18  22044272.76813     97969.77913      1573.44913        20.20013
R16  21819792.37214    -60936.01314     -4687.11114        26.20014
R10  20894421.79314    118341.77814      1780.98314        25.50014
R09  19066764.65313    -31598.79113     -1265.58013        23.10013
C29  21425058.34113    -70645.65713     -1118.65813        22.00013
C36  23689026.82813  30963243.75013     -3955.85013        19.20013
> 2025 05 03 08 01 32.9999998  0 10                      
G29  20665459.80014   -158521.84314     -2428.48314        25.70014
G25  21861257.56614   -260797.37714     -3977.70214        25.00014
G31  21193359.84214    -76625.05014     -1191.07614        23.70014
G28  21371507.61313   -189559.83513     -2898.58513        23.40013
G18  22043647.70013     99549.90713      1573.81413        20.20013
R16  21820312.51214    -65461.54214     -4691.35014        26.20014
R10  20893752.95614    120164.70014      1786.16914        25.40014
C29  21424941.72113    -71751.94913     -1109.15713        22.60013
R09  19066710.69113    -33057.34713     -1270.37713        22.90013
C36  23689458.82913  30959292.04613     -3959.30113        19.00013
> 2025 05 03 08 01 33.9999999  0 10                      
G29  20665712.22514   -160944.44014     -2428.43514        25.50014
G25  21861801.98914   -264761.66414     -3965.39814        24.90014
G31  21193388.62214    -77815.18314     -1198.12014        23.50014
G28  21371841.28213   -192452.62913     -2898.13813        23.20013
G18  22043140.15213    101135.20113      1582.01313        20.20013
R16  21820981.34914    -70139.93414     -4701.03014        26.10014
R10  20893187.54714    122074.56814      1797.36214        25.30014
C29  21424947.41813    -72852.94213     -1105.28313        22.90013
R09  19066734.07513    -34287.45313     -1284.22813        22.70013
C36  23690009.54813  30955338.43513     -3961.47013        18.70013
> 2025 05 03 08 01 34.9999999  0 10                      
G29  20665935.27114   -163362.07814     -2421.02014        25.40014
G25  21862310.73714   -268722.22614     -3964.55914        24.90014
G31  21193369.73513    -79007.29013     -1198.95713        23.30013
G28  21372159.96213   -195342.79513     -2894.71413        23.10013
G18  22042596.02813    102727.78513      1590.36413        20.20013
R16  21821619.00814    -74814.50414     -4707.47314        26.00014
R10  20892657.81414    123632.06214      1784.88214        25.20014
C29  21424920.13614    -73955.38214     -1111.49614        23.50014
R09  19066726.28013    -35512.96613     -1284.23713        22.60013
C36  23690548.57413  30951383.43313     -3961.18613        18.50013
> 2025 05 03 08 01 35.9999999  0 10                      
G29  20666171.80714   -165780.99014     -2425.46614        25.60014
G25  21862834.47514   -272678.31514     -3959.76914        24.80014
G31  21193373.93313    -80199.87313     -1198.73913        23.20013
G28  21372506.82113   -198234.39313     -2898.22913        23.00013
G18  22042064.79613    104327.76113      1597.75213        20.10013
R16  21822285.14614    -79539.48014     -4696.56714        25.90014
R10  20892090.90614    125490.10314      1782.00914        25.20014
C29  21424907.54514    -75059.66614     -1109.54914        23.80014
R09  19066734.67413    -36725.45413     -1272.22613        22.50013
C36  23691088.20113  30947430.51613     -3956.66113        18.20013
> 2025 05 03 08 01 36.9999999  0 9                      
G29  20666398.75014   -168199.24614     -2423.77214        25.60014
G25  21863350.71714   -276629.85214     -3955.10314        24.60014
G31  21193367.93713    -81393.39013     -1199.82713        23.10013
G28  21372816.20713   -201125.31613     -2896.42913        22.80013
G18  22041524.87013    105932.65213      1601.50413        20.10013
R16  21822941.99214    -84316.46814     -4694.25714        25.70014
R10  20891523.39914    127250.48014      1784.40114        25.10014
C29  21424883.26214    -76163.12114     -1111.69814        24.10014
R09  19066754.46113    -38098.43513     -1275.87213        22.50013
> 2025 05 03 08 01 37.9999999  0 10                      
G29  20666632.58814   -170614.80114     -2420.06414        25.50014
G25  21863873.25614   -280578.37714     -3952.87814        24.50014
G28  21373139.68313   -204017.26213     -2898.31913        22.70013
G31  21193354.44613    -82587.96213     -1200.96213        23.00013
G18  22040981.94613    107539.61713      1602.13613        20.00013
C36  23692269.68324                     -3991.54924        24.80024
R16  21823569.45714    -88934.47514     -4684.40414        25.50014
R10  20890934.30714    129126.78814      1782.83714        25.00014
C29  21424864.97514    -77271.12014     -1116.97114        24.40014
R09  19066756.25913    -39374.37813     -1282.66913        22.40013
> 2025 05 03 08 01 38.9999999  0 10                      
G29  20666860.73014   -173031.05114     -2422.51514        25.50014
G25  21864399.39114   -284522.02714     -3947.12714        24.30014
G28  21373472.45313   -206910.81213     -2900.26813        22.60013
G31  21193351.74813    -83784.64913     -1203.66313        22.80013
G18  22040460.00713    109150.86213      1607.46713        20.00013
R10  20890401.57614    130799.48914      1775.96114        24.90014
R16  21824234.99714    -93658.68714     -4673.54114        25.30014
C29  21424861.07714    -78383.13714     -1119.13814        24.40014
C36  23692825.19814     -3986.73414     -3992.57714        24.70014
R09  19066740.97013    -40460.79913     -1273.78013        22.40013
> 2025 05 03 08 01 39.9999999  0 10                      
G29  20667098.76514   -175449.51614     -2425.41514        25.40014
G25  21864916.53314   -288465.09314     -3948.61514        24.10014
G28  21373797.72813   -209806.33013     -2902.34413        22.60013
G31  21193343.05413    -84978.90613     -1198.88513        22.60013
G18  22039920.68013    110761.11913      1603.91613        19.90013
R10  20889877.83914    132328.00014      1775.10214        24.90014
R16  21824899.93614    -98476.95014     -4677.96214        25.20014
C29  21424833.79614    -79495.55614     -1116.74514        24.40014
C36  23693357.33014     -7971.42114     -3989.45214        24.50014
R09  19066768.85113    -41875.80313     -1282.43813        22.30013
> 2025 05 03 08 01 40.9999999  0 10                      
G29  20667321.21114   -177869.87514     -2427.16714        25.30014
G25  21865443.56814   -292409.95314     -3951.61714        23.90014
G31  21193318.77113    -86169.86913     -1195.17813        22.50013
G28  21374103.51613   -212701.45913     -2900.79513        22.50013
G18  22039385.55113    112366.74713      1597.44813        19.80013
R10  20889294.74214    134172.27614      1775.43814        24.80014
C36  23693883.16614    -11956.03814     -3990.39014        24.40014
R16  21825514.51114   -103026.93614     -4682.18314        25.00014
C29  21424804.11714    -80606.35014     -1114.30514        24.30014
R09  19066743.96813    -43008.86713     -1283.08913        22.30013
> 2025 05 03 08 01 42.0000000  0 10                      
G29  20667583.23014   -180292.93214     -2430.26814        25.40014
G25  21865985.59314   -296359.56814     -3957.85414        23.80014
G31  21193347.85113    -87362.36813     -1199.13013        22.40013
G28  21374451.87513   -215596.76213     -2901.25313        22.40013
G18  22038881.30013    113964.23413      1587.55313        19.80013
C36  23694433.28514    -15941.33914     -3991.44914        24.60014
R10  20888699.65414    136240.79214      1777.06714        24.80014
R16  21826163.86114   -107601.38014     -4692.74514        24.90014
C29  21424820.30614    -81714.06314     -1114.06414        24.30014
R09  19066776.94513    -44290.16213     -1285.32713        22.20013
> 2025 05 03 08 01 42.9999999  0 10                      
G29  20667795.78314   -182718.02314     -2432.02414        25.50014
G25  21866498.53814   -300312.76614     -3960.90414        23.80014
G31  21193330.76213    -88561.11213     -1207.78413        22.30013
G28  21374748.07013   -218491.05113     -2899.69713        22.20013
G18  22038325.78513    115555.17213      1581.74413        19.80013
R10  20888135.74514    137920.35814      1782.08714        24.80014
R16  21826818.00814   -112424.19314     -4700.33214        24.80014
C29  21424785.23014    -82822.83814     -1116.76714        24.20014
C36  23694926.44414    -19925.78214     -3989.87514        24.50014
R09  19066774.84613    -45608.08813     -1286.14013        22.20013
> 2025 05 03 08 01 44.0000000  0 10                      
G29  20668044.91014   -185138.50314     -2424.01714        25.60014
G25  21867033.06814   -304269.14514     -3963.81114        23.90014
G28  21375092.83113   -221384.61013     -2899.03613        22.10013
G31  21193349.94913    -89762.45413     -1208.48413        22.10013
G18  22037815.23813    117141.48913      1578.16013        20.20013
R10  20887578.43014    139787.51514      1779.16814        24.90014
R16  21827478.45114   -117059.01614     -4696.13114        24.60014
C29  21424794.52314    -83936.34414     -1121.32914        24.20014
C36  23695494.55014    -23911.51014     -3992.16014        24.40014
R09  19066786.53813    -46776.29413     -1268.24213        22.10013
> 2025 05 03 08 01 45.0000000  0 10                      
G29  20668273.35214   -187558.59214     -2425.75614        25.70014
G25  21867551.10914   -308230.11014     -3969.11914        23.90014
G28  21375405.81413   -224282.94713     -2906.58813        22.40013
G31  21193349.05013    -90965.74013     -1210.12013        22.00013
G18  22037264.81913    118725.42213      1576.87613        20.30013
R10  20887011.22314    141547.89314      1787.59414        25.20014
R16  21828065.44514   -121460.72114     -4684.03014        24.80014
C29  21424769.04114    -85052.35014     -1121.38614        24.10014
C36  23696032.97814    -27898.22814     -3993.01914        24.20014
R09  19066828.20913    -48264.64513     -1260.03613        22.00013
> 2025 05 03 08 01 46.0000000  0 10                      
G29  20668492.80014   -189979.98114     -2427.89914        26.00014
G25  21868066.45314   -312193.59314     -3970.60114        24.30014
G28  21375723.59413   -227185.85713     -2911.05713        23.20013
G31  21193330.46313    -92166.95113     -1206.03713        22.00013
G18  22036719.79613    120307.15113      1574.76313        20.30013
R10  20886426.02814    143403.60914      1777.75114        25.20014
R16  21828733.08314   -126293.50614     -4687.05414        25.00014
C29  21424740.56114    -86166.01214     -1117.57614        24.00014
C36  23696562.41114    -31893.06114     -4004.69814        24.00014
R09  19066773.94713    -49240.31513     -1260.88113        21.90013
> 2025 05 03 08 01 47.0000000  0 10                      
G31  21193349.05015    -93366.40615     -1204.49315        33.50015
G29  20668738.33014   -192401.65514     -2427.73414        26.30014
G25  21868596.18614   -316152.34314     -3962.30014        25.10014
G28  21376052.76713   -230093.39713     -2915.77213        23.20013
G18  22036197.25813    121887.19913      1573.28913        20.20013
R10  20885863.91714    145233.42814      1781.71414        25.20014
R16  21829418.40814   -131122.43314     -4692.81214        25.00014
C29  21424733.96514    -87276.85814     -1119.37214        24.00014
C36  23697119.72514    -35897.58314     -4015.22714        23.80014
R09  19066866.28313    -50901.31013     -1273.26313        21.80013
> 2025 05 03 08 01 48.0000000  0 10                      
G31  21193347.85115    -94567.85215     -1208.28615        32.90015
G29  20668960.47614   -194825.01314     -2430.04214        26.30014
G25  21869113.02814   -320106.95714     -3958.38814        25.40014
G28  21376358.25513   -233000.18413     -2912.25213        23.20013
G18  22035660.03013    123465.81813      1572.05813        20.20013
R16  21830029.38514   -135652.54314     -4689.67914        25.00014
R10  20885313.19914    146904.56714      1772.88314        25.20014
C29  21424714.77914    -88389.92614     -1119.69414        23.90014
C36  23697653.35614    -39906.93814     -4017.56014        23.50014
R09  19066869.58113    -52185.66213     -1284.06313        21.70013
> 2025 05 03 08 01 49.0000000  0 9                      
G29  20669188.61814   -197248.25114     -2429.04014        26.30014
G25  21869633.46814   -324061.58614     -3960.49614        25.40014
G28  21376678.43313   -235908.33013     -2914.68813        23.10013
G18  22035127.59913    125043.58113      1571.47013        20.00013
R16  21830661.34814   -140294.24614     -4676.17414        25.70014
R10  20884765.77814    148558.92514      1770.88214        25.10014
C29  21424685.99914    -89501.94614     -1117.43314        23.90014
C36  23698188.48513    -43919.87213     -4020.53113        23.30013
R09  19066876.17613    -53486.06013     -1293.15713        21.60013
> 2025 05 03 08 01 50.0000000  0 9                      
G29  20669419.15914   -199673.63414     -2432.31714        26.20014
G25  21870151.20914   -328015.42414     -3959.30314        25.30014
G28  21376988.11913   -238822.26513     -2922.68913        23.00013
G18  22034594.56813    126623.38413      1574.95813        19.90013
R16  21831308.00014   -145015.43914     -4678.96814        25.80014
R10  20884206.96414    150275.06414      1768.55714        25.10014
C29  21424659.91714    -90613.71714     -1116.99114        24.00014
C36  23698711.02413    -47928.16313     -4011.77513        23.00013
R09  19066903.15813    -54895.71713     -1304.70213        21.50013
> 2025 05 03 08 01 51.0000000  0 9                      
G29  20669654.49614   -202099.97114     -2432.73014        26.10014
G25  21870677.64514   -331968.66314     -3958.85514        25.20014
G28  21377330.48213   -241738.73113     -2923.64813        22.90013
G18  22034071.13013    128211.20513      1585.91213        19.70013
R16  21831968.14314   -149710.60614     -4667.50414        25.90014
R10  20883666.13914    151992.00114      1764.42514        25.00014
C29  21424655.42014    -91724.69014     -1117.19114        24.00014
C36  23699259.94413    -51922.49413     -3993.21313        22.80013
R09  19066909.45313    -56098.27613     -1305.01413        21.40013
> 2025 05 03 08 01 52.0000000  0 9                      
G29  20669879.04114   -204528.69214     -2435.75614        26.00014
G25  21871205.57914   -335921.77714     -3958.89414        25.10014
G28  21377654.85713   -244659.59213     -2928.90213        22.70013
G18  22033527.90613    129808.27113      1595.84213        19.60013
R16  21832599.80614   -154350.78114     -4662.53714        25.90014
R10  20883063.55614    153940.00414      1760.12914        24.80014
C29  21424643.42814    -92836.25114     -1115.65814        23.90014
C36  23699790.57613    -55903.03413     -3979.43313        22.70013
R09  19066881.27313    -57213.76913     -1313.98613        21.30013
> 2025 05 03 08 01 53.0000001  0 9                      
G29  20670132.06514   -206959.80814     -2438.17514        26.00014
G25  21871743.70714   -339868.45914     -3949.32614        25.00014
G28  21378010.41113   -247583.43613     -2931.19613        22.60013
G18  22033026.65313    131414.11113      1604.36213        19.70013
R16  21833267.74314   -159026.11514     -4668.40114        25.80014
R10  20882541.91714    155617.24114      1749.95214        24.60014
C29  21424650.02314    -93946.24414     -1117.88414        23.80014
C36  23700337.39813    -59873.06913     -3970.59113        22.50013
R09  19066947.22713    -58671.55613     -1309.88713        21.10013
> 2025 05 03 08 01 53.9999998  0 9                      
G29  20670267.27214   -209387.38214     -2431.66414        26.40014
G25  21872165.81514   -343815.12214     -3952.51314        24.90014
G28  21378243.05013   -250509.27913     -2932.70313        22.40013
G18  22032388.99413    133025.97613      1609.01313        19.80013
R16  21833785.78514   -163539.41214     -4673.34414        25.70014
R10  20881933.33814    157116.77114      1741.41014        24.40014
C29  21424538.50114    -95055.58814     -1115.93814        23.70014
C36  23700767.60013    -63836.00313     -3965.19013        22.30013
R09  19066908.25413    -60208.80013     -1290.66613        21.00013
> 2025 05 03 08 01 54.9999999  0 9                      
G29  20670522.09514   -211814.11514     -2432.17414        26.80014
G25  21872709.63814   -347761.07314     -3951.45614        24.80014
G31  21193320.27013     -6040.55313     -1210.21713        23.40013
G28  21378585.71313   -253438.84613     -2937.29213        22.20013
G18  22031861.66013    134639.65513      1608.72213        19.90013
R16  21834450.42514   -168195.63914     -4668.24614        25.70014
R10  20881347.84414    159134.94614      1753.82514        24.20014
C29  21424529.20714    -96164.92614     -1116.18614        23.70014
C36  23701328.51213    -67802.19113     -3973.62213        22.20013
> 2025 05 03 08 01 55.9999998  0 9                      
G29  20670729.55214   -214243.30614     -2436.33714        27.10014
G25  21873206.09514   -351704.41514     -3947.95314        24.70014
G31  21193299.58413     -7245.08513     -1210.43113        23.00013
G28  21378891.50113   -256375.21713     -2945.68813        22.00013
G18  22031304.94513    136254.34613      1609.27613        19.90013
R16  21835107.27014   -173034.50014     -4671.70714        25.60014
R10  20880770.44314    160886.20814      1755.86814        24.00014
C29  21424499.82714    -97278.01814     -1120.23814        23.60014
C36  23701838.45913    -71773.88313     -3980.30513        22.20013
> 2025 05 03 08 01 56.9999999  0 9                      
G29  20670986.47414   -216671.93114     -2434.18414        27.50014
G25  21873743.32314   -355646.56914     -3947.40114        24.60014
G31  21193324.76713     -8452.04713     -1214.02213        22.70013
G28  21379240.16013   -259314.54113     -2946.64413        21.80013
G18  22030784.50513    137872.31513      1613.76313        19.90013
R16  21835742.53014   -177533.27614     -4678.68914        25.40014
C29  21424511.51914    -98392.21614     -1120.82714        23.50014
C36  23702395.47313    -75748.11313     -3981.28813        22.50013
R10  20880237.41214    162623.70614      1757.09214        23.80014
> 2025 05 03 08 01 57.9999999  0 9                      
G29  20671211.61814   -219102.69814     -2437.69914        27.70014
G25  21874259.56514   -359589.73714     -3949.53614        24.80014
G31  21193319.37013     -9663.59513     -1219.70313        22.40013
G28  21379551.34513   -262237.84513     -2921.15413        21.60013
G18  22030233.78713    139489.90113      1611.52913        19.90013
R16  21836393.67914   -182278.16314     -4670.39914        25.30014
C36  23702921.90913    -79725.56913     -3984.87613        23.30013
C29  21424484.53813    -99507.07513     -1121.39113        23.40013
R10  20879658.21314    164448.15314      1765.09814        23.60014
> 2025 05 03 08 01 58.9999999  0 9                      
G29  20671437.06214   -221529.10414     -2430.08714        27.80014
G25  21874774.30914   -363535.04414     -3952.23614        24.80014
G31  21193309.77713    -10883.65413     -1230.17613        22.60013
G28  21379858.03213   -265147.89313     -2909.28113        21.50013
G18  22029687.56513    141103.60713      1605.90313        19.90013
R16  21837036.43414   -186978.72014     -4677.84814        25.20014
C36  23703451.34214    -83703.78114     -3984.39714        23.60014
C29  21424464.45213   -100622.81813     -1120.85113        23.30013
R10  20879075.71713    166289.37913      1774.01413        23.40013
> 2025 05 03 08 01 59.9999999  0 9                      
G29  20671677.19614   -223957.73014     -2435.65314        27.80014
G25  21875309.13914   -367487.89314     -3962.53614        25.10014
G31  21193332.26113    -12108.73013     -1233.50213        22.80013
G28  21380196.49813   -268051.65513     -2906.53513        21.80013
G18  22029160.53013    142710.02813      1596.85813        20.10013
R16  21837687.58314   -191624.97314     -4683.24214        25.20014
C36  23703993.36714    -87684.35514     -3987.61714        23.60014
R10  20878516.30413    168105.46913      1758.02613        23.30013
C29  21424464.45213   -101738.29413     -1121.70213        23.20013
> 2025 05 03 08 02 00.9999998  0 9                      
G29  20671906.23714   -226383.64514     -2430.40114        27.80014
G25  21875833.47614   -371445.41014     -3965.69314        25.20014
G31  21193320.56913    -13334.84613     -1232.48113        23.00013
G28  21380506.18413   -270951.41113     -2903.59613        22.00013
G18  22028619.10413    144307.95113      1587.82913        20.30013
R16  21838372.30914   -196549.47814     -4691.51814        25.40014
C29  21424444.06613   -102857.94413     -1129.96113        23.10013
C36  23704524.89914    -91669.93214     -3993.86614        23.50014
R10  20877917.01913    170035.17013      1766.71013        23.20013
> 2025 05 03 08 02 01.9999999  0 10                      
G31  21193300.78314    -14551.56514     -1217.88214        25.70014
G29  20672137.67714   -228815.23814     -2440.29414        27.70014
G25  21876341.62414   -375404.34414     -3965.50214        25.70014
G28  21380815.27013   -273849.82213     -2903.60013        22.10013
G18  22028087.57213    145895.07513      1575.86013        20.30013
R16  21839039.04814   -201377.67814     -4692.08714        25.40014
R09  19066902.55823                     -1290.19823        22.80023
C36  23705062.12713    -95658.69313     -3996.16013        23.40013
C29  21424422.48113   -103982.63813     -1130.18113        23.10013
R10  20877374.09513    171666.64913      1769.67413        23.10013
> 2025 05 03 08 02 02.9999998  0 10                      
G31  21193292.98915    -15763.51415     -1215.42715        30.10015
G29  20672362.82114   -231248.52614     -2439.99614        27.70014
G25  21876851.57114   -379363.47514     -3965.09014        26.20014
G28  21381130.35113   -276751.75513     -2909.55413        22.30013
G18  22027548.84513    147473.10513      1567.61813        20.50013
R16  21839655.42114   -205935.30614     -4706.68914        25.30014
C36  23705591.86013    -99652.08913     -4001.52013        23.30013
C29  21424397.59813   -105107.07513     -1129.55313        23.00013
R10  20876807.18713    173423.97313      1766.63213        23.00013
R09  19066933.13713     -1428.75013     -1284.00113        22.60013
> 2025 05 03 08 02 04.0000000  0 10                      
G31  21193316.37215    -16971.45115     -1211.79415        30.00015
G29  20672621.54214   -233680.26314     -2436.82214        27.60014
G25  21877397.79314   -383327.70914     -3972.64514        26.40014
G28  21381480.20913   -279662.15913     -2920.50213        22.30013
G18  22027028.70513    149050.13913      1570.67113        20.70013
R16  21840286.48414   -210414.20914     -4698.39614        25.30014
C36  23706149.77413   -103648.76613     -4004.12513        23.40013
C29  21424414.38713   -106232.40013     -1133.91313        23.00013
R10  20876256.46813    175254.52113      1765.22613        22.90013
R09  19067007.18613     -2931.61713     -1273.21813        22.10013
> 2025 05 03 08 02 04.9999999  0 10                      
G31  21193287.29315    -18178.07015     -1211.87615        29.70015
G25  21877902.34314   -387291.46214     -3969.42814        26.70014
G29  20672830.19714   -236111.89514     -2437.49714        27.40014
G28  21381794.09213   -282579.30613     -2926.43313        22.30013
G18  22026477.68713    150622.56913      1564.21013        20.70013
R16  21840916.04814   -215105.55714     -4702.15714        25.50014
C36  23706667.81514   -107648.99114     -4007.86014        23.70014
C29  21424366.72013   -107360.42613     -1132.49813        23.00013
R10  20875662.87913    177095.02313      1771.64113        22.80013
R09  19066972.11013     -4070.76213     -1284.24613        21.50013
> 2025 05 03 08 02 06.0000000  0 10                      
G31  21193319.07114    -19384.79814     -1212.62714        29.30014
G25  21878450.36414   -391259.06314     -3975.36814        26.80014
G29  20673089.81814   -238542.84614     -2436.45414        27.20014
G28  21382141.85113   -285498.88913     -2926.64513        22.20013
G18  22025966.84013    152190.21913      1559.41413        20.70013
R16  21841608.86914   -219913.11914     -4707.83114        25.50014
C36  23707228.72714   -111654.04814     -4013.26314        23.70014
C29  21424375.41413   -108485.45913     -1127.70213        23.00013
R10  20875131.34713    178821.84213      1777.97213        22.70013
R09  19067028.77113     -5481.18213     -1295.11113        21.00013
> 2025 05 03 08 02 07.0000000  0 10                      
G25  21878972.60214   -395232.83914     -3982.72214        27.30014
G31  21193313.67414    -20591.33114     -1212.29814        28.80014
G29  20673324.25514   -240972.64014     -2435.07614        27.10014
G28  21382446.74013   -288418.97513     -2926.19713        22.10013
G18  22025436.80713    153755.00413      1557.48813        20.90013
R16  21842241.73114   -224560.17414     -4716.81814        25.50014
C36  23707760.25914   -115662.88414     -4016.53114        23.70014
C29  21424361.62313   -109608.59613     -1127.88113        22.90013
R10  20874539.25713    180714.17213      1784.75813        22.70013
R09  19066977.80613     -6475.19413     -1302.21813        20.50013
> 2025 05 03 08 02 08.0000000  0 10                      
G25  21879507.43214   -399211.47514     -3986.98314        27.70014
G31  21193321.16914    -21794.86714     -1207.95414        28.30014
G29  20673570.98514   -243404.76014     -2439.20014        26.90014
G28  21382770.21613   -291343.52613     -2932.69913        22.10013
G18  22024922.66313    155319.77113      1558.83913        20.90013
R16  21842881.78814   -229149.10314     -4722.72714        25.40014
C36  23708326.26714   -119672.56614     -4015.96714        23.60014
R10  20874020.31613    182314.41713      1791.68313        23.10013
C29  21424354.12813   -110731.80813     -1129.82013        23.10013
R09  19066985.90013     -7686.15713     -1308.78013        20.40013
> 2025 05 03 08 02 09.0000000  0 10                      
G25  21880033.26814   -403193.47614     -3989.52514        27.70014
G31  21193312.47514    -23003.07714     -1216.39314        27.90014
G29  20673794.63014   -245838.25114     -2440.01914        26.60014
G28  21383089.19513   -294268.46813     -2930.98113        22.00013
G18  22024389.63213    156888.88013      1565.43213        20.80013
R16  21843548.22614   -233974.24314     -4722.66614        25.40014
R10  20873436.32114    184164.03214      1787.37314        23.70014
C29  21424329.24514   -111853.41614     -1128.04414        23.60014
C36  23708862.89614   -123687.00714     -4022.61014        23.60014
R09  19067005.98613     -9059.89913     -1305.78513        20.90013
> 2025 05 03 08 02 10.0000000  0 10                      
G25  21880549.21114   -407175.39814     -3987.74214        27.70014
G31  21193303.78114    -24213.25614     -1217.02514        27.50014
G29  20674015.87714   -248271.74414     -2439.35614        26.40014
G28  21383396.78213   -297187.78413     -2922.36413        22.00013
G18  22023848.20713    158463.15013      1570.98813        20.90013
R16  21844194.57914   -238693.14414     -4721.58414        25.40014
C29  21424303.16414   -112977.58814     -1129.52914        23.90014
R10  20872880.50614    185862.63014      1795.12014        23.70014
C36  23709401.02314   -127702.06214     -4021.16714        23.60014
R09  19067008.68513    -10338.89813     -1302.36113        21.30013
> 2025 05 03 08 02 11.0000000  0 10                      
G25  21881068.45214   -411156.46914     -3986.50614        28.00014
G31  21193306.17914    -25422.74514     -1215.00614        27.10014
G29  20674236.82414   -250706.27014     -2440.90314        26.20014
G28  21383715.16213   -300103.05813     -2919.11313        21.90013
G18  22023301.98513    160041.53413      1574.57513        21.00013
R16  21844849.02614   -243456.37514     -4726.24914        25.30014
C29  21424282.17814   -114101.78414     -1128.99114        23.90014
R10  20872311.79914    187630.63414      1791.75214        23.70014
C36  23709929.55714   -131720.78514     -4026.36414        23.50014
R09  19067041.36213    -11780.64213     -1301.10713        21.50013
> 2025 05 03 08 02 12.0000000  0 10                      
G25  21881606.87914   -415142.38814     -3994.25914        28.00014
G29  20674481.45414   -253141.22914     -2441.09214        26.00014
G31  21193316.07314    -26627.90014     -1208.90514        26.80014
G28  21384055.72613   -303012.35913     -2912.23213        21.90013
G18  22022779.74713    161622.31013      1576.05413        21.00013
R16  21845519.06214   -248204.28314     -4728.30714        25.30014
C29  21424281.27914   -115226.04314     -1129.65514        24.00014
R10  20871746.99014    189474.94514      1787.44314        23.70014
C36  23710480.57614   -135745.05914     -4032.91214        23.50014
R09  19067034.76713    -12912.90513     -1301.44913        21.80013
> 2025 05 03 08 02 13.0000000  0 10                      
G25  21882125.22014   -419126.96814     -3989.75214        28.00014
G29  20674706.59814   -255577.13714     -2442.22614        26.00014
G31  21193307.07914    -27828.99614     -1204.91114        26.40014
G28  21384375.90513   -305920.01613     -2912.67713        22.00013
G18  22022251.51313    163199.58913      1569.68313        21.50013
R16  21846147.42714   -252827.64214     -4724.49514        25.40014
C29  21424257.89514   -116351.34114     -1131.29914        24.30014
R10  20871176.78514    191250.57614      1787.93214        23.70014
C36  23711017.80414   -139769.60114     -4030.46414        23.50014
R09  19067045.55913    -14236.22013     -1300.21913        22.30013
> 2025 05 03 08 02 14.0000001  0 10                      
G25  21882685.53214   -423110.46314     -3988.81314        27.90014
G29  20674957.22514   -258011.00114     -2438.70214        26.20014
G31  21193330.46314    -29029.58714     -1206.20114        26.20014
G28  21384734.75613   -308835.85513     -2925.79113        22.20013
G18  22021744.26413    164770.16213      1561.35713        21.90013
R16  21846821.66014   -257535.07714     -4722.20214        25.60014
C29  21424268.68714   -117476.45014     -1129.57714        24.30014
R10  20870616.77314    193132.98814      1790.53814        23.80014
C36  23711586.51014   -143793.24814     -4029.00614        23.50014
R09  19067107.31613    -15671.85413     -1304.94513        22.90013
> 2025 05 03 08 02 14.9999998  0 10                      
G25  21883115.43414   -427100.41514     -3999.03914        27.70014
G29  20675091.53214   -260443.37114     -2437.48614        26.20014
G31  21193232.73014    -30235.82614     -1214.92514        26.00014
G18  22021123.39413    166337.35813      1559.64113        22.40013
G28  21384965.89613   -311758.15613     -2931.39313        22.40013
R16  21847378.97414   -262258.56414     -4723.67914        26.10014
C29  21424158.06414   -118601.51014     -1129.96914        24.20014
R10  20869980.01314    194783.53714      1797.72314        23.80014
C36  23712041.59513   -147811.96913     -4022.06413        23.40013
R09  19067010.48313    -16901.19313     -1313.67613        22.90013
> 2025 05 03 08 02 16.0000000  0 10                      
G25  21883717.41814   -431088.19514     -3992.60914        27.50014
G29  20675384.12914   -262876.47014     -2439.37914        26.20014
G31  21193312.77514    -31445.18214     -1216.83114        25.90014
G18  22020661.41313    167907.06413      1565.04213        22.70013
G28  21385363.72113   -314680.28813     -2927.96413        22.40013
R16  21848117.96314   -267054.62414     -4730.39614        26.60014
C29  21424215.92414   -119727.69514     -1133.41214        24.20014
R10  20869474.56314    196631.66114      1794.81814        23.80014
C36  23712654.67113   -151827.91013     -4020.41213        23.40013
R09  19067074.63913    -18091.52113     -1307.07413        22.90013
> 2025 05 03 08 02 17.0000001  0 10                      
G25  21884278.92914   -435069.72714     -3984.25114        27.40014
G29  20675636.25514   -265313.59714     -2444.98514        26.30014
G31  21193331.96214    -32655.38614     -1216.47214        26.00014
G18  22020163.45813    169476.41813      1563.33213        23.00013
G28  21385710.28113   -317604.47913     -2931.06313        22.30013
R16  21848780.20414   -271697.85514     -4726.09914        26.70014
C29  21424236.31014   -120854.73914     -1133.57314        24.30014
R10  20868896.86314    198606.36314      1788.87514        23.80014
C36  23713209.88614   -155846.61614     -4025.87914        23.60014
R09  19067105.81713    -19364.40713     -1294.91213        22.80013
> 2025 05 03 08 02 17.9999998  0 10                      
G25  21884709.73114   -439054.40114     -3992.10514        27.20014
G29  20675777.45714   -267750.66714     -2442.90214        26.40014
G31  21193230.33214    -33863.94614     -1213.60114        26.00014
G18  22019525.50013    171042.70813      1558.89413        23.40013
G28  21385962.40613   -320531.52213     -2934.33013        22.30013
R16  21849354.00714   -276510.76714     -4723.43314        26.80014
C29  21424122.98814   -121982.53614     -1136.76614        24.80014
R10  20868234.62214    200393.43514      1797.82414        23.80014
C36  23713646.38414   -159871.52114     -4033.81014        23.70014
R09  19067057.55113    -20852.75813     -1297.80813        22.70013
> 2025 05 03 08 02 18.9999999  0 10                      
G29  20676034.07914   -270186.63214     -2441.27414        26.70014
G25  21885259.85014   -443039.12014     -3990.60214        27.10014
G31  21193263.30914    -35074.26714     -1217.06314        26.00014
G18  22019029.04313    172611.20113      1563.73113        23.40013
G28  21386304.17013   -323456.32713     -2929.54713        22.20013
R16  21850015.94914   -281153.23514     -4725.20114        26.80014
C29  21424126.88614   -123114.88814     -1141.09714        24.80014
C36  23714217.48914   -163898.83614     -4034.32714        23.90014
R10  20867697.99314    202150.75914      1792.50914        23.80014
R09  19067067.14413    -22010.27213     -1296.66113        22.60013
> 2025 05 03 08 02 19.9999998  0 10                      
G29  20676236.73914   -272620.82714     -2439.22714        26.70014
G25  21885762.90214   -447022.64414     -3988.84214        26.90014
G31  21193231.83114    -36281.24714     -1211.22614        26.00014
G18  22018487.61814    174179.19914      1561.82914        23.60014
G28  21386619.25213   -326378.58213     -2926.89513        22.10013
R16  21850666.49814   -285956.17314     -4728.50314        26.90014
C29  21424093.60914   -124249.37714     -1140.74614        24.80014
C36  23714740.02714   -167924.46714     -4030.65014        23.90014
R10  20867086.41714    204085.07014      1779.71814        23.80014
R09  19067071.34113    -23361.05513     -1294.34813        22.40013
> 2025 05 03 08 02 20.9999999  0 10                      
G29  20676489.16414   -275057.34914     -2443.52814        26.60014
G25  21886314.52014   -451005.50414     -3988.37014        26.70014
G31  21193257.01314    -37490.55714     -1216.32014        25.90014
G18  22017993.56014    175746.42214      1560.99014        24.00014
G28  21386965.81213   -329300.08813     -2926.97513        22.00013
R16  21851349.72514   -290712.52514     -4725.46114        27.10014
C29  21424109.49814   -125385.77414     -1143.75414        24.70014
C36  23715296.74214   -171949.21514     -4030.09714        24.00014
R10  20866565.07814    205760.02414      1782.24814        23.70014
R09  19067090.52813    -24569.00313     -1304.75013        22.20013
> 2025 05 03 08 02 21.9999999  0 10                      
G29  20676721.80314   -277497.64714     -2448.04714        26.50014
G25  21886835.25914   -454991.22814     -3993.01614        26.60014
G31  21193262.71014    -38702.41914     -1219.00014        25.90014
G18  22017452.43514    177310.12614      1556.08114        24.50014
G28  21387282.99213   -332218.49613     -2922.72113        22.00013
R16  21851983.78614   -295365.69414     -4730.20114        27.10014
C36  23715838.46714   -175973.83814     -4030.36614        24.30014
C29  21424096.60714   -126523.92514     -1142.09314        24.60014
R10  20866005.66514    207477.68914      1790.73814        23.60014
R09  19067100.12113    -25885.44413     -1314.54713        22.00013
> 2025 05 03 08 02 22.9999999  0 10                      
G25  21887357.19814   -458978.94714     -3994.57614        26.40014
G29  20676959.53914   -279938.85814     -2447.52814        26.30014
G31  21193247.72014    -39917.57614     -1222.66614        25.80014
G18  22016921.80214    178873.84914      1557.86714        24.80014
G28  21387585.18313   -335133.55313     -2919.24213        21.90013
R16  21852636.43514   -300118.98914     -4729.86914        27.10014
C36  23716367.30114   -179995.11914     -4025.41714        24.80014
C29  21424084.61514   -127659.04914     -1137.35614        24.50014
R10  20865445.95214    209198.40414      1786.12514        23.50014
R09  19067098.32313    -27142.29013     -1320.00513        21.80013
> 2025 05 03 08 02 23.9999999  0 10                      
G25  21887897.42414   -462968.21614     -3995.96114        26.50014
G29  20677204.76914   -282374.74014     -2439.13414        26.20014
G31  21193262.41014    -41132.97014     -1221.43014        25.70014
G18  22016398.66414    180439.20414      1560.25214        25.10014
G28  21387912.55613   -338049.30713     -2922.01813        21.90013
R16  21853292.38014   -304790.46314     -4731.57814        27.10014
C36  23716928.51214   -184015.61014     -4025.95714        25.10014
C29  21424078.91914   -128790.06314     -1137.28614        24.40014
R10  20864881.74313    211039.66713      1787.17713        23.40013
R09  19067132.49913    -28492.30913     -1324.22013        21.70013
> 2025 05 03 08 02 24.9999999  0 10                      
G25  21888420.26214   -466955.85214     -3992.66014        26.50014
G29  20677435.60914   -284807.24914     -2436.66614        26.00014
G18  22015864.73414    182004.14614      1558.89014        25.30014
G31  21193260.01114    -42347.79714     -1220.38814        25.60014
G28  21388234.53313   -340972.29713     -2932.45013        21.90013
R16  21853932.43714   -309475.73314     -4728.48514        27.30014
C36  23717461.84314   -188038.49214     -4029.86614        25.60014
C29  21424060.63114   -129922.02014     -1136.99314        24.60014
R10  20864302.84414    212861.82414      1787.32914        23.70014
R09  19067159.78013    -29904.25413     -1311.78113        21.60013
> 2025 05 03 08 02 25.9999999  0 10                      
G25  21888948.79614   -470942.32314     -3991.74814        26.50014
G29  20677669.74714   -287237.84614     -2435.50214        25.80014
G18  22015317.91314    183569.59114      1559.83114        25.30014
G31  21193255.21514    -43561.95214     -1219.68114        25.50014
G28  21388561.60713   -343898.66113     -2933.91213        22.60013
R16  21854587.48414   -314241.25714     -4725.43114        27.30014
C36  23717992.47514   -192061.87614     -4029.44214        25.70014
C29  21424037.54714   -131055.44714     -1140.12714        24.60014
R10  20863736.83614    214615.33714      1787.02714        23.80014
R09  19067155.88313    -31149.63213     -1314.31413        21.60013
> 2025 05 03 08 02 27.0000000  0 10                      
G25  21889495.91714   -474929.95814     -3994.07814        26.60014
G29  20677931.16614   -289671.87514     -2441.60614        25.70014
G18  22014808.56514    185135.58114      1560.39914        25.20014
G31  21193272.30314    -44774.86714     -1218.15714        25.40014
G28  21388918.66013   -346821.59613     -2927.08313        22.80013
R16  21855275.20814   -319021.30214     -4723.33714        27.20014
C36  23718552.78814   -196085.81514     -4030.02414        25.70014
C29  21424033.35014   -132190.13514     -1140.11314        24.70014
R10  20863175.62414    216503.08614      1785.62814        24.10014
R09  19067196.05513    -32470.65713     -1311.14113        22.50013
> 2025 05 03 08 02 27.9999999  0 10                      
G25  21890003.46614   -478911.55614     -3984.49514        27.00014
G29  20678135.62514   -292110.17614     -2446.35414        25.60014
G18  22014264.14214    186702.47614      1561.42714        25.20014
G31  21193253.11614    -45990.71614     -1223.23314        25.30014
G28  21389213.35613   -349743.32613     -2927.04313        22.80013
R16  21855893.08014   -323650.73914     -4721.91414        27.20014
C36  23719081.02214   -200107.72414     -4026.75514        25.70014
C29  21424009.96714   -133324.55714     -1139.91914        24.70014
R10  20862600.92214    218240.61614      1778.20214        24.30014
R09  19067205.64813    -33848.94613     -1313.66413        23.30013
> 2025 05 03 08 02 28.9999999  0 10                      
G25  21890525.40514   -482889.45314     -3981.88814        27.50014
G29  20678369.76214   -294548.33414     -2443.93014        25.60014
G18  22013735.60814    188269.58514      1561.37014        25.10014
G31  21193250.71814    -47211.75214     -1229.47514        25.10014
G28  21389528.73713   -352669.78713     -2934.66913        22.80013
R16  21856538.23314   -328363.52414     -4709.80814        27.10014
C36  23719608.35714   -204123.88714     -4019.07814        25.70014
C29  21423994.37714   -134458.27014     -1137.69114        24.70014
R10  20862031.61614    220011.67114      1777.73114        24.30014
R09  19067199.35314    -35081.34014     -1310.13614        23.50014
> 2025 05 03 08 02 30.0000000  0 10                      
G25  21891074.02514   -486869.78314     -3987.40714        27.50014
G29  20678627.88414   -296987.84614     -2446.05114        25.70014
G18  22013215.76814    189838.40114      1563.80614        25.00014
G31  21193274.10214    -48440.92914     -1239.10914        24.90014
G28  21389889.98713   -355601.85113     -2940.72613        22.80013
R16  21857222.66014   -333125.99214     -4726.38414        27.10014
C36  23720175.86414   -208137.62214     -4018.32914        25.60014
C29  21424004.57014   -135588.61314     -1135.53614        24.90014
R10  20861478.49914    221856.70714      1775.19114        24.20014
R09  19067257.51214    -36498.63214     -1311.47014        23.50014
> 2025 05 03 08 02 31.0000000  0 10                      
G25  21891594.76414   -490843.92114     -3976.90214        27.40014
G29  20678849.73014   -299430.10114     -2449.48714        25.70014
G18  22012661.75114    191406.56214      1561.96914        24.80014
G31  21193283.39514    -49675.25114     -1242.75814        24.70014
G28  21390200.27213   -358538.27113     -2944.45913        22.80013
R16  21857875.00814   -337877.75714     -4728.61114        27.00014
C29  21423977.88914   -136719.87914     -1137.22914        25.00014
C36  23720706.79614   -212148.71314     -4015.57514        25.50014
R10  20860935.27514    223488.18114      1764.69114        24.20014
R09  19067236.52714    -37651.56214     -1310.83714        23.50014
> 2025 05 03 08 02 32.0000000  0 10                      
G25  21892137.08914   -494813.03514     -3972.51814        27.40014
G29  20679099.45714   -301876.73514     -2454.73914        25.70014
G31  21193304.38114    -50913.45914     -1246.06714        24.50014
G18  22012158.40014    192978.13614      1567.36114        24.60014
G28  21390551.32913   -361477.64913     -2946.77413        22.70013
R16  21858557.03614   -342689.10214     -4721.15114        26.80014
C29  21423976.09014   -137851.90614     -1138.44814        25.30014
C36  23721258.71414   -216156.38714     -4011.82814        25.40014
R10  20860388.75314    225234.86314      1757.68614        24.50014
R09  19067259.61114    -38944.28114     -1309.68414        23.60014
> 2025 05 03 08 02 33.0000000  0 10                      
G25  21892650.33414   -498780.49114     -3972.46914        27.60014
G29  20679327.30014   -304324.08214     -2453.54814        25.60014
G18  22011624.17014    194553.80014      1571.86314        24.40014
G31  21193314.57414    -52155.96514     -1250.50014        24.40014
G28  21390879.90213   -364418.15313     -2946.90913        22.70013
R16  21859156.92114   -347159.59614     -4688.74414        26.70014
C29  21423957.50314   -138987.57714     -1140.52914        25.60014
C36  23721785.74914   -220154.08714     -3998.50214        25.50014
R10  20859808.95514    227061.59614      1753.83314        24.90014
R09  19067281.79514    -40328.72314     -1324.79314        23.60014
> 2025 05 03 08 02 34.0000000  0 10                      
G25  21893162.97914   -502746.37514     -3970.95714        27.70014
G29  20679569.53214   -306769.65714     -2450.54914        25.50014
G18  22011086.04214    196134.29814      1577.05014        24.30014
G31  21193315.77314    -53393.55814     -1240.99814        24.20014
G28  21391194.38413   -367355.48913     -2941.61213        22.60013
R16  21859819.76214   -351966.39314     -4693.07014        26.60014
C29  21423941.31414   -140120.31314     -1139.40914        25.60014
C36  23722319.68014   -224150.04814     -4000.89814        25.50014
R10  20859238.15014    228841.03914      1754.10814        25.10014
R09  19067299.18314    -41687.18414     -1321.00214        23.70014
> 2025 05 03 08 02 35.0000000  0 10                      
G25  21893675.02414   -506708.61314     -3966.27614        27.70014
G29  20679791.97814   -309213.39414     -2448.67914        25.50014
G18  22010540.72014    197713.76614      1573.08814        24.20014
G28  21391512.16413   -370289.11413     -2937.63213        22.80013
G31  21193307.07914    -54628.50714     -1239.48914        24.00014
R16  21860446.92814   -356585.93114     -4696.61114        26.40014
C29  21423927.82314   -141254.46414     -1138.84214        25.60014
C36  23722850.31214   -228144.03314     -3998.80414        25.50014
R10  20858673.34114    230586.15914      1745.07514        25.10014
R09  19067321.36814    -43073.15014     -1315.67614        23.80014
> 2025 05 03 08 02 36.0000000  0 10                      
G25  21894211.05314   -510671.05314     -3968.45614        28.00014
G29  20680042.60414   -311656.84614     -2449.22614        25.40014
G31  21193318.17114    -55864.57614     -1242.54614        23.90014
G18  22010023.87814    199286.32914      1563.19314        24.10014
G28  21391841.03713   -373220.51013     -2936.19713        23.40013
C29  21423924.22614  31079574.41614     -1136.85614        25.60014
R16  21861084.88614   -361159.57414     -4700.51714        26.30014
C36  23723394.13614   -232141.53714     -4005.12614        25.40014
R10  20858119.32414    232375.55814      1746.10714        25.10014
R09  19067310.87514    -44183.25714     -1321.70014        23.80014
> 2025 05 03 08 02 37.0000000  0 10                      
G25  21894733.89114   -514629.91714     -3962.91814        28.00014
G29  20680276.44314   -314097.28514     -2444.77514        25.40014
G31  21193301.98214    -57103.88914     -1246.78014        24.10014
G18  22009494.44414    200858.93914      1566.78614        24.00014
G28  21392160.01613   -376150.10413     -2934.53513        23.40013
C29  21423900.84214  31078439.73414     -1142.97814        25.60014
R16  21861742.63114   -365941.91214     -4706.45514        26.10014
R10  20857576.40014    234003.22214      1749.32314        25.20014
C36  23723933.16314   -236139.55814     -4004.06714        25.30014
R09  19067318.07014    -45489.00214     -1322.23914        23.70014
> 2025 05 03 08 02 38.0000001  0 10                      
G25  21895281.01214   -518585.40814     -3959.66414        27.90014
G29  20680522.27214   -316538.89714     -2448.06114        25.60014
G31  21193331.06214    -58345.18314     -1248.14714        24.10014
G18  22008994.09014    202438.51914      1577.20214        23.80014
G28  21392510.47313   -379078.58213     -2933.78213        23.30013
R16  21862421.96014   -370676.09814     -4684.33014        26.00014
C29  21423917.03114  31077303.12914     -1142.13114        25.60014
R10  20857037.97314    235770.46214      1745.62814        25.20014
C36  23724495.87314   -240137.13214     -4003.15814        25.20014
R09  19067371.43314    -46879.55114     -1320.21714        23.60014
> 2025 05 03 08 02 38.9999998  0 10                      
G25  21895708.81614   -522538.68614     -3958.03114        27.80014
G29  20680655.38014   -318981.98614     -2449.68814        26.00014
G31  21193234.52914    -59591.73714     -1255.04614        24.10014
G28  21392749.10813   -382007.00813     -2934.26113        23.30013
G18  22008362.72814    204022.54514      1580.38414        23.70014
R10  20856375.13214    237560.58514      1744.64414        25.60014
C29  21423798.61314  31076167.08114     -1142.92914        25.60014
R16  21863003.25814   -375528.75514     -4689.88214        25.90014
C36  23724920.37914   -244133.96414     -4002.26714        25.00014
R09  19067267.40514    -48070.68414     -1314.56614        23.60014
> 2025 05 03 08 02 39.9999999  0 10                      
G25  21896252.64014   -526492.75114     -3960.32014        27.70014
G29  20680907.80514   -321428.91314     -2454.70914        26.50014
G31  21193269.60514    -60841.80214     -1257.68414        24.00014
G28  21393096.26813   -384938.55513     -2938.96913        23.20013
G18  22007846.18514    205609.05214      1581.88314        23.50014
R10  20855841.80114    239298.84114      1741.74114        26.00014
R16  21863650.51014   -380091.73314     -4689.25414        25.80014
C29  21423814.20214  31075024.68914     -1150.28514        25.50014
C36  23725482.19014   -248130.15314     -4001.67514        24.90014
R09  19067328.26314    -49501.73214     -1316.87014        23.60014
> 2025 05 03 08 02 41.0000001  0 10                      
G25  21896851.02514   -530450.37314     -3965.31614        27.50014
G29  20681218.69014   -323877.41114     -2455.19914        26.70014
G31  21193356.84414    -62092.98914     -1257.66414        23.90014
G28  21393500.38813   -387873.13813     -2942.01713        23.10013
G18  22007376.11113    207192.02313      1575.28413        23.30013
R10  20855334.25314    241157.64714      1742.17714        26.00014
R16  21864331.63814   -384579.77014     -4685.44814        25.70014
C29  21423877.45814  31073883.91014     -1143.87214        25.50014
C36  23726096.16514   -252125.05014     -4000.11214        24.70014
R09  19067381.62614    -50634.76114     -1321.46114        23.60014
> 2025 05 03 08 02 41.9999998  0 10                      
G29  20681343.40414   -326320.89914     -2446.82614        26.80014
G25  21897289.32214   -534411.31214     -3968.43814        27.40014
G31  21193271.70314    -63338.73814     -1248.87414        23.80014
G28  21393724.03313   -390807.73213     -2940.44213        23.00013
G18  22006755.54013    208779.55213      1583.96113        23.10013
R10  20854708.28614    242751.75514      1748.29214        26.20014
R16  21864893.44914   -389326.95214     -4695.87114        25.80014
C29  21423761.43914  31072746.64314     -1141.52914        25.40014
C36  23726540.15814   -256116.09414     -3994.90614        24.50014
R09  19067345.35114    -52187.29814     -1331.70814        23.60014
> 2025 05 03 08 02 42.9999999  0 9                      
G25  21897831.34714   -538371.21114     -3965.24014        27.20014
G29  20681609.02014   -328765.58714     -2451.15114        26.80014
G31  21193292.68914    -64578.61314     -1242.80014        23.60014
G28  21394083.18413   -393742.44413     -2940.63213        22.90013
G18  22006243.19513    210368.48413      1583.76913        23.00013
R10  20854154.26914    244601.36914      1750.05114        26.40014
C29  21423781.22514  31071608.45914     -1145.50814        25.40014
C36  23727088.77814   -260105.09814     -3993.79214        24.40014
R09  19067365.13814    -53398.29714     -1336.23514        23.50014
> 2025 05 03 08 02 43.9999999  0 9                      
G25  21898341.29414   -542335.69114     -3972.63014        27.10014
G29  20681840.76014   -331213.22314     -2454.97014        26.80014
G31  21193296.58613    -65816.75313     -1243.13413        23.40013
G28  21394402.46313   -396679.78313     -2944.51413        22.80013
G18  22005709.86413    211957.64613      1583.41213        22.80013
R10  20853576.56914    246417.42714      1752.41014        26.40014
C29  21423765.33614  31070466.60614     -1148.51014        25.40014
C36  23727609.81814   -264095.74414     -3997.27214        24.20014
R09  19067363.03913    -54652.84813     -1334.51713        23.40013
> 2025 05 03 08 02 44.9999999  0 10                      
G29  20682097.98214   -333661.58714     -2454.64414        26.70014
G25  21898870.12814   -546303.49514     -3975.38214        27.00014
G31  21193312.17513    -67059.24213     -1250.58113        23.30013
G28  21394751.42213   -399615.58113     -2940.94413        22.70013
G18  22005178.03213    213541.72213      1575.61413        22.60013
R16  21866875.67724                     -4704.68024        26.20024
R10  20853015.35814    248242.66814      1756.86214        26.40014
C29  21423762.33814  31069325.84614     -1145.97314        25.30014
C36  23728164.13414   -268091.35014     -4003.94814        24.10014
R09  19067403.21113    -56035.72113     -1333.33013        23.30013
> 2025 05 03 08 02 45.9999999  0 10                      
G29  20682326.12414   -336108.30014     -2451.73014        26.70014
G25  21899387.27014   -550281.09014     -3988.33114        26.80014
G31  21193308.57813    -68301.92613     -1248.62613        23.10013
G28  21395083.59213   -402548.51513     -2937.34513        22.70013
G18  22004650.09813    215121.03313      1571.08213        22.40013
R16  21867496.54714     -4582.85214     -4708.27414        26.40014
R10  20852491.32114    249771.94514      1747.36014        26.30014
C29  21423743.75114  31068187.15214     -1144.93614        25.30014
C36  23728694.76614   -272098.25714     -4018.34614        23.90014
R09  19067446.08213    -57530.18213     -1325.55713        23.20013
> 2025 05 03 08 02 46.9999999  0 10                      
G29  20682553.96614   -338555.75214     -2453.68414        26.70014
G25  21899896.31714   -554265.80414     -3994.13514        26.60014
G31  21193299.58413    -69543.81313     -1247.35013        22.90013
G28  21395407.36813   -405483.25013     -2941.49713        22.60013
G18  22004120.36413    216697.44213      1569.09313        22.20013
R16  21868211.25214     -9667.09814     -4720.08514        26.60014
R10  20851911.82214    251597.15614      1758.48014        26.20014
C29  21423721.56614  31067051.04414     -1140.78414        25.30014
C36  23729222.70114   -276112.99014     -4024.45414        23.80014
R09  19067489.25213    -59026.93813     -1326.69413        23.10013
> 2025 05 03 08 02 47.9999999  0 10                      
G29  20682802.79414   -340998.14914     -2445.78614        26.70014
G25  21900443.43814   -558258.36414     -4002.39714        26.40014
G31  21193316.97213    -70786.62913     -1249.19913        22.80013
G28  21395748.83113   -408418.97813     -2942.14013        22.50013
G18  22003596.92713    218269.71013      1564.27913        22.00013
R16  21868843.81414    -14213.98914     -4720.62814        26.50014
R10  20851365.90014    253340.79314      1768.78714        26.20014
C29  21423716.47014  31065914.27914     -1144.18014        25.20014
C36  23729779.11614   -280131.55714     -4026.34514        23.80014
R09  19067525.52713    -60388.41913     -1328.70213        23.00013
> 2025 05 03 08 02 48.9999999  0 10                      
G29  20683021.34214   -343446.17614     -2456.68514        26.60014
G25  21900977.06914   -562258.28014     -4009.43614        26.10014
G31  21193322.36813    -72032.94813     -1253.91413        22.70013
G28  21396061.51513   -411357.13313     -2945.21113        22.30013
G18  22003073.18913    219835.98513      1557.43213        21.80013
R16  21869500.66014    -18988.68514     -4723.44014        26.40014
R10  20850781.90414    255191.17114      1768.93614        26.10014
C29  21423696.68314  31064776.08014     -1144.20714        25.10014
C36  23730313.34614   -284148.47314     -4021.87814        23.70014
R09  19067515.93313    -61603.23713     -1323.96613        22.90013
> 2025 05 03 08 02 49.9999999  0 10                      
G29  20683247.98514   -345896.90514     -2457.94114        26.60014
G25  21901505.90314   -566259.52514     -4007.77014        25.90014
G31  21193334.36013    -73278.62713     -1251.22213        22.60013
G28  21396377.79613   -414299.65413     -2950.56513        22.20013
G18  22002541.35813    221395.58513      1550.39813        21.60013
R16  21870125.72714    -23595.23014     -4733.95414        26.30014
R10  20850230.28614    256866.88814      1772.33314        26.00014
C29  21423678.69614  31063635.38414     -1146.97514        25.10014
C36  23730845.17814   -288168.12514     -4026.82714        23.70014
R09  19067498.24613    -62776.03913     -1330.03913        22.80013
> 2025 05 03 08 02 51.0000000  0 10                      
G29  20683514.50114   -348343.78214     -2450.81314        26.70014
G25  21902047.92814   -570259.62214     -4005.38314        25.70014
G31  21193360.74213    -74521.37113     -1247.13813        22.40013
G28  21396727.05413   -417246.67913     -2955.13913        22.00013
G18  22002031.11113    222949.71113      1545.52413        21.50013
R16  21870793.96414    -28271.32814     -4738.45414        26.20014
R10  20849668.77514    258756.16614      1776.73314        26.00014
C29  21423694.28514  31062492.87314     -1148.99714        25.00014
C36  23731421.67914   -292192.13214     -4031.99214        23.80014
R09  19067531.52313    -64058.85613     -1336.92813        22.70013
> 2025 05 03 08 02 52.0000000  0 10                      
G29  20683742.94314   -350790.10614     -2451.90914        26.70014
G25  21902563.87114   -574259.56114     -4005.72014        25.40014
G31  21193373.93313    -75760.64213     -1243.39713        22.30013
G28  21397052.32913   -420197.15313     -2958.05813        21.80013
G18  22001500.77813    224498.32013      1539.98713        21.30013
R16  21871447.51214    -33028.44514     -4751.53314        26.10014
R10  20849119.25514    260422.72814      1774.92714        25.90014
C29  21423676.89714  31061350.76814     -1147.79314        24.80014
C36  23731949.31314   -296221.02014     -4037.13514        23.80014
R09  19067536.01913    -65349.31713     -1326.98213        23.00013
> 2025 05 03 08 02 53.0000000  0 10                      
G29  20683984.27614   -353239.22314     -2456.43014        26.70014
G25  21903106.49514   -578254.98414     -3999.08114        25.30014
G31  21193377.53013    -76994.86813     -1237.62113        22.30013
G28  21397378.20313   -423147.93313     -2956.84913        21.60013
G18  22000986.33413    226043.60513      1537.70313        21.20013
R16  21872131.03914    -37847.43314     -4741.78414        26.10014
R10  20848558.04414    262247.97114      1772.57514        25.90014
C29  21423682.59314  31060205.41514     -1152.31614        24.70014
C36  23732509.02614   -300255.60914     -4043.30114        23.80014
R09  19067571.69513    -66706.97713     -1328.65713        23.40013
> 2025 05 03 08 02 54.0000000  0 10                      
G29  20684210.61914   -355693.87914     -2463.26814        26.70014
G25  21903632.33114   -582251.27114     -4002.56114        25.10014
G31  21193370.33513    -78225.36313     -1234.47313        22.30013
G28  21397707.67513   -426098.22913     -2955.89713        21.50013
G18  22000455.10213    227583.70213      1531.65713        21.00013
R16  21872784.28714    -42604.55014     -4739.68414        26.30014
R10  20847956.66014    264189.87814      1774.32214        25.80014
C36  23733048.95214   -304287.76114     -4036.72114        24.40014
C29  21423666.10514  31059058.59514     -1151.84314        24.60014
R09  19067568.99714    -67958.47214     -1330.31614        23.80014
> 2025 05 03 08 02 55.0000000  0 10                      
G29  20684429.76714   -358145.45114     -2455.89214        26.60014
G25  21904152.17114   -586246.34414     -4000.32514        25.00014
G31  21193366.73813    -79454.52313     -1234.35413        22.30013
G28  21398034.44913   -429045.88313     -2952.19313        21.30013
G18  21999923.27013    229122.47513      1532.24613        20.90013
R16  21873400.06014    -47159.12114     -4743.55714        26.70014
R10  20847399.64614    265895.33914      1779.44514        25.80014
C36  23733585.88014   -308316.45314     -4032.76914        25.10014
R09  19067592.38014    -69350.55314     -1335.42514        24.30014
C29  21423637.02514  31057911.92114     -1154.19314        24.40014
> 2025 05 03 08 02 56.0000000  0 10                      
G29  20684668.10214   -360593.94514     -2452.81514        26.60014
G25  21904679.20614   -590240.78514     -3999.98614        24.80014
G31  21193371.53413    -80683.35413     -1234.53013        22.30013
G28  21398360.02413   -431986.91913     -2943.59013        21.20013
G18  21999399.53313    230665.53013      1539.33213        20.80013
R16  21874068.59714    -51997.25514     -4738.64614        26.90014
R10  20846822.54514    267708.34214      1772.41914        25.90014
C36  23734124.00814   -312345.07214     -4034.39014        25.40014
R09  19067609.76814    -70708.25014     -1334.20614        24.50014
C29  21423631.02914  31056761.07114     -1160.31514        24.20014
> 2025 05 03 08 02 57.0000000  0 10                      
G29  20684911.83414   -363043.85814     -2456.54014        26.60014
G25  21905215.83514   -594231.68814     -3995.05014        24.70014
G31  21193390.42113    -81914.55513     -1238.30213        22.30013
G28  21398696.69113   -434923.54713     -2940.33913        21.10013
G18  21998893.18313    232213.15013      1543.98413        20.70013
R16  21874724.24414    -56667.96514     -4741.04614        27.10014
R10  20846289.51414    269383.33014      1770.10514        26.10014
C36  23734678.62414   -316373.53814     -4034.25114        25.70014
R09  19067630.45414    -71987.97714     -1330.95414        24.60014
C29  21423635.52614  31055604.78714     -1163.58014        24.00014
> 2025 05 03 08 02 58.0000000  0 10                      
G29  20685143.87314   -365492.46814     -2453.80114        26.50014
G25  21905732.07714   -598220.36214     -3993.40014        24.60014
G31  21193392.81913    -83151.40313     -1245.51713        22.20013
G28  21399006.07613   -437859.96113     -2942.14913        21.00013
G18  21998368.24713    233766.16713      1549.86913        20.70013
R16  21875381.08914    -61442.66114     -4743.28314        27.40014
R10  20845712.71314    271193.28814      1774.97714        26.10014
C36  23735212.25414   -320404.38514     -4037.82614        25.80014
R09  19067643.04514    -73321.22514     -1337.33514        24.60014
C29  21423621.73514  31054445.64214     -1168.36414        23.70014
> 2025 05 03 08 02 59.0000000  0 10                      
G29  20685373.21414   -367943.45414     -2458.03614        26.40014
G25  21906258.81314   -602209.52014     -3995.26114        24.40014
G31  21193392.22013    -84390.73313     -1246.43213        22.10013
G28  21399325.65513   -440799.54613     -2947.03213        20.90013
G18  21997823.82313    235319.45213      1547.55513        20.60013
R16  21876038.23414    -66219.65014     -4742.28414        27.50014
R10  20845153.30114    272911.71414      1780.10114        26.10014
C36  23735750.08214   -324440.05114     -4043.88314        25.80014
R09  19067652.63914    -74636.89914     -1333.84414        24.60014
C29  21423614.54013  31053283.73513     -1166.76313        23.40013
> 2025 05 03 08 03 00.0000001  0 10                      
G29  20685621.74214   -370396.05914     -2459.27614        26.40014
G25  21906803.23614   -606204.65114     -4003.97714        24.20014
G31  21193409.00813    -85630.71613     -1246.17213        22.10013
G28  21399674.31413   -443734.94413     -2939.16713        20.80013
G18  21997326.16813    236871.59913      1545.71313        20.50013
R16  21876724.45914    -70991.28814     -4741.00314        27.50014
C36  23736313.69214   -328477.36014     -4043.93714        25.90014
R10  20844605.58014    274727.77014      1776.01114        26.00014
R09  19067691.01214    -75948.75614     -1333.99514        24.60014
C29  21423634.02713  31052125.67013     -1164.04113        23.10013
> 2025 05 03 08 03 01.0000000  0 10                      
G29  20685850.78314   -372848.58514     -2458.40114        26.30014
G25  21907317.08014   -610203.70314     -4006.92814        24.00014
G31  21193405.11113    -86869.28013     -1243.77213        22.30013
G18  21996786.24213    238422.21313      1543.92813        20.40013
G28  21399987.59713   -446668.51713     -2938.57613        20.70013
R16  21877343.83014    -75629.89714     -4741.38614        27.50014
C36  23736844.32514   -332511.64614     -4038.63614        25.90014
R10  20844022.18414    276511.06414      1776.81314        25.90014
R09  19067700.30614    -77327.04614     -1341.47014        24.90014
C29  21423604.94713  31050967.64513     -1165.29113        22.90013
> 2025 05 03 08 03 02.0000001  0 10                      
G29  20686100.81014   -375298.77614     -2454.86714        26.20014
G25  21907868.69814   -614208.92814     -4014.15414        23.90014
G31  21193432.99213    -88104.03113     -1238.68913        22.30013
G18  21996280.49213    239971.72613      1543.11713        20.30013
G28  21400329.06013   -449601.69313     -2938.82113        20.50013
R16  21877990.18314    -80187.52514     -4746.80414        27.50014
R10  20843470.26614    278349.23514      1771.40114        25.90014
C36  23737409.13414   -336543.18114     -4035.94914        25.90014
R09  19067750.07114    -78698.49714     -1341.82514        25.10014
C29  21423625.33313  31049808.88313     -1163.69013        22.70013
> 2025 05 03 08 03 02.9999998  0 10                      
G29  20686249.20814   -377747.43014     -2453.74714        26.10014
G25  21908310.59214   -618215.77014     -4013.51114        23.70014
G31  21193339.45613    -89340.11913     -1242.61713        22.30013
G18  21995664.41813    241519.33413      1540.79013        20.20013
G28  21400546.41013   -452533.60813     -2937.14413        20.20013
R16  21878572.38014    -85045.53214     -4750.36414        27.40014
R10  20842820.61614    280069.18914      1770.73314        26.10014
C36  23737857.02414   -340577.14414     -4040.98314        25.90014
R09  19067668.82814    -80010.35014     -1337.43714        25.50014
C29  21423514.41013  31048651.48813     -1162.27213        22.40013
> 2025 05 03 08 03 03.9999998  0 10                      
G29  20686501.93314   -380194.04514     -2451.45714        25.90014
G25  21908874.50214   -622219.10014     -4007.43314        23.60014
G31  21193358.04413    -90574.18113     -1238.91313        22.20013
G18  21995158.66913    243065.72013      1539.91113        20.10013
G28  21400889.67213   -455467.08413     -2940.11813        20.00013
R16  21879238.51814    -89711.69314     -4742.18014        27.30014
R10  20842260.60314    281949.31414      1770.07514        26.20014
C36  23738421.83314   -344610.04614     -4038.17914        25.80014
R09  19067695.20914    -81258.78914     -1337.72114        25.50014
C29  21423527.30113  31047494.58813     -1161.64213        22.10013
> 2025 05 03 08 03 04.9999998  0 10                      
G29  20686721.38114   -382641.59714     -2453.93614        25.60014
G25  21909388.04614   -626223.82114     -4011.33214        23.60014
G31  21193353.24713    -91807.03513     -1238.16613        22.10013
G18  21994612.74613    244608.90813      1535.66813        20.00013
G28  21401190.36413   -458397.39713     -2934.64713        19.70013
R16  21879908.85414    -94618.58014     -4744.12914        27.20014
R10  20841688.59914    283674.64314      1769.85814        26.40014
C36  23738951.26614   -348641.08214     -4035.96314        25.90014
R09  19067693.71014    -82577.48114     -1340.17814        25.50014
C29  21423494.02413  31046342.19713     -1156.60713        21.90013
> 2025 05 03 08 03 05.9999999  0 9                      
G29  20686977.10414   -385090.44314     -2455.33714        25.40014
G25  21909949.85714   -630228.21114     -4010.06514        23.60014
G31  21193371.23413    -93039.19313     -1237.65513        21.90013
G18  21994116.29013    246153.30113      1539.15013        19.90013
G28  21401538.72313   -461324.49113     -2931.32813        19.50013
R10  20841140.57914    285490.69714      1771.24714        26.50014
C36  23739518.77314   -352672.92114     -4038.03014        26.10014
R09  19067734.78214    -83904.61814     -1336.89214        25.50014
C29  21423496.42213  31045194.40813     -1151.76013        21.70013
> 2025 05 03 08 03 06.9999999  0 8                      
G25  21910469.09814   -634230.60314     -4007.25314        23.70014
G31  21193364.03913    -94272.17413     -1239.25513        21.80013
G18  21993599.14813    247701.64413      1544.45313        19.80013
G28  21401868.79513   -464246.98613     -2926.05613        19.20013
R10  20840583.86414    287194.63514      1768.83414        26.50014
C36  23740055.70114   -356706.45214     -4040.18414        26.10014
R09  19067790.24314    -85466.31814     -1340.47814        25.40014
C29  21423471.83913  31044047.24613     -1156.28613        21.50013
> 2025 05 03 08 03 07.9999999  0 9                      
G29  20687463.06724                     -2463.40224        26.10024
G25  21910993.73514   -638231.49814     -4006.00714        23.70014
G31  21193368.23613    -95506.58313     -1240.98613        21.70013
G18  21993057.72313    249254.36813      1549.05113        19.70013
G28  21402191.07113   -467170.62013     -2930.06513        19.00013
R10  20840022.95214    288919.92114      1764.85514        26.50014
C36  23740593.82914   -360738.38214     -4036.93614        26.10014
R09  19067785.14714    -86704.06014     -1337.78114        25.40014
C29  21423461.94613  31042898.56613     -1155.75313        21.50013
> 2025 05 03 08 03 08.9999999  0 10                      
G29  20687700.80314     -2455.48714     -2461.38514        27.50014
G25  21911542.35514   -642227.42314     -3999.35614        23.70014
G31  21193380.22813    -96737.56713     -1235.18913        21.50013
G18  21992528.88913    250809.11913      1549.84513        19.60013
G28  21402537.93113   -470099.64313     -2937.63413        18.90013
R10  20839462.64014    290741.35014      1758.16514        26.80014
C36  23741147.24614   -364765.00714     -4029.83414        26.00014
R09  19067811.52914    -88013.58714     -1345.51214        25.30014
R16  21882558.12023                     -4737.31723        23.10023
C29  21423460.74713  31041747.57513     -1157.63513        22.40013
> 2025 05 03 08 03 09.9999999  0 10                      
G29  20687923.84814     -4910.87814     -2461.18614        27.50014
G25  21912069.69014   -646218.05214     -3993.82214        23.60014
G31  21193383.52613    -97968.23313     -1236.35113        21.40013
G18  21991988.36313    252358.12313      1540.28413        19.60013
G28  21402879.09513   -473034.97913     -2944.33413        18.90013
R10  20838905.32614    292448.33214      1747.78314        27.00014
C36  23741693.46814   -368788.00514     -4026.97414        25.90014
R09  19067840.60914    -89434.69914     -1343.56714        25.20014
C29  21423452.35313  31040596.31013     -1157.26113        22.70013
R16  21883171.49613     -4543.10613     -4735.33713        23.10013
> 2025 05 03 08 03 10.9999999  0 10                      
G29  20688182.56914     -7363.87714     -2457.66414        27.30014
G25  21912582.93414   -650203.57814     -3988.83414        24.00014
G31  21193378.13013    -99209.31113     -1252.14613        21.30013
G28  21403208.56713   -475980.02613     -2955.76413        19.30013
G18  21991443.34113    253901.44813      1534.62213        19.50013
R10  20838332.12314    294239.22014      1753.53914        27.00014
C36  23742229.19714   -372804.81114     -4019.51614        25.70014
R09  19067824.12014    -90613.61114     -1346.56614        25.10014
R16  21883875.70813     -9570.79213     -4722.54813        23.00013
C29  21423438.56213  31039443.58913     -1158.73113        22.70013
> 2025 05 03 08 03 11.9999999  0 10                      
G29  20688415.20814     -9816.16914     -2457.80114        26.90014
G25  21913103.07414   -654187.74914     -3989.35314        24.40014
G31  21193379.32913   -100461.62513     -1263.79513        21.20013
G28  21403537.14013   -478934.22613     -2964.63813        19.70013
G18  21990906.41213    255442.66313      1534.29513        19.50013
R10  20837752.62414    296065.18714      1745.68514        27.20014
C36  23742745.43914   -376819.45514     -4019.37014        25.60014
R16  21884498.97714    -14167.40114     -4721.66014        23.80014
R09  19067860.39514    -92072.16514     -1351.94114        25.00014
C29  21423421.47413  31038290.28913     -1159.42713        23.20013
> 2025 05 03 08 03 12.9999999  0 10                      
G29  20688640.05314    -12269.31714     -2459.49214        26.60014
G25  21913645.09914   -658169.82914     -3986.95114        24.50014
G31  21193406.31013   -101719.51613     -1266.59713        21.10013
G28  21403870.20913   -481894.82313     -2969.71213        20.00013
G18  21990401.86213    256986.12113      1538.66013        19.50013
R10  20837212.39814    297778.31114      1743.40514        27.40014
C36  23743300.65514   -380830.87214     -4015.66614        25.50014
R16  21885155.22214    -18841.16914     -4717.02214        24.80014
C29  21423420.57514  31037137.06614     -1156.52614        23.70014
R09  19067825.01914    -93051.61714     -1353.65114        24.80014
> 2025 05 03 08 03 13.9999999  0 10                      
G29  20688875.68914    -14724.61514     -2462.21514        26.30014
G25  21914162.54114   -662149.70014     -3984.60814        24.60014
G28  21404208.97413   -484853.42913     -2963.45313        20.70013
G31  21193415.00413   -102982.29413     -1271.06413        21.00013
G18  21989873.32713    258531.02213      1539.77613        19.50013
R10  20836672.17214    299394.53314      1741.42614        27.80014
R16  21885795.27914    -23525.67414     -4714.35414        25.70014
C36  23743836.38414   -384841.01314     -4015.29114        25.40014
C29  21423405.88514  31035984.87614     -1157.28414        24.00014
R09  19067813.32814    -94254.97414     -1342.09114        24.60014
> 2025 05 03 08 03 15.0000000  0 10                      
G31  21193451.27913   -104247.79313     -1272.72313        23.20013
G29  20689134.71014    -17179.04914     -2459.86414        26.10014
G25  21914707.86314   -666126.35514     -3980.90714        24.60014
G28  21404568.42613   -487809.18013     -2960.18513        21.10013
G18  21989384.96613    260074.55213      1536.98113        19.50013
R10  20836130.44714    301177.79014      1733.37614        27.80014
R16  21886478.20614    -28281.26214     -4708.23414        26.00014
C36  23744404.19114   -388850.97514     -4015.68014        25.30014
C29  21423416.07814  31034834.04914     -1158.06114        24.40014
R09  19067920.65314    -95934.34014     -1350.33214        24.40014
> 2025 05 03 08 03 15.9999999  0 11                      
G29  20689352.65914    -19633.44514     -2460.29514        26.00014
G25  21915228.30314   -670104.60614     -3984.96514        24.70014
G31  21193450.67914   -105518.95914     -1279.91614        25.80014
G28  21404882.90813   -490763.94913     -2960.19413        21.20013
G18  21988844.74013    261617.48613      1536.71513        19.50013
R10  20835551.84814    302937.44014      1732.30514        27.80014
R16  21887075.09314    -32798.34414     -4706.97014        26.20014
C29  21423387.59714  31033680.33114     -1160.52314        24.80014
C36  23744919.53414   -392859.55714     -4013.75214        25.30014
R09  19067924.55114    -97282.83114     -1345.82714        24.30014
C30  23932444.51313   -157843.12313     -3869.89413        18.20013
> 2025 05 03 08 03 17.0000000  0 11                      
G29  20689603.58514    -22091.77514     -2466.14014        26.00014
G25  21915782.02014   -674081.24714     -3981.67714        24.70014
G31  21193485.75514   -106795.25314     -1284.70314        25.40014
G28  21405231.86613   -493717.98013     -2959.50513        21.40013
G18  21988338.69013    263162.85713      1540.74513        19.50013
R10  20835006.22514    304740.53014      1734.39314        27.80014
R16  21887767.31414    -37602.08314     -4713.47414        26.20014
C29  21423400.78814  31032525.10214     -1163.21514        25.10014
C36  23745481.64514   -396863.45114     -4007.34014        25.20014
R09  19067987.20714    -98724.57514     -1346.62814        24.20014
C30  23932981.14213   -161711.50413     -3874.18813        18.20013
> 2025 05 03 08 03 18.0000000  0 11                      
G29  20689832.62714    -24551.81214     -2466.75114        25.90014
G25  21916301.86014   -678055.31714     -3978.64614        24.70014
G31  21193503.44314   -108070.49014     -1280.57014        24.90014
G28  21405571.23113   -496673.09413     -2961.51613        21.70013
G18  21987806.25813    264715.00313      1549.66813        19.50013
R10  20834448.01214    306453.61414      1730.39514        27.80014
R16  21888390.58314    -42197.16314     -4727.64314        26.20014
C29  21423389.39614  31031367.01614     -1162.82814        25.10014
C36  23746015.87514   -400863.31914     -4003.66114        25.00014
R09  19068015.98714   -100143.40014     -1355.71914        24.20014
C30  23933490.78913   -165586.90113     -3884.71213        18.10013
> 2025 05 03 08 03 19.0000000  0 11                      
G29  20690063.46714    -27011.57414     -2465.48514        25.80014
G25  21916810.60814   -682028.32214     -3978.33314        24.60014
G31  21193518.73214   -109344.21714     -1278.83414        24.40014
G28  21405912.09513   -499629.14213     -2962.37613        21.80013
G18  21987258.83713    266272.78113      1554.72913        19.80013
R10  20833872.71014    308256.70814      1732.83414        27.70014
R16  21889043.83014    -46952.79714     -4738.29114        26.00014
C29  21423383.70014  31030208.01114     -1163.95814        25.00014
C36  23746551.00514   -404860.59514     -4001.78714        24.90014
R09  19068033.97514   -101505.68014     -1349.76414        24.20014
C30  23933986.34613   -169474.21513     -3899.07913        18.00013
> 2025 05 03 08 03 20.0000000  0 10                      
G29  20690299.10414    -29468.10414     -2460.77614        25.70014
G25  21917331.34714   -685998.38714     -3974.45414        24.50014
G31  21193523.52914   -110617.67514     -1279.18514        24.00014
G28  21406226.87813   -502588.59513     -2967.01613        22.20013
G18  21986720.11013    267829.21713      1549.90213        19.80013
R10  20833312.69814    309977.42414      1737.98314        27.70014
R16  21889679.69014    -51616.66014     -4736.55614        25.90014
C29  21423362.41514  31029051.04814     -1162.73914        25.00014
C36  23747074.74214   -408860.30914     -4006.74014        24.70014
C30  23934496.89313   -173367.10213     -3901.48213        17.90013
> 2025 05 03 08 03 21.0000000  0 9                      
G29  20690548.23214    -31923.30714     -2460.45614        25.60014
G25  21917865.27814   -689970.14114     -3978.51414        24.30014
G31  21193542.41614   -111888.44414     -1275.34214        23.60014
G28  21406577.33513   -505551.80313     -2971.00213        22.20013
G18  21986193.37513    269390.18313      1557.31113        19.90013
R10  20832771.57214    311696.65414      1740.90514        27.60014
C29  21423359.41714  31027896.01214     -1162.25414        25.10014
R16  21890363.51714    -56438.69814     -4720.47514        25.70014
C36  23747624.86114   -412864.90614     -4012.90014        24.60014
> 2025 05 03 08 03 22.0000000  0 9                      
G29  20690784.46814    -34381.59214     -2465.66914        25.50014
G25  21918374.62514   -693945.43114     -3982.89914        24.20014
G31  21193551.41013   -113155.55513     -1271.12613        23.30013
G28  21406906.80713   -508515.66313     -2970.02813        22.20013
G18  21985666.04013    270950.56613      1554.24513        19.90013
R10  20832222.35314    313359.40514      1751.92314        27.50014
C29  21423348.62414  31026740.85614     -1160.80914        25.20014
R16  21891023.66014    -61230.20914     -4717.25414        25.50014
C36  23748164.48814   -416874.75714     -4018.26714        24.40014
> 2025 05 03 08 03 23.0000001  0 9                      
G29  20691043.18914    -36842.79814     -2468.52714        25.50014
G25  21918937.63514   -697924.53914     -3986.87814        23.90014
G31  21193575.69313   -114420.53613     -1269.77813        23.10013
G28  21407265.35913   -511481.57813     -2972.80413        22.20013
G18  21985168.98413    272505.65313      1546.57513        19.90013
R10  20831696.81614    315057.24014      1744.45314        27.40014
R16  21891697.89314    -65939.17914     -4725.58114        25.40014
C29  21423359.41714  31025586.00814     -1160.71314        25.20014
C36  23748727.49814   -420888.68114     -4021.76814        24.20014
> 2025 05 03 08 03 23.9999998  0 9                      
G29  20691190.08714    -39305.63814     -2469.51814        25.50014
G25  21919369.33614   -701914.02114     -4000.52714        23.70014
G31  21193483.35713   -115681.17913     -1264.33613        22.80013
G28  21407497.69813   -514444.44113     -2967.19713        22.10013
G18  21984543.01813    274051.57513      1535.47313        20.00013
R10  20831026.78014    316885.50114      1755.19714        27.30014
R16  21892246.51314    -70615.28814     -4737.61614        25.30014
C29  21423257.48714  31024430.89714     -1162.01314        25.10014
C36  23749169.99214   -424908.37414     -4028.38414        24.00014
> 2025 05 03 08 03 24.9999998  0 10                      
G29  20691420.92714    -41768.14214     -2468.19814        28.00014
G25  21919886.17914   -705913.27014     -4009.99314        23.60014
G31  21193478.86013   -116938.47913     -1261.49113        22.60013
G28  21407820.27413   -517410.97013     -2974.22413        22.10013
G18  21984003.39113    275589.43813      1527.97013        20.00013
R10  20830445.78214    318719.86314      1756.20014        27.20014
R09  19068065.75324                     -1359.99224        24.50024
R16  21892919.84714    -75478.65114     -4745.55114        25.30014
C29  21423236.80214  31023273.29914     -1163.75314        25.10014
C36  23749705.72114   -428932.08414     -4031.52414        23.90014
> 2025 05 03 08 03 26.0000001  0 10                      
G29  20691761.49215    -44230.21515     -2467.77415        33.20015
G25  21920517.24213   -709925.19913     -4024.18513        23.40013
G28  21408254.97313   -520378.18713     -2973.47813        22.00013
G31  21193583.18813   -118195.25213     -1262.42613        22.40013
G18  21983578.88513    277120.40813      1521.60513        20.00013
R10  20829964.91514    320596.21114      1758.19214        27.10014
C29  21423342.32914  31022114.22714     -1167.99914        25.10014
R16  21893672.02614    -80185.28914     -4752.56614        25.30014
C36  23750357.76914   -432962.47214     -4039.59014        23.90014
R09  19068155.99014     -1169.70214     -1357.20114        24.40014
> 2025 05 03 08 03 26.9999998  0 9                      
G29  20691908.09025    -46692.91425     -2468.85425        33.10025
G25  21920957.93713   -713942.74613     -4026.19613        23.30013
G28  21408490.61013   -523343.53513     -2970.25513        21.90013
G18  21982969.40713    278649.90413      1522.91213        19.90013
R10  20829315.26514    322315.40714      1766.82514        27.00014
R16  21894242.83114    -84981.39314     -4756.80814        25.20014
C29  21423231.10614  31020951.27714     -1171.88414        25.10014
C36  23750798.46414   -436998.62514     -4044.82214        24.20014
R09  19068126.61114     -2758.90814     -1351.94714        24.30014
> 2025 05 03 08 03 27.9999999  0 9                      
G29  20692161.71515    -49159.21715     -2473.96715        32.90015
G25  21921517.94913   -717959.85213     -4022.74613        23.20013
G28  21408836.57113   -526304.33113     -2964.38113        21.80013
G18  21982474.45013    280180.26713      1524.93213        20.10013
R10  20828815.81114    323873.66214      1763.43314        26.80014
C29  21423250.29214  31019787.26614     -1168.51814        25.00014
R16  21894921.86114    -89715.57914     -4759.05314        25.10014
R09  19068178.17514     -4140.29514     -1363.60814        24.40014
C36  23751375.26514   -441041.58714     -4052.17514        24.20014
> 2025 05 03 08 03 28.9999999  0 9                      
G29  20692389.25715    -51634.12615     -2485.07415        31.90015
G25  21922044.68413   -721971.09313     -4014.16913        23.10013
G28  21409163.34513   -529262.59013     -2962.85213        21.70013
G18  21981948.91313    281712.99613      1528.04913        20.10013
R10  20828243.20714    325662.26014      1764.80614        26.60014
R16  21895564.01614    -94410.78214     -4748.85614        25.10014
C29  21423232.30514  31018624.46514     -1167.13814        25.00014
C36  23751914.59214   -445086.85414     -4052.22514        24.30014
R09  19068254.32214     -5812.78614     -1370.89914        24.40014
> 2025 05 03 08 03 29.9999999  0 9                      
G29  20692630.89015    -54103.69215     -2472.75415        30.80015
G25  21922567.82213   -725978.70013     -4011.65013        23.40013
G28  21409483.22313   -532218.11013     -2960.01113        21.50013
G18  21981421.27913    283248.45813      1530.96313        20.00013
R10  20827670.00414    327454.66814      1756.85514        26.40014
R16  21896221.46114    -99189.29514     -4748.55814        25.00014
C29  21423224.81014  31017463.52714     -1166.07014        24.90014
C36  23752453.91814   -449131.82014     -4050.62314        24.40014
R09  19068245.02914     -7029.89314     -1367.48314        24.30014
> 2025 05 03 08 03 30.9999999  0 9                      
G29  20692881.81615    -56567.32015     -2466.57715        30.00015
G25  21923098.75513   -729985.02013     -4011.59313        23.40013
G28  21409823.48813   -535172.96513     -2960.43913        21.40013
G18  21980904.13713    284782.66013      1527.65313        20.00013
R10  20827100.69814    329323.38914      1755.35214        26.20014
R16  21896872.91014   -103837.84414     -4750.69414        25.00014
C36  23753006.73614   -453173.05414     -4045.22914        24.60014
C29  21423232.00514  31016304.27614     -1164.44214        24.80014
R09  19068246.82714     -8208.00114     -1356.98714        24.20014
> 2025 05 03 08 03 31.9999999  0 9                      
G29  20693111.15715    -59026.65715     -2463.03415        29.50015
G25  21923621.89214   -733992.32014     -4013.63114        23.50014
G28  21410145.76513   -538124.70513     -2956.02413        21.30013
G18  21980374.40313    286318.13413      1530.26413        20.00013
R10  20826557.77414    330954.10414      1761.58114        25.90014
R16  21897514.16614   -108529.99914     -4760.75814        24.90014
C36  23753545.16314   -457209.74214     -4040.20414        24.60014
C29  21423209.82014  31015144.50314     -1167.81914        24.70014
R09  19068261.21714     -9550.41614     -1360.70414        24.10014
> 2025 05 03 08 03 32.9999999  0 9                      
G29  20693341.39814    -61491.38314     -2473.28214        29.00014
G25  21924144.73014   -738003.88214     -4019.55314        23.60014
G28  21410452.45213   -541078.66713     -2960.93413        21.10013
G18  21979838.97413    287856.31113      1533.66413        20.10013
R16  21898175.50914   -113330.68214     -4759.95714        24.90014
R10  20825970.78014    332816.68714      1768.35914        25.70014
C29  21423198.42814  31013981.65314     -1170.38514        24.60014
C36  23754092.88414   -461247.80114     -4044.55114        24.50014
R09  19068297.79214    -11013.55414     -1360.79214        24.00014
> 2025 05 03 08 03 34.0000000  0 9                      
G29  20693619.60514    -63958.24714     -2473.79414        28.80014
G25  21924703.84314   -742016.39114     -4018.84314        23.60014
G18  21979344.91613    289390.10513      1525.73813        20.70013
G28  21410810.10513   -544031.11213     -2957.54813        20.90013
R16  21898886.31614   -118233.77914     -4759.66514        24.90014
C36  23754648.39914   -465288.76714     -4048.22614        24.40014
R10  20825426.05814    334617.48914      1766.12414        25.50014
C29  21423224.51014  31012818.27414     -1168.65514        24.60014
R09  19068319.07714    -12232.19314     -1360.19714        23.90014
> 2025 05 03 08 03 34.9999999  0 9                      
G29  20693840.55214    -66422.87514     -2469.42714        28.60014
G25  21925207.49514   -746025.00714     -4012.58514        23.60014
G18  21978797.49513    290920.43513      1522.67913        20.90013
G28  21411135.67913   -546988.06713     -2965.12513        20.80013
C36  23755179.33214   -469332.26814     -4050.62914        25.00014
R10  20824849.85614    336362.64914      1762.99514        25.30014
R16  21899544.06114   -123075.69614     -4751.89114        24.80014
C29  21423195.73014  31011653.45814     -1171.46114        24.60014
R09  19068316.07914    -13544.01214     -1361.52914        23.80014
> 2025 05 03 08 03 36.0000000  0 10                      
G29  20694102.57114    -68886.89214     -2469.55414        28.50014
G25  21925768.40614   -750033.02914     -4013.56714        23.60014
G18  21978296.54213    292447.54213      1519.64913        21.10013
G31  21193644.04613     -6275.90713     -1268.82313        20.90013
G28  21411492.73213   -549949.40413     -2969.37113        20.60013
C36  23755748.93714   -473373.28914     -4045.57114        25.10014
R10  20824307.53214    338149.71714      1760.04214        25.20014
R16  21900192.21214   -127645.55314     -4755.60414        24.80014
C29  21423210.12014  31010490.24914     -1167.47814        24.60014
R09  19068360.44914    -14887.19214     -1362.72714        23.70014
> 2025 05 03 08 03 37.0000000  0 10                      
G29  20694334.91014    -71353.12014     -2473.19514        28.40014
G25  21926295.14214   -754034.90114     -4004.65614        23.50014
G18  21977765.90913    293970.64413      1515.23613        21.40013
G31  21193638.94913     -7540.60213     -1270.55813        20.90013
G28  21411817.40713   -552912.50113     -2969.83713        20.40013
R16  21900831.37014   -132325.47314     -4756.60714        25.20014
R10  20823754.71514    339832.29814      1758.81714        25.20014
C36  23756292.46114   -477412.67014     -4044.36714        25.10014
C29  21423199.92714  31009328.22414     -1168.64614        24.50014
R09  19068394.32514    -16334.28714     -1369.58714        23.70014
> 2025 05 03 08 03 37.9999999  0 10                      
G29  20694556.15714    -73823.43214     -2478.27014        28.30014
G25  21926817.08014   -758038.69514     -4010.67114        23.60014
G18  21977215.19113    295491.37013      1513.61813        21.40013
G31  21193640.14813     -8806.60313     -1272.57113        20.80013
G28  21412136.08713   -555877.20613     -2971.42613        20.20013
R16  21901459.73514   -137011.46714     -4753.51614        25.50014
R10  20823150.93314    341724.65614      1750.06414        25.30014
C36  23756815.59914   -481453.47714     -4047.38114        25.10014
C29  21423173.84514  31008163.70614     -1173.54414        24.40014
R09  19068412.31314    -17759.18014     -1360.19714        23.70014
> 2025 05 03 08 03 39.0000000  0 10                      
G29  20694809.18214    -76290.24214     -2470.90214        28.30014
G25  21927366.60014   -762044.06614     -4012.00114        23.80014
G18  21976710.94013    297016.76313      1521.88013        21.30013
G31  21193678.22213    -10074.94613     -1275.35913        20.70013
G28  21412499.73513   -558844.85313     -2974.96013        20.10013
R16  21902134.86814   -141723.48014     -4743.45514        25.50014
R10  20822622.69814    343437.74514      1746.88014        25.30014
C36  23757372.91314   -485492.79314     -4044.36014        25.00014
C29  21423205.02414  31006997.63314     -1172.66114        24.40014
R09  19068422.80614    -18921.28114     -1360.50914        23.70014
> 2025 05 03 08 03 40.0000000  0 10                      
G29  20695039.72214    -78755.37514     -2470.15614        28.20014
G25  21927893.93514   -766044.06714     -4003.17714        24.30014
G18  21976200.69313    298545.02213      1523.82813        21.30013
G31  21193680.02113    -11348.28313     -1281.69613        20.50013
G28  21412841.79813   -561815.40913     -2977.87313        20.00013
R16  21902795.01114   -146516.51614     -4740.49814        25.40014
R10  20822061.48714    345165.32014      1744.46514        25.20014
C36  23757913.13914   -489527.79614     -4038.65214        24.80014
C29  21423184.63814  31005831.56314     -1170.47114        24.30014
R09  19068441.09314    -20283.56414     -1362.52314        23.60014
> 2025 05 03 08 03 41.0000000  0 10                      
G25  21928412.27615   -770037.57715     -3996.12415        33.50015
G29  20695264.86614    -81222.63314     -2474.18114        28.20014
G18  21975674.55713    300078.18113      1529.74413        21.30013
G31  21193696.80913    -12626.32913     -1286.26313        20.40013
G28  21413172.46913   -564789.99013     -2982.45313        19.90013
R10  20821511.36814    346833.40714      1736.19814        25.10014
R16  21903457.85214   -151323.30814     -4736.08914        25.30014
C36  23758456.96214   -493558.60314     -4034.51614        24.70014
C29  21423176.84314  31004666.44514     -1170.81014        24.20014
R09  19068477.66814    -21745.17614     -1369.36914        23.60014
> 2025 05 03 08 03 42.0000000  0 9                      
G25  21928962.69515   -774029.59115     -3997.18215        33.10015
G29  20695517.59114    -83690.46814     -2474.04014        28.30014
G31  21193705.80313    -13908.49213     -1290.13913        20.30013
G28  21413527.72313   -567764.23913     -2980.00013        19.90013
R16  21904116.79514   -156012.36014     -4730.32014        25.20014
R10  20820983.43314    348481.70314      1740.43114        25.10014
C36  23758996.88914   -497580.87714     -4023.86914        24.60014
R09  19068506.44814    -23066.92414     -1370.83514        23.60014
C29  21423184.93814  31003502.50814     -1170.05314        24.00014
> 2025 05 03 08 03 43.0000000  0 10                      
G25  21929491.22915   -778017.38715     -3991.52815        32.50015
G29  20695753.52814    -86159.36114     -2475.26614        28.70014
G18  21974591.70724                      1540.41924        25.00024
G28  21413860.79313   -570736.96513     -2977.80613        19.90013
G31  21193704.30413    -15194.98913     -1294.50813        20.20013
R10  20820411.72914    350264.95614      1733.72814        25.00014
R16  21904759.85014   -160712.91314     -4726.64414        25.10014
C36  23759542.21114   -501598.40814     -4020.94814        24.50014
R09  19068529.53214    -24455.94614     -1363.28414        23.50014
C29  21423167.25014  31002337.77914     -1168.56714        23.80014
> 2025 05 03 08 03 44.0000000  0 11                      
G28  21414189.36515   -573707.85015     -2975.82515        31.80015
G25  21930010.17015   -782000.10715     -3986.04415        31.90015
G29  20695983.76914    -88630.84414     -2478.63814        29.00014
G18  21974077.56314      1542.22014      1536.35514        24.70014
G31  21193722.89113    -16480.80013     -1291.32913        20.20013
R10  20819856.21314    351963.55114      1724.73614        24.90014
R16  21905416.09614   -165486.07714     -4725.48614        24.90014
C36  23760077.64114   -505610.51514     -4015.20214        24.50014
R09  19068545.42114    -25806.76914     -1362.79114        23.50014
C29  21423158.25614  31001173.38614     -1170.20614        23.70014
C30  23946699.04513    -50224.39513     -3863.56113        19.40013
> 2025 05 03 08 03 45.0000001  0 11                      
G31  21193754.06915    -17768.13015     -1293.95315        30.90015
G28  21414554.81215   -576677.27015     -2974.54915        32.70015
G29  20696243.08914    -91099.85114     -2473.63214        29.30014
G25  21930561.18815   -785981.50515     -3986.59615        31.30015
G18  21973590.99914      3075.59614      1523.09014        24.10014
R10  20819311.79014    353760.53814      1727.67014        24.90014
R16  21906089.73014   -170189.69214     -4720.10114        24.80014
C36  23760639.15214   -509614.90814     -4006.34314        24.40014
R09  19068591.58914    -27159.12014     -1373.58614        23.50014
C29  21423177.74313  31000008.95213     -1171.65513        23.40013
C30  23947225.78113    -54079.98213     -3861.39513        19.40013
> 2025 05 03 08 03 45.9999998  0 11                      
G28  21414791.34815   -579643.40315     -2970.34915        32.40015
G29  20696392.08615    -93568.80815     -2474.79215        29.60015
G31  21193661.13415    -19057.58415     -1296.37815        30.90015
G25  21930996.18715   -789965.45615     -3991.08715        30.70015
G18  21972964.73314      4602.12014      1517.23414        23.60014
R10  20818638.45714    355607.09814      1724.32614        25.10014
R16  21906639.84914   -174874.95914     -4725.34714        24.70014
R09  19068524.13514    -28545.85114     -1370.65014        23.70014
C36  23761090.04014   -513616.40914     -4005.86214        24.20014
C29  21423064.42113  30998842.63613     -1173.64913        23.30013
C30  23947643.69113    -57931.45113     -3855.21613        19.40013
> 2025 05 03 08 03 47.0000001  0 10                      
G29  20696728.45315    -96039.65515     -2477.70915        29.70015
G25  21931615.25915   -793946.68415     -3985.78415        30.30015
G31  21193779.85215    -20348.83515     -1298.06715        30.50015
G18  21972531.23313      6127.59313      1519.02913        23.10013
R10  20818192.96514    357295.81714      1719.66714        25.30014
R16  21907405.51914   -179654.19914     -4717.85614        25.00014
R09  19068644.65214    -29877.53214     -1366.34314        24.10014
C36  23761733.09414   -517619.83814     -4010.25514        24.10014
C29  21423159.45513  30997673.86313     -1175.99013        23.00013
C30  23948259.46513    -61779.20613     -3851.76113        19.30013
> 2025 05 03 08 03 47.9999998  0 10                      
G29  20696873.55315    -98509.71315     -2475.50515        30.00015
G25  21932044.56115   -797930.63915     -3991.16015        29.90015
G31  21193706.70215    -21645.80815     -1305.67615        29.80015
G18  21971898.07113      7652.24213      1518.39013        22.60013
R10  20817534.92014    359060.77114      1719.79514        25.50014
R16  21907964.33214   -184385.32714     -4720.23314        25.30014
R09  19068587.69114    -31319.27614     -1365.33114        24.20014
C36  23762174.68914   -521623.11914     -4008.99514        23.90014
C29  21423044.63513  30996502.57213     -1176.25213        22.80013
C30  23948671.38013    -65622.91013     -3847.46613        19.30013
> 2025 05 03 08 03 48.9999999  0 10                      
G29  20697135.57115   -100979.01615     -2474.78815        30.20015
G25  21932593.48115   -801913.28915     -3987.85715        29.60015
G31  21193746.87414    -22948.67914     -1311.68314        29.00014
G18  21971406.41213      9175.82513      1517.18513        22.20013
R10  20816996.49314    360825.72414      1724.22614        25.50014
R16  21908649.95714   -189154.67514     -4716.33414        25.30014
R09  19068639.85514    -32703.71914     -1372.29914        24.50014
C36  23762737.99914   -525628.67414     -4012.49914        23.80014
C29  21423067.11913  30995333.59413     -1176.50313        22.60013
C30  23949193.91813    -69464.38213     -3846.16313        19.20013
> 2025 05 03 08 03 49.9999999  0 11                      
G29  20697369.40915   -103449.32915     -2476.67915        30.20015
G25  21933119.61714   -805898.50714     -3992.36114        29.40014
G31  21193760.96514    -24251.05214     -1307.98714        28.20014
G18  21970878.47713     10700.97813      1520.07413        21.90013
G28  21416170.69414   -591560.38814     -2994.93314        25.00014
R10  20816466.16014    362390.08314      1721.17114        25.80014
R16  21909280.72114   -193791.03414     -4726.81914        25.30014
R09  19068660.24114    -34078.99014     -1375.20714        24.60014
C36  23763275.22714   -529640.49814     -4020.76514        23.70014
C29  21423056.62713  30994165.01313     -1174.99113        22.50013
C30  23949692.47313    -73301.26113     -3840.39013        19.10013
> 2025 05 03 08 03 50.9999998  0 11                      
G29  20697587.05915   -105919.38315     -2475.84115        30.40015
G25  21933632.56214   -809885.51514     -3993.81814        29.10014
G31  21193755.26914    -25549.29814     -1302.09814        27.50014
G18  21970348.14413     12230.90113      1526.38913        21.60013
G28  21416479.18014   -594547.93514     -2993.44514        23.70014
R10  20815885.16314    364161.18214      1731.19514        26.00014
R16  21909897.09414   -198412.07114     -4732.66414        25.50014
R09  19068663.83914    -35425.95514     -1376.81814        24.60014
C29  21423032.94313  30992996.31713     -1173.69213        22.70013
C36  23763781.87614   -533658.03214     -4026.25114        23.60014
C30  23950185.63213    -77133.63013     -3835.97513        19.00013
> 2025 05 03 08 03 51.9999999  0 11                      
G29  20697849.67715   -108389.22315     -2475.57615        30.50015
G25  21934179.68314   -813875.89814     -3997.91414        28.80014
G31  21193791.24414    -26842.72714     -1296.86614        26.90014
G18  21969857.98413     13763.85113      1528.61813        21.30013
G28  21416834.13413   -597532.63113     -2989.11313        22.70013
R10  20815353.93014    365888.76914      1745.26514        26.00014
R16  21910588.41514   -203210.45414     -4727.71114        25.50014
R09  19068680.92714    -36623.19814     -1372.15214        24.50014
C29  21423049.43113  30991829.65013     -1170.13513        23.10013
C36  23764349.08313   -537679.80113     -4029.67513        23.40013
C30  23950717.76313    -80963.76513     -3834.80713        18.90013
> 2025 05 03 08 03 52.9999999  0 10                      
G29  20698095.50715   -110860.38515     -2477.68515        30.70015
G31  21193813.72814    -28136.18414     -1299.33214        26.30014
G18  21969303.96713     15301.74213      1534.49713        21.10013
G28  21417162.40713   -600515.57813     -2987.93313        21.90013
R16  21911244.66114   -207982.85714     -4728.30314        25.50014
R10  20814806.21014    367544.65614      1749.83414        25.80014
R09  19068723.79714    -38118.42514     -1370.00214        24.40014
C29  21423025.44813  30990666.25313     -1167.87113        23.20013
C36  23764890.50913   -541704.23513     -4031.57413        23.30013
C30  23951218.41713    -84795.65813     -3838.57813        18.80013
> 2025 05 03 08 03 53.9999999  0 11                      
G29  20698328.44515   -113330.64715     -2475.67215        31.00015
G31  21193815.52714    -29432.79414     -1304.04814        25.90014
G25  21935242.74714   -821876.49214     -4010.37314        27.10014
G18  21968776.33313     16843.84213      1538.33913        21.00013
G28  21417494.27713   -603495.84013     -2984.77913        21.40013
R16  21911849.94214   -212482.39814     -4728.08414        25.50014
R10  20814236.00414    369319.51214      1736.49914        25.70014
R09  19068748.68014    -39515.85414     -1369.96014        24.30014
C29  21423021.85113  30989502.62513     -1170.39213        23.20013
C36  23765418.44313   -545731.06613     -4033.83513        23.20013
C30  23951711.27513    -88634.59813     -3848.27113        18.80013
> 2025 05 03 08 03 55.0000000  0 11                      
G29  20698587.76615   -115802.40615     -2478.37015        31.20015
G25  21935785.37214   -825874.03014     -4003.39914        26.00014
G31  21193852.70114    -30731.42914     -1305.51114        25.50014
G18  21968271.18213     18389.05413      1540.90413        20.90013
G28  21417855.52713   -606477.13613     -2987.67413        20.90013
R16  21912570.34314   -217437.47114     -4727.05814        25.40014
R10  20813677.49114    371193.52714      1713.57014        25.50014
R09  19068756.17514    -40661.90814     -1369.94914        24.20014
C36  23765980.85413   -549752.11413     -4023.96513        23.30013
C29  21423045.53413  30988334.96813     -1175.39813        23.20013
C30  23952247.60413    -92477.40913     -3850.55513        18.70013
> 2025 05 03 08 03 55.9999999  0 11                      
G29  20698810.81115   -118273.43715     -2476.58315        31.20015
G25  21936283.62714   -829856.47414     -3980.81214        25.60014
G31  21193861.69514    -32027.44514     -1300.62314        25.20014
G18  21967720.46413     19936.12313      1542.07913        21.00013
G28  21418173.60713   -609456.91513     -2984.93713        20.60013
R16  21913174.12514   -221990.47414     -4720.50214        25.50014
R10  20813117.47914    372852.49914      1713.38014        25.40014
C36  23766505.79014   -553764.39514     -4013.75814        24.00014
R09  19068796.64714    -42206.00214     -1376.48114        24.20014
C29  21423024.54913  30987162.90513     -1179.35713        23.10013
C30  23952735.36613    -96325.81213     -3857.06013        18.70013
> 2025 05 03 08 03 56.9999999  0 11                      
G29  20699039.25315   -120740.39615     -2470.76615        31.20015
G18  21967178.13913     21487.65913      1547.92313        23.30013
G25  21936810.36214   -833835.97814     -3983.87614        25.50014
G31  21193877.28414    -33321.57514     -1299.03114        24.90014
G28  21418499.18213   -612435.35713     -2983.61513        20.40013
R16  21913846.56014   -226849.24814     -4729.86714        25.70014
R10  20812597.33914    374361.94114      1718.79014        25.30014
C36  23767037.02314   -557773.24114     -4012.91714        24.70014
R09  19068805.34114    -43519.38414     -1382.36714        24.10014
C29  21423011.05813  30985988.61213     -1182.25913        23.10013
C30  23953244.71413   -100182.47113     -3866.57513        18.70013
> 2025 05 03 08 03 58.0000000  0 10                      
G29  20699311.46515   -123214.09915     -2482.93615        31.10015
G28  21418855.93514   -615413.70814     -2984.16614        28.00014
G25  21937364.37914   -837817.09114     -3987.77714        25.40014
G18  21966663.39514     23039.13414      1545.58014        25.50014
G31  21193911.46014    -34615.75814     -1300.07314        24.60014
R10  20812067.00614    376084.94414      1707.32114        25.20014
C36  23767597.33514   -561783.13514     -4016.22614        24.70014
R09  19068844.91314    -44836.58614     -1374.61614        24.10014
C29  21423017.95313  30984809.62613     -1186.25913        23.10013
C30  23953786.73913   -104046.27913     -3873.19013        18.70013
> 2025 05 03 08 03 59.0000000  0 10                      
G29  20699538.10815   -125689.12015     -2481.54115        31.00015
G28  21419179.11115   -618390.98715     -2982.60415        29.60015
G25  21937875.52514   -841795.58914     -3983.05114        25.40014
G18  21966125.86714     24585.47514      1537.91014        25.50014
G31  21193924.35114    -35913.37114     -1305.18914        24.50014
C30  23954272.10213   -107909.83913     -3869.24313        23.30013
R10  20811471.91814    377993.28814      1711.92514        25.10014
C36  23768123.77014   -565792.31614     -4014.63114        24.70014
R09  19068872.19414    -46248.53114     -1373.55214        24.10014
C29  21423008.66013  30983629.25013     -1186.35113        23.40013
> 2025 05 03 08 04 00.0000000  0 10                      
G29  20699794.43115   -128165.89615     -2483.57115        30.90015
G28  21419535.56415   -621376.68415     -2995.82215        29.50015
G18  21965621.61714     26129.16914      1536.45014        25.80014
G25  21938412.75314   -845775.51914     -3986.56214        25.40014
G31  21193947.73514    -37212.02114     -1305.08714        24.40014
C30  23954792.84215   -111767.17015     -3860.07815        32.70015
R10  20810917.60214    379781.16114      1713.92314        25.40014
C36  23768685.88114   -569801.05514     -4014.38114        24.60014
R09  19068915.66414    -47647.45014     -1375.48514        24.00014
C29  21423011.65813  30982451.94513     -1182.08213        23.40013
> 2025 05 03 08 04 01.0000000  0 11                      
G29  20700024.37115   -130644.10115     -2484.76215        30.80015
G28  21419854.84314   -624364.18014     -2994.23814        29.40014
G18  21965090.38414     27677.72214      1545.13614        25.80014
G25  21938939.78814   -849755.49914     -3985.84614        25.40014
G31  21193951.03314    -38513.20914     -1308.30014        24.30014
C30  23955299.19115   -115628.08115     -3868.49015        32.40015
R10  20810379.17414    381388.99414      1712.37914        25.80014
C36  23769215.31514   -573809.75614     -4014.47014        25.50014
R16  21916446.95914   -245548.25714     -4731.30514        25.30014
R09  19068946.24314    -49076.97114     -1375.20214        23.90014
C29  21423004.76213  30981275.15413     -1183.53113        23.40013
> 2025 05 03 08 04 02.0000000  0 11                      
G29  20700253.71315   -133122.12415     -2483.79315        30.80015
G28  21420192.70914   -627348.91914     -2989.22214        29.30014
G18  21964566.34714     29231.73914      1550.88514        25.80014
G25  21939458.72914   -853735.81914     -3986.35014        25.40014
G31  21193958.22814    -39817.76014     -1312.09614        25.10014
C30  23955807.34015   -119487.37115     -3864.28615        32.10015
C36  23769747.14615   -577816.44715     -4011.49315        30.80015
R10  20809791.88114    383253.86214      1709.21814        26.20014
R16  21917122.99114   -250427.64514     -4718.31014        25.20014
R09  19068944.14514    -50333.81514     -1382.93914        23.80014
C29  21422993.97013  30980095.97913     -1185.16913        23.30013
> 2025 05 03 08 04 03.0000000  0 11                      
G29  20700491.44815   -135595.68215     -2477.18715        30.70015
G28  21420524.57914   -630332.96514     -2989.56014        29.30014
G18  21964020.42514     30787.47814      1550.73514        25.70014
G31  21193970.22014    -41126.45814     -1316.63214        25.20014
G25  21939975.57114   -857717.82114     -3988.70314        25.30014
C30  23956311.29115   -123345.91215     -3863.97315        31.90015
C36  23770279.57815   -581822.47215     -4011.49815        30.70015
R10  20809251.05514    384873.13814      1712.51614        26.70014
R16  21917798.12414   -255300.16914     -4698.87614        25.00014
C29  21422977.18213  30978919.17913     -1179.48013        23.20013
R09  19068954.93714    -51657.12914     -1382.76714        23.70014
> 2025 05 03 08 04 04.0000001  0 11                      
G29  20700757.06415   -138070.56615     -2481.40815        30.70015
G28  21420886.12914   -633315.05414     -2986.97314        29.40014
G18  21963519.17214     32338.41014      1542.66314        26.20014
G31  21194007.99414    -42432.99314     -1311.31714        25.50014
G25  21940524.49114   -861700.03214     -3988.17614        25.20014
C30  23956838.92615   -127202.25315     -3861.04915        31.70015
C36  23770848.28415   -585830.97015     -4015.54315        30.60015
R10  20808717.12514    386615.20914      1709.37214        27.30014
R16  21918466.06214   -259973.98714     -4711.02414        24.90014
C29  21423003.86313  30977746.52213     -1178.93413        23.30013
R09  19069029.28614    -53160.76514     -1384.10414        23.50014
> 2025 05 03 08 04 05.0000000  0 11                      
G29  20700987.60415   -140547.09515     -2483.26815        30.60015
G28  21421205.40815   -636297.18215     -2988.06315        29.50015
G18  21962983.14314     33889.46014      1545.19014        26.40014
G31  21194008.59314    -43737.38514     -1309.23814        25.60014
G25  21941034.13814   -865680.54714     -3985.58214        25.20014
C30  23957326.98815   -131061.72215     -3866.89415        31.40015
C36  23771364.22715   -589838.59115     -4013.04215        30.50015
R10  20808150.81714    388308.50414      1711.04414        27.60014
R16  21919061.45014   -264483.43214     -4729.71614        24.80014
C29  21422975.68314  30976573.72814     -1179.22314        23.50014
R09  19069029.58613    -54489.39013     -1388.33113        23.40013
> 2025 05 03 08 04 06.0000001  0 11                      
G28  21421564.26015   -639278.33215     -2986.50315        29.50015
G18  21962483.08914     35436.21614      1538.76414        26.60014
G31  21194048.46614    -45042.71314     -1311.63914        26.20014
G25  21941580.66014   -869660.80514     -3985.97214        25.10014
G29  20701241.82815   -143023.03215     -2481.48415        29.90015
C30  23957868.41315   -134922.29915     -3866.92015        31.10015
R16  21919736.58214   -269196.21614     -4724.63414        25.70014
C36  23771935.93115   -593852.37015     -4022.64815        30.30015
R10  20807624.38114    390009.38514      1705.44614        27.60014
C29  21422989.47314  30975402.31314     -1176.47714        23.60014
R09  19069109.93013    -56024.34813     -1387.73813        23.20013
> 2025 05 03 08 04 06.9999998  0 10                      
G18  21961852.92614     36984.51114      1543.20014        29.30014
G28  21421793.90115   -642262.33015     -2991.28215        29.50015
G29  20701392.32414   -145498.53714     -2481.14914        29.30014
G31  21193972.61814    -46347.16714     -1309.87914        26.60014
G25  21942015.35914   -873642.42514     -3988.16114        25.70014
R16  21920289.10015   -273893.71515     -4722.16615        35.10015
C30  23958276.13115   -138784.77715     -3869.23515        31.00015
R10  20806966.03714    391775.86714      1708.60014        27.50014
C29  21422887.54414  30974234.27014     -1175.29114        23.60014
R09  19069009.49913    -57234.58313     -1383.30013        23.10013
> 2025 05 03 08 04 08.0000000  0 11                      
G18  21961405.63515     38532.42315      1541.80115        32.60015
G28  21422204.91615   -645246.40415     -2990.02915        29.60015
G31  21194067.95214    -47655.95914     -1316.87814        26.80014
G25  21942612.24614   -877623.05314     -3986.04614        26.40014
G29  20701700.51114   -147973.90114     -2481.21014        28.70014
R16  21921026.28915   -278680.60215     -4723.44815        34.90015
C30  23958865.22315   -142645.53715     -3865.76215        30.90015
R10  20806495.66314    393437.12714      1709.07614        27.40014
C29  21422951.39914  30973064.91814     -1177.22214        23.60014
R09  19069130.01613    -58725.95413     -1385.58913        23.10013
C36  23772979.50914   -601871.72314     -4010.66714        28.20014
> 2025 05 03 08 04 09.0000001  0 11                      
G18  21960905.58115     40077.98715      1538.54315        32.40015
G28  21422572.76115   -648234.09815     -2995.34715        29.80015
G31  21194105.72614    -48966.50414     -1317.26514        27.30014
G25  21943159.06714   -881605.78614     -3989.62814        26.70014
G29  20701961.03114   -150449.01514     -2480.83214        28.10014
R16  21921704.72015   -283410.20315     -4724.33315        34.50015
C30  23959403.05015   -146505.25615     -3864.98815        30.90015
R10  20805927.25614    395363.01314      1710.14514        27.30014
C29  21422973.28414  30971892.37414     -1177.10314        23.60014
R09  19069177.68313    -60087.47413     -1388.03313        23.10013
C36  23773539.82114   -605875.65714     -4009.74114        26.70014
> 2025 05 03 08 04 09.9999998  0 11                      
G18  21960280.81415     41624.46715      1541.07415        32.00015
G28  21422814.69415   -651221.43015     -2993.01015        29.80015
G25  21943591.36814   -885591.72114     -3993.39614        27.30014
G31  21194026.88114    -50270.92914     -1307.22814        27.40014
G29  20702094.73814   -152927.15614     -2485.51614        27.70014
C30  23959818.86315   -150366.89315     -3868.40315        30.90015
R16  21922258.73615   -288117.64315     -4730.03015        33.70015
R10  20805312.68214    396896.10414      1715.09514        27.20014
R09  19069098.83813    -61412.31513     -1390.00613        23.30013
C36  23773991.90814   -609884.70314     -4017.40814        25.90014
C29  21422866.85814  30970716.46514     -1186.50914        23.50014
> 2025 05 03 08 04 10.9999999  0 11                      
G28  21423178.34215   -654207.58715     -2991.43215        29.80015
G18  21959773.26515     43169.37415      1538.25515        31.60015
G25  21944142.68614   -889579.30314     -3994.26514        27.80014
G31  21194066.15314    -51579.58514     -1316.63314        27.40014
G29  20702368.74814   -155404.98814     -2483.53814        27.40014
C30  23960351.29415   -154226.22215     -3863.98215        30.80015
R10  20804768.25914    398693.85314      1715.81114        27.10014
R16  21922954.55415   -292939.73315     -4733.44315        32.40015
R09  19069155.79814    -62822.73214     -1382.16314        23.90014
C36  23774553.71914   -613899.78114     -4023.90114        25.30014
C29  21422891.74113  30969533.64513     -1189.41913        23.40013
> 2025 05 03 08 04 11.9999999  0 11                      
G25  21944671.82014   -893566.62114     -3993.04714        28.80014
G28  21423506.01515   -657197.08715     -2997.03215        29.80015
G18  21959237.83615     44708.44315      1530.28615        31.10015
G29  20702609.48214   -157883.93814     -2485.37114        27.40014
G31  21194076.34614    -52887.27614     -1313.07114        27.40014
C30  23960856.14415   -158085.28615     -3864.73715        30.70015
R10  20804230.73114    400296.34814      1713.04414        27.00014
R16  21923622.19215   -297773.27915     -4738.86215        30.80015
R09  19069182.77914    -64231.62214     -1386.77014        23.90014
C36  23775079.25514   -617920.39814     -4029.19414        24.90014
C29  21422883.04713  30968351.64013     -1187.82913        23.20013
> 2025 05 03 08 04 12.9999999  0 11                      
G25  21945213.84515   -897557.73915     -3998.93415        33.10015
G28  21423860.67015   -660186.18115     -2994.80615        29.70015
G18  21958731.48715     46241.91215      1524.74915        30.70015
G29  20702860.10814   -160363.51814     -2485.81114        27.80014
G31  21194100.03014    -54196.73314     -1316.25714        27.40014
C30  23961378.08315   -161947.11615     -3869.07515        30.50015
R10  20803673.71614    402098.71314      1713.95014        27.10014
R09  19069212.45914    -65557.95614     -1387.35914        23.90014
R16  21924217.28014   -302120.68414     -4733.52114        29.30014
C36  23775636.27014   -621945.65014     -4033.43014        24.60014
C29  21422893.53913  30967167.57313     -1190.08213        23.10013
> 2025 05 03 08 04 13.9999999  0 11                      
G25  21945737.58215   -901551.60415     -4001.07915        32.90015
G28  21424184.44615   -663174.00015     -2993.02515        29.60015
G29  20703104.43914   -162842.63214     -2484.72514        28.20014
G31  21194109.92314    -55504.48914     -1312.75014        27.50014
G18  21958196.65714     47769.95014      1519.47614        28.80014
C30  23961884.13315   -165812.17015     -3872.45415        30.30015
R10  20803108.30814    403848.41314      1718.91314        27.40014
R09  19069261.92514    -67089.09214     -1383.41314        23.90014
C36  23776171.39914   -625975.53114     -4037.98414        24.30014
R16  21924872.02714   -306883.92014     -4742.66414        28.00014
C29  21422886.94413  30965984.84713     -1187.51013        22.90013
> 2025 05 03 08 04 14.9999999  0 11                      
G25  21946272.71215   -905544.59715     -3998.41815        32.40015
G28  21424517.51515   -666161.94215     -2993.86515        29.50015
G29  20703342.17414   -165323.85514     -2488.13714        28.20014
G31  21194134.80614    -56810.85414     -1311.53214        27.80014
G18  21957674.11914     49302.59514      1529.08414        27.50014
R10  20802550.69414    405557.68714      1716.95014        27.40014
R09  19069245.73614    -68268.00414     -1388.51614        23.90014
C30  23962389.58314   -169674.21914     -3866.35414        29.10014
C36  23776703.53114   -630005.85814     -4036.35714        24.00014
R16  21925517.78014   -311600.52414     -4737.27414        26.90014
C29  21422880.64813  30964801.39313     -1189.35513        22.80013
> 2025 05 03 08 04 15.9999999  0 11                      
G25  21946788.95415   -909538.23215     -3999.81515        31.90015
G28  21424844.28914   -669156.35414     -3003.50714        29.40014
G29  20703571.51614   -167802.31414     -2482.93914        28.20014
G31  21194142.90014    -58119.39814     -1315.49514        27.90014
G18  21957146.48414     50839.08914      1532.55414        27.10014
C30  23962897.43114   -173534.20514     -3864.76214        28.30014
R10  20802009.86814    407176.96414      1715.79214        27.40014
R09  19069295.80114    -69802.19814     -1388.96714        23.80014
C36  23777249.75314   -634030.60014     -4027.75514        23.80014
R16  21926186.61714   -316438.66014     -4742.07814        26.00014
C29  21422879.14913  30963617.01813     -1189.94913        22.70013
> 2025 05 03 08 04 16.9999999  0 12                      
G25  21947322.88515   -913536.80615     -4006.96015        31.40015
G28  21425193.24714   -672146.29214     -2993.61814        29.30014
G29  20703823.64114   -170283.76114     -2488.85714        28.20014
G31  21194170.18114    -59423.37114     -1307.60514        27.90014
G18  21956638.03614     52372.30314      1525.65514        27.00014
G12  25333636.38824                     -4604.63824        24.70024
C30  23963420.26914   -177398.88714     -3872.89214        28.30014
R10  20801463.64614    408922.12814      1727.95114        27.30014
R09  19069350.66314    -71263.00714     -1390.13714        23.80014
C36  23777809.76514   -638058.10314     -4034.74614        23.70014
R16  21926857.55214   -321192.68914     -4744.33714        25.30014
C29  21422872.85413  30962434.34113     -1186.57113        22.60013
> 2025 05 03 08 04 17.9999999  0 12                      
G25  21947843.62415   -917541.00815     -4012.85615        30.90015
G28  21425524.51814   -675135.32514     -2994.42314        29.10014
G29  20704056.28014   -172768.43314     -2492.12714        28.20014
G31  21194174.07914    -60723.79614     -1304.49514        27.80014
G12  25334261.75614     -4599.64314     -4607.68714        27.00014
G18  21956103.50614     53894.05414      1510.17214        26.90014
C30  23963923.02114   -181264.52614     -3871.90514        28.20014
R10  20800929.41614    410507.08114      1729.57614        27.20014
R09  19069356.06014    -72558.05114     -1388.90114        23.70014
C36  23778345.49414   -642091.45514     -4042.06414        23.60014
R16  21927503.60514   -325909.30014     -4756.41414        24.80014
C29  21422859.96313  30961254.43113     -1184.04313        22.50013
> 2025 05 03 08 04 19.0000000  0 12                      
G25  21948401.23815   -921552.00515     -4020.25615        30.60015
G29  20704319.49814   -175248.57814     -2483.74414        28.20014
G28  21425887.56714   -678123.01414     -2992.87814        29.00014
G31  21194217.54914    -62021.71614     -1302.53014        27.80014
G12  25334908.10814     -9208.36114     -4614.57714        26.90014
G18  21955614.84414     55414.39314      1513.76914        26.60014
C30  23964458.45114   -185129.30114     -3870.15214        28.00014
R10  20800386.19214    412297.96714      1724.69714        27.20014
C36  23778906.70514   -646129.92514     -4046.83714        23.60014
R09  19069404.32614    -73920.33614     -1396.90214        23.60014
R16  21928196.12614   -330714.57314     -4759.85514        24.40014
C29  21422881.84813  30960077.25113     -1181.13613        22.50013
> 2025 05 03 08 04 20.0000000  0 12                      
G18  21955076.71714     56937.50714      1518.63714        27.80014
G25  21948937.86715   -925568.66015     -4025.34315        30.30015
G29  20704559.33214   -177729.43914     -2487.07914        28.50014
G31  21194227.74114    -63321.49814     -1306.57514        27.80014
G28  21426221.83514   -681110.14914     -2992.71814        28.80014
G12  25335561.05614    -13822.98814     -4623.44214        26.70014
R10  20799801.59714    414150.63814      1734.57814        27.10014
C30  23964974.39314   -188994.78314     -3871.64114        27.80014
C36  23779458.02414   -650169.28014     -4045.60314        23.50014
R16  21928803.20514   -335224.82214     -4770.12714        24.10014
R09  19069431.00814    -75329.23014     -1403.68614        23.50014
C29  21422871.65513  30958900.49013     -1184.21413        22.50013
> 2025 05 03 08 04 20.9999999  0 12                      
G18  21954535.89115     58459.17515      1515.02715        31.80015
G31  21194229.84014    -64617.94514     -1300.69614        28.60014
G25  21949452.61015   -929593.96015     -4035.53815        30.00015
G29  20704779.67914   -180212.26914     -2489.73214        28.70014
G28  21426537.21714   -684100.64114     -2998.08614        28.60014
G12  25336214.00414    -18446.42014     -4633.74814        26.60014
R10  20799222.39814    415912.58214      1744.05314        27.00014
C30  23965467.55214   -192863.77614     -3876.60914        27.50014
C36  23779982.96014   -654212.85314     -4051.54414        23.50014
R16  21929497.82514   -340263.94414     -4778.14514        23.80014
R09  19069469.38113    -76862.62313     -1411.34313        23.40013
C29  21422853.36713  30957723.51913     -1181.63813        22.40013
> 2025 05 03 08 04 22.0000000  0 12                      
G18  21954038.83515     59974.39715      1506.15115        31.60015
G31  21194271.21114    -65914.47214     -1302.41214        29.00014
G25  21950013.52215   -933619.46315     -4031.44615        29.70015
G29  20705046.49514   -182695.92514     -2489.91114        28.70014
G28  21426900.86514   -687089.89214     -2994.47414        28.30014
G12  25336911.92114    -23077.77114     -4641.15214        26.40014
R10  20798677.07514    417715.67414      1747.98214        27.00014
C30  23965990.09014   -196736.65114     -3880.60614        27.20014
R09  19069484.67013    -78049.93113     -1394.13713        23.30013
C36  23780560.96013   -658260.16713     -4054.97313        23.40013
R16  21930189.74614   -345066.15414     -4781.73214        23.60014
C29  21422864.16013  30956547.07613     -1184.28813        22.30013
> 2025 05 03 08 04 23.0000000  0 12                      
G18  21953521.39315     61489.08415      1508.55615        31.20015
G31  21194277.80714    -67209.61514     -1300.31214        29.20014
G29  20705284.83014   -185181.49414     -2492.38814        28.60014
G25  21950546.85314   -937641.97214     -4026.87114        29.40014
G28  21427233.03514   -690080.95314     -2997.82714        28.10014
G12  25337553.47714    -27713.25214     -4643.40614        26.30014
R10  20798125.45714    419392.91014      1743.72714        26.90014
C30  23966499.73714   -200610.64914     -3880.36514        27.00014
R16  21930856.78414   -349895.11414     -4772.13414        23.50014
C36  23781097.58913   -662310.03713     -4056.95413        23.40013
R09  19069497.56213    -79385.46813     -1384.98613        23.20013
C29  21422851.56813  30955369.70313     -1183.38913        22.10013
> 2025 05 03 08 04 24.0000000  0 11                      
G18  21953012.34615     63003.26215      1508.00415        30.90015
G31  21194309.58514    -68501.61314     -1296.34414        29.20014
G25  21951093.37414   -941665.45614     -4029.88814        29.20014
G28  21427578.09614   -693072.63914     -2997.91614        28.00014
G12  25338219.31614    -32348.94614     -4641.71514        26.10014
R10  20797566.94414    421202.90514      1743.33614        26.90014
C30  23967036.66614   -204482.15814     -3876.12714        26.80014
C36  23781658.20113   -666360.85513     -4057.15413        23.30013
R16  21931528.61913   -354652.19213     -4773.83213        23.40013
R09  19069542.23113    -80792.02713     -1383.38013        23.20013
C29  21422862.06113  30954192.18113     -1183.92913        22.00013
> 2025 05 03 08 04 25.0000000  0 10                      
G31  21194316.78014    -69793.27814     -1297.34114        29.10014
G18  21952482.91215     64520.14515      1512.39015        30.40015
G28  21427921.65914   -696064.36414     -2997.58614        27.80014
G12  25338855.17614    -36986.82314     -4644.80914        25.90014
R10  20797024.02014    422833.61814      1746.63514        26.90014
C30  23967549.01114   -208346.89614     -3867.14214        26.60014
R16  21932149.18914   -359233.51214     -4773.24214        23.60014
C36  23782184.33614   -670416.87714     -4064.41314        23.60014
R09  19069569.81213    -82204.74213     -1393.61313        23.10013
C29  21422848.87013  30953012.38113     -1187.87513        21.90013
> 2025 05 03 08 04 26.0000000  0 10                      
G18  21951963.37215     66039.62615      1514.91515        29.80015
G31  21194324.57414    -71083.95814     -1296.05014        28.90014
G28  21428249.63114   -699059.39514     -3002.54514        27.80014
G12  25339494.03314    -41616.65914     -4631.67514        25.70014
R10  20796450.81714    424626.02314      1732.81314        26.90014
C30  23968047.86614   -212212.28314     -3871.51814        26.40014
C36  23782723.06314   -674476.65314     -4067.46014        24.00014
R16  21932833.01614   -364154.19914     -4780.54614        24.00014
R09  19069584.20213    -83547.92313     -1402.21113        23.10013
C29  21422848.87013  30951826.74313     -1194.15213        21.80013
> 2025 05 03 08 04 27.0000000  0 11                      
G18  21951442.93215     67553.57715      1505.32215        29.50015
G31  21194328.17214    -72379.69814     -1304.13214        28.80014
G28  21428603.98614   -702060.06014     -3009.34214        27.70014
G12  25340130.49314    -46241.58714     -4628.33214        25.70014
G25  21952680.77514   -953728.75914     -4026.84214        24.10014
R10  20795865.32214    426483.27214      1743.77214        26.80014
C30  23968539.22614   -216081.66014     -3877.17714        26.20014
C36  23783270.48414   -678532.32114     -4059.42014        24.50014
R16  21933495.85714   -368960.99714     -4777.51414        24.60014
R09  19069610.88313    -84955.28513     -1394.74413        23.00013
C29  21422836.57913  30950637.53813     -1196.69213        21.70013
> 2025 05 03 08 04 28.0000000  0 12                      
G18  21950944.37715     69062.24515      1500.10615        29.50015
G31  21194355.15314    -73680.05614     -1308.58514        28.70014
G28  21428947.84814   -705057.06514     -3001.09214        27.60014
G29  20706509.48214     -4966.15314     -2491.02014        25.50014
G12  25340784.64014    -50867.52614     -4632.36014        25.60014
G25  21953214.40614   -957750.81514     -4027.95414        24.60014
C36  23783832.89514   -682586.05814     -4058.63414        26.50014
R10  20795348.48014    428071.31214      1742.94714        26.70014
C30  23969074.95514   -219952.08714     -3876.81414        26.00014
R16  21934169.19114   -373725.71514     -4775.89514        24.80014
R09  19069645.65913    -86310.65213     -1396.27713        22.90013
C29  21422845.87213  30949443.93213     -1199.81113        21.70013
> 2025 05 03 08 04 29.0000000  0 12                      
G31  21194366.24614    -74981.67314     -1308.09014        28.90014
G18  21950416.14314     70571.92914      1504.34714        29.40014
G28  21429272.52314   -708050.62114     -2997.67314        27.80014
G29  20706740.02214     -7451.21214     -2490.92014        26.30014
G12  25341428.29414    -55492.00714     -4629.59314        25.50014
G25  21953750.73514   -961774.42414     -4030.22614        25.20014
C36  23784374.02015   -686642.77815     -4063.99915        29.50015
R10  20794787.26814    429799.64914      1741.09614        26.60014
C30  23969577.10714   -223821.68714     -3874.97614        25.90014
R16  21934790.36114   -378310.09614     -4772.77214        25.10014
R09  19069687.63013    -87799.76713     -1394.23713        22.90013
C29  21422833.88113  30948252.16413     -1195.91313        21.80013
> 2025 05 03 08 04 30.0000001  0 12                      
G31  21194408.21715    -76280.13615     -1302.74915        31.00015
G18  21949929.28014     72082.24114      1504.76114        29.20014
G28  21429628.07714   -711044.87714     -3000.46814        28.10014
G29  20707000.84214     -9934.75514     -2488.64814        26.30014
G12  25342102.52714    -60113.77214     -4626.26814        25.40014
G25  21954301.15414   -965794.78414     -4024.59614        25.10014
R10  20794245.24414    431585.19714      1735.59014        26.60014
C30  23970114.03514   -227689.06514     -3872.07514        25.90014
C36  23784949.62214   -690704.60614     -4070.19014        28.90014
R16  21935463.69414   -383013.71114     -4777.46114        25.40014
C29  21422862.36113  30947062.83513     -1196.32313        22.40013
R09  19069742.49213    -89197.96113     -1397.71513        22.80013
> 2025 05 03 08 04 30.9999998  0 12                      
G31  21194325.77415    -77583.90515     -1312.28515        31.00015
G18  21949300.01614     73594.63314      1507.56814        29.00014
G28  21429880.20314   -714041.02314     -3002.95014        28.30014
G29  20707142.64314    -12416.67214     -2486.96514        26.20014
G12  25342664.93814    -64736.20914     -4628.63114        25.30014
G25  21954738.25114   -969811.54214     -4020.81614        25.00014
C30  23970532.24614   -231559.79514     -3878.21214        29.10014
R10  20793581.20314    433382.18814      1746.53414        26.50014
R16  21936051.88714   -387903.05414     -4779.10914        25.40014
C36  23785395.71314   -694765.51014     -4066.24714        28.20014
C29  21422764.02913  30945872.07613     -1198.44013        22.40013
R09  19069616.87913    -90273.72513     -1407.43413        22.60013
> 2025 05 03 08 04 32.0000001  0 12                      
G31  21194455.28415    -78884.74915     -1305.29815        31.70015
G18  21948885.10314     75102.02514      1498.97314        28.90014
G28  21430319.99814   -717039.16014     -3005.05114        28.30014
G29  20707493.10114    -14900.69514     -2490.99214        26.10014
G12  25343418.01714    -69361.56814     -4632.73514        25.20014
G25  21955387.60114   -973830.50014     -4025.97514        24.80014
C30  23971144.72215   -235433.65115     -3881.28115        31.60015
R16  21936827.45014   -392733.50514     -4774.42914        25.90014
R10  20793155.19814    434964.88514      1737.05814        26.40014
C36  23786045.66314   -698823.88014     -4062.96614        27.50014
C29  21422858.76313  30944678.90913     -1196.33213        22.40013
R09  19069793.15713    -91903.38713     -1403.76913        22.50013
> 2025 05 03 08 04 32.9999998  0 12                      
G31  21194378.53715    -80186.53415     -1308.09915        32.00015
G18  21948277.72414     76613.77614      1508.08514        28.80014
G28  21430565.52814   -720033.22214     -2997.86614        28.50014
G29  20707642.09814    -17387.12514     -2493.47814        26.10014
G12  25343972.33314    -73990.42014     -4636.43914        25.10014
G25  21955819.90214   -977854.78414     -4032.78714        24.70014
C30  23971571.32615   -239306.75815     -3878.52015        31.50015
R16  21937382.36614   -397446.29214     -4778.11414        26.20014
R10  20792508.54614    436668.05914      1734.86914        26.30014
C36  23786505.84514   -702883.31414     -4065.75314        27.00014
C29  21422763.72913  30943487.83813     -1197.54413        22.70013
R09  19069746.38913    -93400.90813     -1405.38313        22.50013
> 2025 05 03 08 04 33.9999998  0 12                      
G31  21194389.03015    -81489.11715     -1308.84315        31.90015
G18  21947751.88814     78126.21714      1506.92014        28.80014
G28  21430903.99414   -723025.83514     -2997.74914        28.50014
G29  20707872.63814    -19875.44714     -2495.12914        26.10014
G12  25344607.29314    -78621.17914     -4637.57214        25.00014
G25  21956345.43814   -981882.72414     -4035.62814        24.60014
C30  23972067.18315   -243177.43815     -3875.27415        31.30015
R16  21938038.61214   -402218.69614     -4776.34714        26.50014
R10  20791923.65114    438521.48714      1737.45714        26.20014
C36  23787038.57614   -706941.38614     -4063.19914        26.60014
C29  21422750.23913  30942298.52913     -1193.76013        22.70013
R09  19069751.48613    -94694.42813     -1407.40013        22.50013
> 2025 05 03 08 04 34.9999999  0 12                      
G31  21194429.20215    -82791.15415     -1307.62615        31.80015
G28  21431269.14114   -726021.54814     -3003.12514        28.50014
G18  21947256.63014     79637.19714      1504.38614        28.70014
G29  20708130.75914    -22367.98814     -2500.51214        26.00014
G12  25345271.63414    -83250.47314     -4634.42114        24.90014
G25  21956907.54914   -985912.25214     -4036.18314        24.50014
C30  23972598.11615   -247047.38015     -3875.38015        31.00015
R16  21938720.64014   -406967.40314     -4777.82014        26.70014
R10  20791345.65114    440498.47314      1736.34314        26.10014
C36  23787616.57614   -710998.40014     -4062.29114        26.30014
C29  21422778.71913  30941108.92113     -1197.93413        22.70013
R09  19069825.53413    -96196.53213     -1412.30613        22.50013
> 2025 05 03 08 04 35.9999999  0 12                      
G31  21194435.79715    -84093.78015     -1308.78315        32.50015
G28  21431602.51014   -729019.60914     -3005.09514        28.60014
G18  21946740.68814     81146.60014      1502.75014        28.60014
G29  20708377.78814    -24858.64014     -2495.56914        26.00014
G12  25345908.09314    -87879.92014     -4635.38314        24.70014
G25  21957437.28214   -989941.32214     -4034.70114        24.40014
C30  23973097.27015   -250917.19015     -3875.55015        30.90015
R16  21939400.56914   -411866.68614     -4781.49014        26.70014
R10  20790817.11714    442052.91914      1737.08314        26.00014
C36  23788165.19614   -715051.73514     -4057.30214        26.00014
C29  21422772.42313  30939918.77813     -1194.83713        22.80013
R09  19069847.12013    -97577.15113     -1408.54013        22.70013
> 2025 05 03 08 04 36.9999999  0 12                      
G31  21194463.67825    -85397.32625     -1309.92325        32.70025
G28  21431946.97214   -732018.75514     -3005.60414        28.90014
G18  21946225.64414     82657.03514      1505.03214        28.50014
G29  20708627.51514    -27345.98514     -2491.60714        26.00014
G12  25346576.63014    -92506.73414     -4631.41414        24.60014
G25  21957981.40614   -993967.59814     -4030.79414        24.30014
C30  23973617.41015   -254791.52915     -3882.46615        30.70015
R16  21940062.21114   -416568.73714     -4782.65214        26.60014
R10  20790273.29314    443785.87614      1738.22314        26.10014
C36  23788733.00314   -719107.33114     -4062.58914        25.80014
C29  21422780.81713  30938729.16113     -1197.05213        22.80013
R09  19069862.40913    -98826.31113     -1401.25413        22.70013
> 2025 05 03 08 04 37.9999999  0 12                      
G31  21194483.46425    -86703.58625     -1313.46025        32.90025
G28  21432276.14414   -735019.37214     -3007.19514        29.00014
G18  21945701.90714     84167.23814      1504.24014        28.40014
G29  20708873.34514    -29830.42814     -2488.83614        25.90014
G25  21958517.43514   -997998.19114     -4038.59314        24.30014
G12  25347214.88814    -97130.90114     -4628.68314        24.50014
C30  23974130.05515   -258664.38215     -3877.89715        30.60015
R10  20789705.18714    445550.82514      1734.78014        26.30014
R16  21940743.33914   -421473.36514     -4775.93314        26.60014
C36  23789270.23114   -723160.76014     -4058.13414        25.70014
R09  19069917.57113   -100388.01413     -1401.25513        22.80013
C29  21422766.42713  30937538.73713     -1196.15613        22.70013
> 2025 05 03 08 04 38.9999999  0 12                      
G31  21194490.06015    -88011.95115     -1315.28115        32.90015
G18  21945174.57214     85679.84514      1507.94514        28.60014
G28  21432623.60314   -738019.98914     -3006.47714        29.00014
G29  20709113.47914    -32314.99114     -2490.48314        25.80014
G25  21959046.26914  -1002028.58714     -4036.15814        24.20014
G12  25347865.73814   -101750.53214     -4623.22314        24.30014
C30  23974645.99815   -262535.34215     -3875.82115        30.50015
R10  20789136.18114    447318.82414      1725.33314        26.30014
R16  21941360.31214   -426036.33614     -4775.87714        26.50014
C36  23789813.75514   -727213.97814     -4058.91914        25.60014
R09  19069954.14513   -101848.86113     -1412.19813        22.80013
C29  21422759.23213  30936348.08613     -1198.52413        22.60013
> 2025 05 03 08 04 39.9999999  0 12                      
G31  21194507.74815    -89326.70115     -1323.80315        32.90015
G18  21944647.53714     87198.15914      1515.30314        29.10014
G28  21432956.67314   -741021.92614     -3008.45814        28.90014
G29  20709346.71814    -34805.32614     -2499.08414        25.70014
G25  21959574.50314  -1006054.29514     -4029.22514        24.20014
G12  25348505.79514   -106368.10114     -4622.39714        24.20014
C30  23975152.64715   -266406.34315     -3876.82915        30.40015
R10  20788568.97314    449079.19614      1717.57714        26.30014
C36  23790341.68914   -731259.28014     -4047.15114        25.70014
R16  21942035.74514   -430911.15314     -4768.35114        26.30014
R09  19069985.92313   -103283.72913     -1413.64713        22.80013
C29  21422753.23713  30935154.56013     -1201.08513        22.60013
> 2025 05 03 08 04 40.9999999  0 12                      
G31  21194534.12915    -90644.53215     -1325.29015        32.80015
G18  21944133.69215     88719.88815      1517.51815        29.50015
G28  21433311.32714   -744024.44014     -3008.71914        28.80014
G29  20709599.14314    -37295.71514     -2496.33214        25.60014
G12  25349166.83714   -110983.54014     -4620.28914        24.10014
G25  21960127.02014  -1010077.42214     -4027.75114        24.10014
C30  23975682.38015   -270277.45915     -3877.03315        30.40015
R10  20787990.67414    450995.20414      1715.46114        26.20014
R16  21942682.39714   -435532.93914     -4755.33914        26.20014
C36  23790909.79614   -735301.29314     -4046.23014        25.70014
R09  19070009.30713   -104577.21013     -1414.61413        22.70013
C29  21422763.42913  30933960.54213     -1199.61613        22.50013
> 2025 05 03 08 04 41.9999999  0 12                      
G31  21194545.52115    -91963.01815     -1324.65815        32.70015
G18  21943612.95315     90240.56515      1514.30515        29.70015
G28  21433651.29214   -747029.76414     -3012.57114        28.60014
G29  20709839.27714    -39784.89214     -2494.41414        25.60014
G12  25349791.30514   -115592.11314     -4610.98114        24.10014
G25  21960645.96114  -1014092.85714     -4017.43214        24.00014
C30  23976187.23115   -274144.11215     -3870.21115        30.30015
R10  20787499.31414    452351.33914      1714.16214        26.10014
R16  21943355.13114   -440393.24114     -4759.41714        26.10014
C36  23791439.82914   -739342.12514     -4046.03014        25.60014
C29  21422759.83213  30932767.18513     -1200.66513        22.50013
R09  19070050.37913   -106062.50313     -1409.07013        22.70013
> 2025 05 03 08 04 43.0000000  0 12                      
G18  21943118.59515     91762.92715      1517.34015        29.70015
G28  21434027.23214   -750034.64914     -3010.52814        28.50014
G29  20710096.19914    -42277.15714     -2499.67014        25.60014
G31  21194582.99615    -93273.14515     -1311.80915        31.70015
G12  25350454.44614   -120195.43614     -4606.55914        24.30014
G25  21961193.08214  -1018101.89314     -4011.69714        24.00014
C30  23976712.76715   -278011.62615     -3873.75115        30.10015
R10  20786941.40014    454220.78314      1712.00914        26.10014
R16  21944020.07114   -445051.75614     -4756.63414        26.00014
C36  23792005.53714   -743376.69114     -4037.24114        25.60014
C29  21422771.82413  30931571.49413     -1201.60813        23.10013
R09  19070081.85713   -107336.15713     -1417.35213        22.60013
> 2025 05 03 08 04 44.0000000  0 12                      
G31  21194606.08015    -94593.85915     -1331.87015        30.90015
G18  21942590.06115     93282.90815      1512.92615        29.60015
G28  21434350.10814   -753039.92214     -3011.32714        28.30014
G29  20710332.43514    -44768.50914     -2496.75614        25.60014
G12  25351086.70814   -124796.40714     -4605.65314        24.30014
G25  21961712.92314  -1022110.02014     -4013.53314        24.00014
C30  23977218.51715   -281880.62515     -3875.55015        30.00015
R10  20786389.18214    455901.07514      1712.14014        26.30014
R16  21944696.70314   -449932.69114     -4750.87614        26.00014
C36  23792548.76114   -747411.97314     -4041.44614        25.60014
C29  21422766.72713  30930377.97313     -1197.46113        23.40013
R09  19070097.44613   -108685.44613     -1409.97713        22.60013
> 2025 05 03 08 04 45.0000000  0 12                      
G31  21194642.05515    -95923.18515     -1339.54815        30.60015
G18  21942086.11015     94805.59615      1518.12115        29.50015
G28  21434701.76514   -756048.44514     -3016.06414        28.10014
G29  20710595.35314    -47257.47614     -2493.69214        25.60014
G12  25351746.85114   -129391.27314     -4597.73014        24.40014
G25  21962260.64314  -1026116.91214     -4012.18914        24.00014
C30  23977753.34715   -285749.77315     -3875.08415        29.80015
R16  21945358.04514   -454633.20514     -4748.53114        26.10014
R10  20785845.35914    457634.79414      1710.92114        26.30014
C36  23793093.78414   -751443.69014     -4035.79614        25.50014
C29  21422786.81313  30929189.12713     -1196.06413        23.40013
R09  19070177.49113   -110280.72813     -1403.53013        22.70013
> 2025 05 03 08 04 46.0000000  0 12                      
G31  21194659.74215    -97253.76815     -1337.05615        30.50015
G18  21941564.17115     96333.26615      1524.31615        29.50015
G28  21435037.23314   -759056.58314     -3013.78814        27.90014
G29  20710836.08714    -49746.15114     -2494.37214        25.60014
G12  25352380.01314   -133978.81914     -4589.72614        25.00014
G25  21962791.27614  -1030116.17514     -4001.29114        24.10014
C30  23978261.49515   -289619.47215     -3875.76215        29.70015
R16  21945989.10814   -459271.08414     -4743.10214        26.30014
R10  20785288.34414    459339.48414      1705.02214        26.30014
C36  23793637.00814   -755472.00214     -4032.39914        25.50014
C29  21422772.72313  30927996.89113     -1198.24613        23.30013
R09  19070184.98613   -111587.23513     -1407.13513        22.80013
> 2025 05 03 08 04 47.0000000  0 12                      
G31  21194666.63815    -98582.84515     -1334.18615        30.30015
G18  21941024.84514     97863.51114      1525.66614        29.30014
G28  21435362.20814   -762065.98414     -3015.89314        27.80014
G29  20711084.61414    -52237.98914     -2499.28114        25.80014
G12  25353019.47014   -138568.10914     -4596.02314        25.20014
G25  21963315.31314  -1034114.45014     -4003.64114        24.30014
C30  23978765.14615   -293489.10115     -3875.40015        29.50015
R16  21946640.25714   -464015.21014     -4747.08614        26.70014
R10  20784741.52314    460990.03314      1697.61014        26.20014
C36  23794165.84214   -759495.76514     -4027.29514        25.40014
C29  21422764.02913  30926803.87113     -1199.46013        23.30013
R09  19070227.85613   -113081.70213     -1418.97213        22.80013
> 2025 05 03 08 04 48.0000000  0 12                      
G31  21194694.21915    -99910.51015     -1332.82115        30.00015
G18  21940494.81214     99393.54914      1524.07114        29.20014
G28  21435691.08014   -765071.76614     -3009.83314        27.70014
G29  20711316.65414    -54727.99714     -2494.95314        25.80014
G12  25353666.42214   -143160.58914     -4599.93414        25.20014
G25  21963830.05714  -1038115.68214     -4008.57114        24.40014
C30  23979269.69714   -297355.94914     -3871.26514        29.30014
R16  21947326.78214   -468948.88514     -4748.27314        26.70014
R10  20784197.69914    462625.32614      1707.81114        26.40014
C36  23794708.76614   -763517.64214     -4026.74114        25.40014
C29  21422761.03113  30925609.74813     -1201.41513        23.20013
R09  19070268.02813   -114562.41513     -1425.83013        22.80013
> 2025 05 03 08 04 49.0000001  0 12                      
G31  21194735.59015   -101240.42915     -1336.90915        29.90015
G18  21939990.56114    100919.34314      1517.80714        29.10014
G28  21436064.02214   -768076.93114     -3010.71814        27.60014
G29  20711584.06914    -57223.13214     -2503.56114        25.70014
G12  25354331.96114   -147754.71214     -4600.80414        25.20014
G25  21964381.97514  -1042118.10814     -4008.88314        24.50014
C30  23979802.12814   -301226.86714     -3878.76014        29.10014
R16  21947986.62514   -473579.89014     -4750.82414        26.60014
R10  20783661.37114    464381.12914      1704.67114        26.40014
C36  23795280.77014   -767542.11414     -4031.57714        25.30014
C29  21422783.81513  30924414.89013     -1200.39213        23.20013
R09  19070357.66613   -116147.03713     -1420.42813        22.70013
> 2025 05 03 08 04 50.0000000  0 12                      
G31  21194733.49115   -102569.76715     -1334.96415        29.70015
G18  21939458.42914    102442.62514      1516.10614        29.10014
G28  21436387.19814   -771087.46414     -3019.13314        27.60014
G29  20711806.81514    -59715.43814     -2496.80814        25.80014
G12  25354961.52514   -152357.14814     -4612.50714        25.20014
G25  21964897.61814  -1046124.79114     -4014.72614        24.50014
C30  23980301.58314   -305099.14914     -3878.82514        29.00014
R16  21948623.98414   -478314.04414     -4764.00414        26.50014
R10  20783089.96614    466100.35414      1707.61014        26.30014
C36  23795809.00414   -771569.39414     -4034.54414        25.20014
C29  21422767.62713  30923217.03813     -1206.94313        23.10013
R09  19070352.86913   -117450.44913     -1426.82213        22.60013
> 2025 05 03 08 04 51.0000000  0 12                      
G18  21938922.10014    103963.79914      1514.27514        29.30014
G31  21194755.07615   -103898.34115     -1334.03515        29.60015
G28  21436724.46414   -774095.55214     -3012.70814        28.00014
G29  20712033.45814    -62206.57514     -2496.39514        25.80014
G12  25355597.08514   -156966.04314     -4617.96614        25.20014
G25  21965424.65314  -1050134.84614     -4017.58314        24.40014
C30  23980806.43314   -308969.99214     -3875.91214        28.90014
R16  21949288.02414   -483127.71714     -4749.15814        26.40014
R10  20782524.85714    467849.29514      1710.48414        26.20014
C36  23796333.04114   -775603.79714     -4043.75414        25.30014
C29  21422750.53813  30922019.26613     -1202.05413        23.30013
R09  19070356.76713   -118737.08813     -1420.84013        22.50013
> 2025 05 03 08 04 52.0000001  0 12                      
G18  21938430.74014    105483.97314      1513.80914        29.40014
G31  21194792.85015   -105227.21915     -1334.89215        29.50015
G28  21437089.01214   -777104.45814     -3015.17714        28.30014
G29  20712289.78014    -64699.52314     -2499.71614        25.90014
G12  25356262.62514   -161573.63614     -4612.80214        25.20014
G25  21965993.35914  -1054145.63714     -4017.02014        24.60014
C30  23981340.66314   -312838.86414     -3873.69514        28.90014
R10  20781970.84114    469699.67114      1711.56314        26.10014
R16  21949937.97414   -487705.21914     -4754.93714        26.30014
C36  23796909.54214   -779643.48014     -4048.12914        25.50014
C29  21422774.22214  30920824.35814     -1200.63414        23.70014
R09  19070414.62713   -120151.32713     -1419.05013        22.50013
> 2025 05 03 08 04 53.0000000  0 12                      
G28  21437410.68915   -780114.42215     -3016.40715        34.00015
G18  21937895.01115    107000.29215      1508.47115        29.60015
G31  21194791.35114   -106555.82414     -1334.38614        29.40014
G29  20712518.22214    -67193.29514     -2500.10014        26.40014
G25  21966500.00814  -1058154.01914     -4013.09214        25.10014
G12  25356894.28714   -166182.00614     -4614.67314        25.20014
C30  23981837.12015   -316711.68515     -3880.65615        29.60015
R10  20781411.12814    471356.35614      1712.29514        26.00014
R16  21950594.81914   -492542.56214     -4763.12714        26.10014
C36  23797444.97214   -783688.59014     -4053.68614        25.50014
C29  21422750.53814  30919626.81114     -1206.04914        24.10014
R09  19070425.11913   -121534.96513     -1416.51513        22.50013
> 2025 05 03 08 04 54.0000001  0 12                      
G28  21437780.93316   -783124.00716     -3015.23916        36.40016
G18  21937400.65415    108514.47315      1507.26615        29.90015
G31  21194849.51114   -107884.80514     -1335.01314        29.30014
G29  20712795.83014    -69690.39614     -2504.60814        26.60014
G25  21967048.92814  -1062163.87314     -4016.43214        25.10014
G12  25357555.33014   -170796.17914     -4622.91614        25.10014
C30  23982367.15315   -320582.76015     -3875.99115        30.90015
R10  20780879.89614    473083.93714      1715.17914        25.90014
R16  21951308.32514   -497460.95414     -4781.83914        25.90014
C36  23798005.58414   -787738.36614     -4057.89714        25.40014
C29  21422776.02114  30918426.71214     -1204.98614        24.20014
R09  19070471.88713   -122891.13313     -1419.43613        22.50013
> 2025 05 03 08 04 54.9999998  0 12                      
G28  21438033.35816   -786136.24616     -3019.42716        36.10016
G18  21936795.67215    110025.47415      1503.54715        30.00015
G31  21194777.86114   -109209.40314     -1328.26914        29.20014
G29  20712954.12014    -72182.17114     -2494.97414        26.80014
G25  21967493.52114  -1066180.62014     -4026.05414        25.00014
G12  25358100.05314   -175417.20814     -4630.31714        25.00014
C30  23982786.26315   -324456.24215     -3880.49215        31.10015
R10  20780247.93414    474709.31814      1717.07714        25.80014
R16  21951862.94214   -502169.91914     -4771.82214        25.80014
C36  23798460.66914   -791788.24614     -4055.73914        25.30014
C29  21422683.08514  30917227.71114     -1205.53914        24.50014
R09  19070388.24513   -124189.99913     -1415.69613        22.60013
> 2025 05 03 08 04 55.9999999  0 12                      
G18  21936291.42115    111535.42415      1503.56115        30.10015
G28  21438403.60215   -789147.77115     -3017.03015        35.10015
G31  21194821.63014   -110533.92514     -1330.34514        29.20014
G29  20713218.23714    -74675.91914     -2500.59614        26.80014
G25  21968055.03214  -1070203.85114     -4032.33214        24.90014
G12  25358784.47914   -180040.12214     -4629.71714        24.90014
C30  23983318.99415   -328330.20715     -3880.01415        31.60015
R16  21952545.26914   -506921.68614     -4769.72114        25.70014
C29  21422706.16914  30916029.12414     -1203.58414        25.00014
R10  20779751.77714    476250.80114      1727.85014        25.70014
C36  23799026.07714   -795843.51214     -4063.76614        25.10014
R09  19070438.61013   -125565.27013     -1417.09813        22.60013
> 2025 05 03 08 04 56.9999999  0 12                      
G28  21438729.77615   -792160.08615     -3018.57015        34.20015
G18  21935761.68815    113042.23715      1499.37915        30.30015
G31  21194834.22214   -111855.09914     -1325.36414        29.20014
G29  20713448.17814    -77175.44214     -2508.27114        26.70014
G25  21968579.66914  -1074236.20914     -4042.78314        24.80014
G12  25359416.44114   -184664.24714     -4630.59014        24.70014
C30  23983824.74415   -332203.94015     -3879.42315        31.90015
R16  21953190.12314   -511632.18414     -4784.11214        25.80014
C29  21422696.87614  30914831.56514     -1204.33514        25.30014
R10  20779170.77914    478083.63914      1733.85014        25.50014
C36  23799556.71014   -799906.22114     -4072.23714        25.10014
R09  19070487.77613   -127094.11813     -1421.84613        22.50013
> 2025 05 03 08 04 57.9999999  0 12                      
G28  21439077.23615   -795171.76315     -3017.27515        33.70015
G18  21935261.63415    114546.29515      1496.76315        30.40015
G31  21194883.38814   -113173.88814     -1323.51314        29.20014
G29  20713716.19314    -79671.61514     -2500.41514        26.60014
G12  25360079.28214   -189286.23814     -4626.83814        24.50014
G25  21969131.58714  -1078275.14014     -4048.13214        24.70014
C30  23984361.97215   -336078.85315     -3881.36515        32.80015
R16  21953865.85514   -516411.43114     -4784.76814        26.00014
C29  21422708.26814  30913632.63814     -1204.35614        25.80014
C36  23800125.41614   -803973.48314     -4075.40014        25.00014
R10  20778604.47114    479937.10514      1734.67014        25.40014
R09  19070560.02613   -128647.37813     -1425.02913        22.50013
> 2025 05 03 08 04 58.9999999  0 12                      
G28  21439414.20225   -798184.69025     -3019.39425        33.40025
G18  21934740.59515    116047.38315      1493.75615        30.40015
G31  21194887.28514   -114492.89214     -1324.95614        29.30014
G29  20713953.32914    -82166.15514     -2499.56714        26.50014
G12  25360730.73114   -193910.72914     -4631.58214        24.40014
G25  21969657.72214  -1082317.78714     -4050.34714        24.50014
C30  23984862.02625   -339954.33925     -3881.56125        33.40025
C29  21422713.66414  30912431.22214     -1207.08514        26.00014
R16  21954530.79514   -521228.92814     -4788.25614        26.10014
R10  20778042.66014    481668.49514      1728.12514        25.30014
C36  23800667.14114   -808039.94914     -4071.85614        25.00014
R09  19070562.72413   -129927.90713     -1425.54013        22.50013
> 2025 05 03 08 04 59.9999999  0 11                      
G28  21439748.47125   -801197.84525     -3019.12925        33.20025
G18  21934224.95215    117548.29315      1494.95615        30.50015
G31  21194896.87815   -115812.70215     -1326.07415        29.80015
G29  20714178.47314    -84662.06714     -2502.45914        26.50014
G12  25361380.98114   -198537.19314     -4633.31014        24.30014
G25  21970185.05714  -1086359.02814     -4046.39814        24.30014
C29  21422700.77314  30911230.85414     -1206.53514        26.20014
R16  21955218.21914   -526167.95814     -4790.82014        26.10014
R10  20777461.96214    483499.04614      1730.25914        25.20014
C36  23801211.86414   -812106.54114     -4072.46314        24.90014
R09  19070551.63213   -131134.32313     -1430.38413        22.50013
> 2025 05 03 08 05 00.9999998  0 12                      
G28  21440081.54025   -804211.87325     -3019.57525        33.00025
G18  21933699.41615    119044.00815      1487.25215        30.40015
G31  21194907.67115   -117132.36615     -1325.45315        30.00015
G29  20714415.90814    -87155.61614     -2498.22914        26.50014
G12  25362021.33814   -203165.93914     -4635.74614        24.20014
G25  21970731.57914  -1090395.25414     -4039.57814        24.20014
C29  21422692.67814  30910028.90514     -1210.95514        26.20014
C30  23985887.91524                     -3882.93024        28.20024
R16  21955956.90714   -531382.14114     -4795.94414        26.00014
R10  20776901.35014    485222.80814      1731.50414        25.10014
C36  23801744.29514   -816170.31014     -4068.16314        24.80014
R09  19070610.99113   -132718.94413     -1427.39113        22.50013
> 2025 05 03 08 05 01.9999999  0 12                      
G28  21440436.19525   -807226.17025     -3020.59825        32.90025
G31  21194939.74915   -118456.31415     -1332.00915        30.00015
G18  21933192.46715    120542.75315      1494.34215        30.30015
G29  20714686.02114    -89643.39114     -2490.80514        26.40014
G12  25362685.07814   -207795.54314     -4635.94814        24.20014
G25  21971268.20814  -1094427.55814     -4036.25914        24.10014
C29  21422709.16714  30908824.58314     -1208.88214        26.20014
R16  21956614.95214   -536064.30914     -4792.39114        25.80014
C30  23986405.05714     -3878.18314     -3884.02714        27.30014
R10  20776364.12214    486921.44414      1724.16414        25.10014
C36  23802308.80414   -820231.41914     -4065.64214        24.70014
R09  19070676.04613   -134233.99913     -1426.41513        22.40013
> 2025 05 03 08 05 02.9999998  0 12                      
G28  21440772.56225   -810240.83525     -3020.69125        32.80025
G31  21194951.74015   -119777.95915     -1326.33715        30.00015
G18  21932662.43415    122046.61015      1500.56615        30.20015
G29  20714918.96014    -92130.81114     -2493.08614        26.30014
G25  21971806.03514  -1098460.64214     -4039.31614        24.10014
G12  25363327.53414   -212424.72014     -4634.80414        24.10014
C29  21422700.47314  30907622.05814     -1209.78414        26.10014
R16  21957284.08914   -540905.49814     -4776.41314        25.60014
C36  23802863.12114   -824293.91814     -4068.98214        24.70014
R10  20775805.60914    488634.53214      1732.02914        25.00014
C30  23986898.21614     -7759.41414     -3888.54214        26.70014
R09  19070733.30613   -135806.39513     -1424.28613        22.40013
> 2025 05 03 08 05 04.0000000  0 12                      
G28  21441149.70115   -813255.41915     -3021.15515        32.70015
G18  21932184.86415    123545.71215      1490.86015        30.10015
G31  21195000.60615   -121099.08015     -1326.72115        29.90015
G29  20715186.07514    -94620.29314     -2496.37514        26.20014
G25  21972372.64314  -1102492.00214     -4036.35814        24.10014
G12  25363996.07114   -217053.16414     -4633.93814        23.90014
C30  23987452.83214    -11636.33514     -3880.57514        26.30014
C29  21422725.05614  30906419.16014     -1206.20914        26.10014
C36  23803436.02414   -828357.55014     -4070.00514        25.00014
R16  21957883.37414   -545213.96214     -4790.46614        25.40014
R10  20775274.37714    490362.10614      1721.13414        24.90014
R09  19070772.87913   -137123.59713     -1421.52913        22.40013
> 2025 05 03 08 05 04.9999999  0 12                      
G28  21441477.67415   -816271.72215     -3022.82915        32.60015
G18  21931653.93215    125043.10015      1490.61215        33.70015
G31  21194999.40715   -122421.19615     -1328.53115        29.80015
G29  20715410.62014    -97117.16714     -2506.48614        26.10014
G25  21972902.67614  -1106523.72614     -4037.82014        24.10014
G12  25364613.34414   -221679.41514     -4631.06914        23.80014
C30  23987971.47314    -15513.71614     -3883.47114        27.30014
C29  21422715.16314  30905216.62014     -1209.90314        26.00014
C36  23803964.85814   -832423.14814     -4072.44214        25.70014
R16  21958539.91914   -550049.76714     -4791.57814        25.20014
R10  20774694.57814    492125.57214      1720.79214        24.70014
R09  19070794.76413   -138569.12713     -1429.13913        22.30013
> 2025 05 03 08 05 05.9999999  0 12                      
G28  21441817.93815   -819289.36015     -3024.14715        32.40015
G18  21931135.89115    126536.23015      1485.15515        33.20015
G31  21195013.49715   -123746.10715     -1332.15215        29.70015
G29  20715642.05914    -99619.82214     -2511.38814        26.40014
G25  21973426.41314  -1110558.20214     -4041.69514        24.00014
G12  25365246.80514   -226303.70114     -4629.14514        23.60014
C30  23988498.50814    -19390.15514     -3881.75614        27.30014
C36  23804507.48214   -836488.16014     -4070.50914        25.80014
C29  21422704.67014  30904012.21814     -1209.14214        25.90014
R16  21959157.19214   -554613.50614     -4786.34814        25.00014
R10  20774140.56214    493815.77914      1721.10614        24.50014
R09  19070809.75313   -139914.60113     -1430.22913        22.30013
> 2025 05 03 08 05 07.0000000  0 12                      
G28  21442179.18815   -822308.36615     -3025.55115        32.20015
G31  21195067.16015   -125069.07815     -1327.86315        29.50015
G18  21930638.53515    128029.24815      1487.09715        32.30015
G29  20715913.97114   -102120.40014     -2505.40114        26.60014
G25  21973998.41714  -1114593.21014     -4041.13414        24.00014
G12  25365917.74113   -230926.27813     -4627.58313        23.40013
C30  23989006.35614    -23265.74314     -3880.97114        27.30014
C36  23805084.88314   -840555.17414     -4073.82114        25.90014
C29  21422729.85314  30902810.09814     -1207.41214        25.80014
R16  21959853.61014   -559440.17614     -4787.84414        24.90014
R10  20773629.41614    495437.34314      1721.08814        24.40014
R09  19070885.00113   -141422.05013     -1427.07913        22.30013
> 2025 05 03 08 05 08.0000000  0 12                      
G28  21442508.96015   -825328.00215     -3025.81215        32.00015
G31  21195086.94714   -126394.20314     -1332.06514        29.30014
G18  21930112.09915    129527.35015      1494.78115        31.50015
G29  20716154.70514   -104619.37514     -2504.03414        26.90014
G25  21974524.55314  -1118628.49714     -4041.28714        24.00014
G12  25366575.78513   -235548.88313     -4628.47813        23.20013
C30  23989512.70614    -27141.25414     -3881.27814        27.30014
C36  23805623.01014   -844621.74914     -4072.16314        26.00014
R16  21960502.36114   -564172.07014     -4785.54814        24.90014
C29  21422734.94914  30901608.81314     -1206.95214        25.60014
R10  20773035.22714    497340.35514      1731.62214        24.20014
R09  19070900.89013   -142773.63613     -1423.23213        22.20013
> 2025 05 03 08 05 09.0000000  0 12                      
G28  21442870.51015   -828350.06215     -3029.18715        31.80015
G18  21929604.55115    131027.64015      1495.46515        30.80015
G31  21195124.42114   -127722.33414     -1335.55114        29.10014
G29  20716420.62014   -107120.18214     -2507.64114        27.20014
G25  21975071.67414  -1122665.04014     -4043.08614        24.00014
G12  25367249.71813   -240174.87413     -4633.59813        23.10013
C30  23990046.33714    -31019.70714     -3885.78614        27.40014
C36  23806177.02714   -848687.61814     -4071.37714        26.40014
R16  21961163.10314   -568869.53514     -4788.34914        25.00014
C29  21422753.53614  30900408.31814     -1204.74014        25.40014
R10  20772480.01114    499133.56614      1734.31614        24.10014
R09  19070930.86913   -144102.26613     -1433.11613        22.10013
> 2025 05 03 08 05 10.0000000  0 11                      
G28  21443210.77415   -831369.68615     -3024.24915        31.60015
G29  20716661.65414   -109622.37714     -2508.73114        27.90014
G18  21929091.60615    132528.52515      1495.33515        30.20015
G25  21975598.11014  -1126699.97414     -4039.97114        23.90014
G12  25367908.36213   -244805.83513     -4639.28713        23.00013
C30  23990565.87714    -34900.57314     -3887.86114        27.40014
C36  23806726.24614   -852753.15014     -4071.15214        26.80014
R16  21961832.83914   -573713.02114     -4793.47514        25.00014
C29  21422744.54314  30899208.45414     -1206.37414        25.10014
R10  20771936.48814    500767.32614      1728.43714        24.00014
R09  19070959.64913   -145521.09013     -1439.07313        22.00013
> 2025 05 03 08 05 11.0000000  0 12                      
G28  21443539.04715   -834391.34415     -3028.53615        31.50015
G29  20716894.29314   -112123.61814     -2506.62514        28.20014
G18  21928557.97515    134023.08915      1485.54015        29.70015
G31  21195161.29514   -130389.69614     -1340.67114        26.90014
G25  21976118.55014  -1130735.75814     -4042.06914        23.80014
G12  25368561.31013   -249441.84413     -4644.39413        22.80013
C36  23807276.96514   -856816.01714     -4067.34114        27.00014
C30  23991058.73614    -38776.51114     -3879.28114        27.30014
R16  21962513.06914   -578613.82914     -4793.82614        25.00014
C29  21422729.25314  30898006.65514     -1210.50314        24.80014
R10  20771375.27614    502495.67114      1723.51114        24.00014
R09  19071058.28113   -147313.53613     -1439.47413        21.80013
> 2025 05 03 08 05 12.0000000  0 12                      
G28  21443882.60915   -837413.30015     -3027.96615        31.30015
G29  20717137.12414   -114621.73014     -2502.40814        28.20014
G18  21928042.93214    135515.88414      1486.04614        29.20014
G31  21195183.78014   -131720.10814     -1336.27414        26.20014
G25  21976644.68514  -1134772.69314     -4043.37114        23.60014
G12  25369211.26113   -254079.12313     -4643.77313        22.60013
C36  23807819.29014   -860882.01014     -4073.36314        27.30014
C30  23991556.39114    -42650.40914     -3878.68414        27.20014
R16  21963179.80714   -583442.02714     -4792.62914        25.20014
C29  21422719.66014  30896798.99114     -1216.44514        24.60014
R10  20770812.86514    504230.11514      1731.29314        23.90014
R09  19071097.55413   -148789.66713     -1452.41713        21.70013
> 2025 05 03 08 05 13.0000001  0 12                      
G28  21444249.25515   -840433.58015     -3025.30315        31.30015
G29  20717401.24214   -117123.78314     -2509.88514        28.10014
G18  21927559.06714    137008.32014      1486.39214        28.90014
G31  21195223.35214   -133046.19814     -1329.79014        26.10014
G25  21977203.19914  -1138812.14914     -4046.57614        23.50014
G12  25369876.20013   -258717.53313     -4644.83513        22.40013
C36  23808388.29614   -864949.79614     -4074.49114        27.50014
C30  23992096.01814    -46527.76514     -3884.89314        27.10014
R16  21963876.22514   -588268.69814     -4796.15814        25.50014
R10  20770260.64814    506069.05414      1729.51714        23.80014
C29  21422748.74014  30895587.29714     -1218.39314        24.30014
R09  19071174.00113   -150303.23213     -1456.85113        21.50013
> 2025 05 03 08 05 14.0000000  0 12                      
G28  21444576.62915   -843454.45515     -3027.08715        33.30015
G29  20717631.78214   -119625.21514     -2507.03814        28.10014
G18  21927034.73014    138500.44614      1486.05214        28.60014
G31  21195226.65014   -134371.08014     -1330.19614        26.00014
G25  21977723.93813  -1142851.81513     -4045.68613        23.40013
G12  25370496.47113   -263352.03313     -4638.46013        22.30013
C36  23808919.52814   -869018.64214     -4075.23614        27.80014
C30  23992602.66714    -50406.17714     -3884.80014        26.90014
R16  21964530.07214   -593089.21114     -4789.76614        25.50014
R10  20769736.61114    507536.58514      1728.61614        23.60014
C29  21422737.34814  30894375.99814     -1216.86714        24.10014
R09  19071233.36013   -151949.70613     -1458.55413        21.30013
> 2025 05 03 08 05 15.0000001  0 12                      
G28  21444945.97326   -846476.32026     -3028.20426        38.10026
G29  20717905.79214   -122128.68914     -2510.33814        28.50014
G18  21926534.37614    139995.17214      1490.17914        28.30014
G31  21195267.12214   -135699.02114     -1335.31514        25.90014
G25  21978289.34713  -1146888.72413     -4041.37213        23.30013
G12  25371173.40213   -267987.79713     -4642.23813        22.20013
C36  23809489.13414   -873085.57614     -4071.76814        28.20014
C30  23993135.69814    -54281.65414     -3879.80014        26.80014
R16  21965208.50314   -597820.34414     -4792.22414        25.40014
R10  20769168.80414    509460.17614      1723.22714        23.50014
C29  21422766.72714  30893165.31014     -1215.37214        23.80014
R09  19071213.27413   -152947.52513     -1432.76813        21.10013
> 2025 05 03 08 05 15.9999998  0 13                      
G28  21445188.80526   -849498.51326     -3028.21726        38.00026
G29  20718047.59414   -124634.39514     -2512.68414        28.80014
G18  21925919.80214    141490.50514      1489.77214        28.10014
G31  21195181.38114   -137029.32214     -1337.34314        26.70014
G25  21978712.95413  -1150928.63413     -4047.27113        23.20013
G12  25371728.91813   -272621.53313     -4638.58113        22.20013
C35  24206118.45316 -31217020.08716      1641.40416        36.10016
C36  23809942.42014   -877150.11914     -4069.15314        28.30014
C30  23993538.91914    -58153.34514     -3875.60314        26.60014
R16  21965775.11014   -602593.51414     -4797.34314        25.30014
R10  20768525.14914    511147.33414      1716.96414        23.50014
C29  21422664.79814  30891958.52914     -1211.13714        23.50014
R09  19071145.22113   -154330.43613     -1426.92813        21.30013
> 2025 05 03 08 05 16.9999999  0 13                      
G28  21445556.35026   -852521.68726     -3029.52726        37.90026
G29  20718313.81014   -127139.69014     -2510.95114        28.80014
G18  21925420.64714    142983.54814      1486.03514        28.00014
G31  21195225.75114   -138363.89814     -1342.57614        26.80014
G25  21979269.66813  -1154974.39613     -4054.54913        23.10013
G12  25372411.54513   -277256.74813     -4641.81413        22.20013
C35  24205598.61326 -31215373.87426      1640.40226        35.80026
C36  23810520.42014   -881214.42214     -4069.99014        28.30014
C30  23994068.05214    -62027.99514     -3881.93914        26.40014
R16  21966444.54714   -607275.72814     -4798.25014        25.20014
R10  20768048.47913    512585.08213      1725.51113        23.40013
C29  21422681.58613  30890751.38413     -1215.13713        23.20013
R09  19071185.39313   -155650.69713     -1443.09613        21.40013
> 2025 05 03 08 05 18.0000001  0 13                      
G28  21445974.26126   -855545.15026     -3029.52226        37.80026
G29  20718622.89614   -129644.34214     -2510.24614        28.80014
G18  21924981.75114    144476.27414      1486.64714        27.90014
G31  21195315.08914   -139697.18514     -1338.55914        27.00014
G25  21979889.63913  -1159015.38613     -4044.51913        23.00013
G12  25373134.94413   -281891.53413     -4640.48613        22.10013
C35  24205126.44026 -31213727.93826      1639.93126        35.50026
C36  23811143.98814   -885281.36914     -4074.13114        28.20014
C30  23994659.84314    -65906.94714     -3886.96414        26.30014
R16  21967132.57114   -611799.68814     -4797.72214        25.10014
R10  20767497.76014    514673.45914      1718.10614        23.60014
C29  21422751.73813  30889541.89513     -1215.41313        23.00013
R09  19071291.22013   -157064.13313     -1436.37113        21.40013
> 2025 05 03 08 05 18.9999998  0 13                      
G28  21446226.08726   -858569.81926     -3030.36326        37.70026
G29  20718771.89314   -132151.02314     -2513.53914        28.80014
G18  21924368.67514    145966.85214      1483.65714        27.80014
G31  21195243.73814   -141029.57714     -1337.78914        27.40014
G25  21980333.33213  -1163054.60113     -4044.17013        22.80013
G12  25373671.27313   -286526.10313     -4640.30213        22.10013
C35  24204480.68725 -31212082.40625      1639.53725        35.30025
C36  23811595.17614   -889351.60614     -4077.66914        28.20014
C30  23995081.65114    -69786.42814     -3885.53314        26.10014
R16  21967739.05114   -616785.33514     -4798.58514        24.90014
R10  20766853.20714    516365.95914      1720.71214        24.00014
C29  21422655.80413  30888335.88713     -1209.73813        22.70013
R09  19071186.89213   -158253.73713     -1432.88013        21.40013
> 2025 05 03 08 05 19.9999999  0 13                      
G28  21446594.83126   -861594.89326     -3031.38826        37.50026
G29  20719047.40214   -134654.07014     -2507.09114        28.90014
G31  21195294.70314   -142362.15314     -1338.53014        27.60014
G18  21923883.91114    147460.30614      1489.02914        27.70014
G25  21980906.83513  -1167092.92513     -4043.73813        22.60013
G12  25374344.90713   -291157.54013     -4635.73013        22.00013
C35  24203955.15125 -31210437.08425      1639.40625        35.20025
C36  23812175.87414   -893420.27914     -4073.69914        28.30014
C30  23995623.37614    -73666.05114     -3885.50114        25.90014
R16  21968455.25514   -621718.24414     -4795.14914        24.90014
R10  20766328.57014    518058.45414      1724.66014        24.30014
C29  21422693.57813  30887132.67113     -1209.71313        22.50013
R09  19071271.13413   -159809.32513     -1435.88813        21.30013
> 2025 05 03 08 05 20.9999998  0 13                      
G28  21446919.80626   -864620.30026     -3031.48926        37.50026
G29  20719276.14414   -137156.17714     -2507.55214        28.90014
G31  21195292.30414   -143695.02514     -1338.93814        27.70014
G18  21923346.38314    148957.61714      1493.32014        27.60014
G25  21981421.87813  -1171131.76313     -4045.01013        22.40013
G12  25374971.47313   -295788.94413     -4637.30213        21.90013
C35  24203391.84025 -31208791.92825      1639.20725        35.00025
C36  23812706.80614   -897494.84814     -4083.37714        28.30014
C30  23996132.12314    -77548.75014     -3890.09914        25.80014
R16  21969086.31814   -626417.23614     -4795.40314        25.40014
R10  20765799.73614    519551.91814      1723.68914        24.50014
C29  21422681.58613  30885924.95013     -1215.08713        22.40013
R09  19071327.79513   -161439.75613     -1442.38513        21.10013
> 2025 05 03 08 05 21.9999999  0 12                      
G28  21447294.24726   -867646.33626     -3032.19426        37.40026
G29  20719543.25914   -139662.25014     -2513.90014        28.90014
G31  21195340.57114   -145031.81914     -1344.59914        27.80014
G18  21922862.81814    150457.78914      1495.75514        27.50014
G25  21981987.58713  -1175170.45013     -4044.45413        22.40013
G12  25375647.20513   -300417.22013     -4632.55413        21.80013
C29  21422714.86314  30884714.20214     -1221.03114        27.60014
C36  23813280.90914   -901572.22414     -4084.56914        28.20014
R16  21969792.92914   -631298.93414     -4795.90814        25.60014
C30  23996676.84614    -81433.04514     -3890.88114        25.80014
R10  20765264.60614    521300.85314      1717.90314        24.40014
R09  19071420.13113   -163038.89413     -1440.25713        21.10013
> 2025 05 03 08 05 22.9999999  0 12                      
G28  21447632.41326   -870672.94226     -3032.75126        37.30026
G29  20719774.69814   -142170.24514     -2514.81814        28.80014
G31  21195363.35514   -146367.89714     -1341.58214        27.80014
G18  21922336.08314    151952.68714      1486.39714        27.30014
G25  21982516.42113  -1179206.36613     -4040.38913        22.30013
G12  25376285.16313   -305042.32913     -4629.38413        21.70013
C35  24202319.18315 -31205502.17615      1639.17515        32.10015
C29  21422709.76714  30883498.45214     -1219.00014        29.40014
R16  21970456.96914   -636112.61014     -4794.71914        25.90014
C30  23997194.88814    -85318.36014     -3891.63314        25.70014
R10  20764660.22514    523258.76814      1715.30614        24.30014
R09  19071468.99713   -164565.44713     -1435.10613        21.10013
> 2025 05 03 08 05 23.9999999  0 13                      
G28  21447969.08026   -873700.27626     -3033.55926        37.30026
G29  20720018.13014   -144677.99114     -2513.48214        28.90014
G31  21195386.43914   -147703.42214     -1341.11014        28.20014
G18  21921822.83814    153436.30214      1472.10914        27.10014
G25  21983054.54813  -1183242.39513     -4041.94713        22.30013
G12  25376940.51013   -309667.12213     -4630.49413        21.50013
C35  24201758.87115 -31203859.09515      1637.26915        31.40015
C29  21422706.16914  30882286.73314     -1217.77714        29.40014
R16  21971123.40814   -640937.75314     -4795.60214        26.20014
C30  23997712.92914    -89199.99814     -3885.60514        25.70014
R10  20764087.92114    525045.83414      1707.00714        24.10014
R09  19071517.86313   -166092.76813     -1439.90113        21.30013
C36  23814380.54714   -909719.95614     -4079.80314        25.40014
> 2025 05 03 08 05 24.9999999  0 13                      
G28  21448323.43526   -876728.11126     -3034.00226        37.30026
G29  20720272.05414   -147183.42714     -2510.19814        29.10014
G31  21195428.41014   -149040.98514     -1344.50014        28.80014
G18  21921326.68114    154918.50714      1475.58214        27.00014
G25  21983600.17013  -1187278.51013     -4042.07313        22.60013
G12  25377612.34513   -314296.35013     -4637.36113        21.50013
C35  24201226.14015 -31202214.35615      1639.70215        31.80015
C29  21422722.35814  30881072.44014     -1223.35114        29.20014
R16  21971821.62414   -645836.99714     -4797.72114        26.60014
C30  23998237.86614    -93081.57614     -3887.41014        25.70014
R10  20763549.49414    526749.04714      1706.90914        23.90014
R09  19071508.27013   -167208.99313     -1460.85913        21.40013
C36  23814947.75514   -913792.42214     -4078.30914        24.20014
> 2025 05 03 08 05 25.9999999  0 13                      
G28  21448665.19826   -879756.70526     -3034.81626        37.30026
G29  20720518.18414   -149689.29814     -2511.93114        29.30014
G31  21195443.40014   -150382.19714     -1348.87914        28.80014
G18  21920808.94014    156400.49914      1476.03814        26.80014
G25  21984127.80513  -1191314.54713     -4041.83913        22.60013
G12  25378238.61113   -318927.60613     -4638.11113        21.40013
C35  24200675.42115 -31200570.79215      1637.18315        32.60015
C29  21422728.05414  30879857.48514     -1217.30914        29.00014
R16  21972473.67314   -650586.47214     -4800.33614        26.90014
C30  23998745.41414    -96962.22514     -3885.97314        25.60014
R10  20762973.89214    528554.43014      1715.49614        23.70014
R09  19071556.23613   -168730.96313     -1462.33913        21.40013
C36  23815479.28713   -917864.49513     -4077.66613        23.30013
> 2025 05 03 08 05 26.9999999  0 13                      
G28  21449004.56326   -882785.90126     -3035.35726        37.30026
G29  20720766.11214   -152196.80914     -2514.19314        29.30014
G31  21195460.48814   -151726.43714     -1351.61614        28.70014
G18  21920288.50014    157884.74514      1479.50914        26.60014
G25  21984662.63513  -1195353.97413     -4046.98313        22.70013
G12  25378891.25913   -323559.97813     -4638.79013        21.30013
C35  24200120.20525 -31198927.39425      1637.50525        33.10025
C29  21422724.75614  30878646.39114     -1219.16314        28.70014
R16  21973111.63114   -655260.27314     -4794.65614        26.90014
C30  23999256.26114   -100841.63914     -3884.60414        25.60014
R10  20762444.45914    530111.92414      1717.16314        23.50014
R09  19071605.40213   -170260.57713     -1462.90413        21.30013
C36  23816013.21713   -921935.79613     -4076.72113        22.70013
> 2025 05 03 08 05 28.0000000  0 13                      
G28  21449368.51126   -885815.96626     -3036.36126        37.20026
G29  20721038.62314   -154705.31514     -2514.86414        29.40014
G31  21195497.36314   -153067.99814     -1346.08414        28.60014
G18  21919786.64714    159373.95514      1485.82714        26.40014
G25  21985222.34713  -1199392.09313     -4043.32513        22.70013
G12  25379555.59913   -328192.69913     -4638.75513        21.30013
C35  24199597.36715 -31197284.86015      1636.28915        33.40015
R16  21973780.76814   -659940.95814     -4797.24614        27.00014
C29  21422745.44214  30877431.89414     -1217.01814        28.40014
C30  23999774.30214   -104717.67714     -3880.15714        25.50014
R10  20761909.32913    531860.86113      1718.94313        23.30013
C36  23816588.81913   -926003.90213     -4072.31613        22.30013
R09  19071695.04013   -171844.43413     -1468.62613        21.30013
> 2025 05 03 08 05 28.9999999  0 12                      
G28  21449704.87816   -888845.24516     -3035.55116        37.10016
G29  20721269.76314   -157216.15214     -2517.91914        29.40014
G31  21195515.65014   -154407.09614     -1343.78414        28.50014
G18  21919255.71514    160865.59314      1486.93314        26.30014
G25  21985755.97813  -1203432.89113     -4048.05213        22.70013
G12  25380195.35613   -332826.53313     -4640.30613        21.30013
C35  24199033.75815 -31195641.70415      1637.60315        33.70015
R16  21974429.81914   -664737.01314     -4795.37614        27.00014
C30  24000273.75614   -108598.68614     -3889.35514        25.50014
R10  20761328.63113    533630.42813      1718.08013        23.10013
C36  23817125.44713   -930070.07713     -4071.07013        22.20013
R09  19071686.64613   -173127.97813     -1459.95613        21.20013
> 2025 05 03 08 05 29.9999999  0 12                      
G31  21195529.44015   -155748.36015     -1348.19115        31.20015
G29  20721511.99614   -159724.67414     -2513.20614        29.40014
G28  21450046.04216   -891875.04816     -3035.65916        35.90016
G18  21918747.26714    162354.87614      1482.26014        26.20014
G25  21986287.81013  -1207477.54813     -4052.42813        22.70013
G12  25380836.31313   -337460.34313     -4639.63813        21.20013
C35  24198482.43925 -31193999.01625      1636.66025        34.00025
R16  21975098.65614   -669575.91514     -4795.21414        27.00014
C30  24000795.99514   -112479.71214     -3886.82414        25.40014
R10  20760784.50813    535267.24713      1724.84313        23.00013
C36  23817674.36713   -934135.75413     -4071.21713        22.40013
R09  19071736.11213   -174657.58513     -1450.87413        21.20013
> 2025 05 03 08 05 31.0000000  0 13                      
G31  21195574.40915   -157089.33215     -1346.68815        33.20015
G28  21450415.08715   -894906.54215     -3038.20015        34.50015
G29  20721781.50914   -162233.13314     -2514.28914        29.40014
G18  21918250.51114    163843.10414      1481.83614        26.10014
G25  21986849.62113  -1211521.85313     -4049.99013        22.70013
G12  25381505.74913   -342090.53513     -4634.24413        21.20013
C35  24197961.40025 -31192356.62525      1636.43125        34.00025
R16  21975800.77014   -674432.39614     -4801.33314        27.20014
C30  24001346.11414   -116360.64414     -3886.69314        25.30014
R10  20760264.96813    536933.04913      1719.73513        23.00013
C36  23818240.37513   -938203.73913     -4074.94513        22.40013
C29  21422744.84214  30873804.45814     -1221.11914        24.90014
R09  19071824.55113   -176235.32913     -1443.99113        21.10013
> 2025 05 03 08 05 32.0000000  0 12                      
G31  21195591.79725   -158430.80525     -1347.58725        33.00025
G29  20722025.24015   -164744.27715     -2518.34815        29.70015
G28  21450756.85015   -897941.24815     -3042.17315        33.30015
G18  21917733.66914    165328.92314      1478.75014        26.40014
G12  25382163.19413   -346721.01613     -4636.48413        21.30013
C35  24197410.38115 -31190714.01415      1636.91015        33.90015
R16  21976467.50814   -679262.88614     -4802.44614        27.40014
C30  24001854.26214   -120241.61614     -3886.79814        25.20014
R10  20759668.38113    538848.25513      1723.15113        22.90013
C29  21422750.53814  30872587.71614     -1225.76014        24.30014
C36  23818797.39013   -942274.42613     -4077.84613        22.30013
R09  19071797.26913   -177358.46113     -1443.49913        21.10013
> 2025 05 03 08 05 33.0000000  0 10                      
G31  21195630.47015   -159773.88915     -1349.80715        32.70015
G28  21451114.20315   -900973.99315     -3037.68115        32.60015
G29  20722283.06215   -167254.10315     -2515.08415        30.00015
G18  21917243.50814    166811.66814      1475.29014        26.90014
C35  24196876.75115 -31189071.91215      1635.98315        33.90015
C30  24002358.51314   -124125.97114     -3891.90914        25.10014
R10  20759138.04813    540510.27613      1717.22213        22.80013
C29  21422767.92614  30871366.76714     -1228.73814        23.80014
C36  23819359.50113   -946346.06813     -4077.98113        22.20013
R09  19071856.32913   -178839.13213     -1440.85013        21.00013
> 2025 05 03 08 05 34.0000000  0 10                      
G31  21195655.65315   -161115.33715     -1346.47315        32.40015
G28  21451454.16715   -904009.01915     -3042.00815        32.10015
G29  20722517.20015   -169764.12615     -2515.96315        30.10015
G18  21916724.86714    168294.42114      1476.91014        27.50014
C35  24196318.53715 -31187430.10115      1635.87115        33.80015
C30  24002840.87914   -128011.82414     -3892.38914        25.00014
C29  21422755.33514  30870145.99014     -1225.53314        23.60014
R10  20758591.82613    542156.24413      1713.38913        22.80013
C36  23819893.13113   -950419.63613     -4080.31913        22.10013
R09  19071842.23813   -180031.79613     -1445.17413        21.00013
> 2025 05 03 08 05 35.0000000  0 10                      
G31  21195676.93815   -162458.53815     -1349.93915        32.20015
G28  21451800.12815   -907042.89715     -3039.16515        31.80015
G29  20722753.73615   -172275.24215     -2517.52415        30.10015
G18  21916202.02914    169782.06114      1484.21814        27.70014
C35  24195769.01825 -31185788.84425      1635.16925        33.70025
C30  24003337.33514   -131897.30614     -3891.10514        25.10014
C29  21422754.13613  30868925.92513     -1227.35813        23.40013
R10  20758029.41513    543891.45313      1720.04113        22.80013
C36  23820441.45213   -954494.17313     -4080.82813        22.00013
R09  19071898.00013   -181595.02713     -1451.14113        21.10013
> 2025 05 03 08 05 36.0000000  0 10                      
G31  21195694.92615   -163804.00115     -1352.45715        32.00015
G28  21452135.29615   -910077.16415     -3040.32215        31.60015
G29  20722999.86615   -174786.16615     -2516.69015        30.30015
G18  21915674.99414    171267.03314      1477.77414        27.70014
C35  24195219.79825 -31184147.73125      1635.22925        33.60025
C30  24003840.38714   -135781.29414     -3889.04614        25.20014
R16  21979137.76024                     -4800.95824        23.90024
C29  21422745.74213  30867702.05913     -1228.60313        23.40013
R10  20757410.34413    545927.16713      1710.49013        22.70013
C36  23820993.07013   -958570.49513     -4083.02113        21.90013
> 2025 05 03 08 05 37.0000000  0 10                      
G28  21452481.55615   -913112.53915     -3041.84615        31.50015
G31  21195732.99915   -165150.07315     -1352.29315        31.80015
G29  20723257.08815   -177300.34015     -2521.71615        30.40015
G18  21915172.24214    172748.87914      1474.36414        27.60014
C35  24194685.56825 -31182506.72025      1635.09525        33.80025
R16  21979802.99914     -4723.44914     -4799.83314        25.40014
C30  24004372.21914   -139663.31714     -3886.90414        25.20014
C29  21422758.33314  30866482.59014     -1221.47114        23.60014
R10  20756899.79713    547482.40713      1711.01613        22.60013
C36  23821559.07813   -962648.55013     -4084.78413        21.70013
> 2025 05 03 08 05 38.0000000  0 10                      
G28  21452831.11415   -916147.71115     -3040.91315        31.40015
G29  20723503.21715   -179813.29215     -2518.18315        30.50015
G18  21914650.90314    174229.63814      1474.37014        27.50014
G25  21990620.71014     -8091.14214     -4055.07514        23.70014
C35  24194126.45525 -31180865.88225      1634.95925        33.80025
R16  21980448.45214     -9436.23314     -4802.65914        26.20014
C30  24004872.27314   -143543.00314     -3884.30614        25.10014
C29  21422752.93714  30865265.88214     -1223.98414        23.60014
R10  20756377.85913    549001.77013      1706.92213        22.50013
C36  23822085.81313   -966729.37613     -4087.99813        21.60013
> 2025 05 03 08 05 39.0000001  0 11                      
G28  21453201.05815   -919182.81815     -3040.93515        31.40015
G29  20723776.02815   -182326.57715     -2519.31315        30.70015
G31  21195799.25415   -167855.81415     -1356.96015        30.00015
G18  21914170.63514    175708.37014      1471.85314        27.40014
G25  21991191.21514    -12136.11414     -4050.83214        24.10014
C35  24193603.91725 -31179225.60725      1634.18225        33.70025
R16  21981139.17414    -14232.33114     -4804.74114        26.60014
C30  24005418.49514   -147421.94814     -3884.38214        25.00014
C29  21422775.12114  30864046.20714     -1225.79514        23.70014
R10  20755830.13813    550817.06113      1714.71613        22.40013
C36  23822669.50913   -970808.00813     -4083.34413        21.50013
> 2025 05 03 08 05 39.9999998  0 11                      
G28  21453458.87915   -922219.07215     -3042.68815        31.50015
G29  20723925.32515   -184838.66715     -2517.35415        30.70015
G31  21195727.90314   -169207.63114     -1357.68014        29.10014
G18  21913571.65014    177187.51614      1473.48914        27.20014
G25  21991625.61414    -16178.60814     -4047.11414        24.70014
R16  21981731.26414    -19142.31314     -4801.18614        26.70014
C30  24005844.79914   -151306.64614     -3893.38114        25.00014
C35  24192966.55815 -31177586.12615      1633.27215        32.40015
C29  21422680.38714  30862826.69514     -1227.06214        23.70014
R10  20755226.95513    552288.37113      1713.16513        22.30013
C36  23823132.98813   -974889.28513     -4088.40513        21.40013
> 2025 05 03 08 05 41.0000001  0 11                      
G28  21453913.96415   -925255.37215     -3042.24015        31.50015
G29  20724273.38415   -187351.17715     -2518.63615        30.70015
G31  21195846.92114   -170555.18114     -1351.33414        28.60014
G18  21913172.02714    178671.42814      1480.37614        27.00014
G25  21992266.57114    -20223.93314     -4052.65714        24.70014
C35  24192530.95915 -31175946.61815      1633.65615        31.40015
R16  21982498.13314    -23926.90914     -4807.75114        26.80014
C30  24006452.77914   -155191.75114     -3891.17014        25.30014
C29  21422796.10714  30861606.08014     -1226.77914        23.70014
R10  20754746.98813    554160.14213      1713.31713        22.20013
C36  23823791.93213   -978970.37113     -4086.85213        21.40013
> 2025 05 03 08 05 41.9999998  0 11                      
G28  21454149.00215   -928292.98515     -3044.11215        31.50015
G29  20724423.88015   -189865.22315     -2520.65715        30.60015
G31  21195769.87414   -171899.85614     -1349.08014        28.20014
G18  21912557.15214    180159.74914      1484.67814        26.70014
G25  21992706.06614    -24270.80914     -4053.49114        24.60014
C35  24191890.60315 -31174306.31815      1634.90315        31.60015
R16  21983066.84014    -28711.54114     -4803.54414        26.80014
C30  24006875.48614   -159075.96414     -3889.55614        25.60014
C29  21422701.07314  30860383.08314     -1228.59514        23.70014
R10  20754124.91813    555733.65713      1719.59913        22.10013
C36  23824239.82213   -983050.92113     -4086.07013        21.50013
> 2025 05 03 08 05 42.9999998  0 11                      
G28  21454485.36915   -931332.20115     -3045.87715        31.70015
G29  20724658.31815   -192378.12115     -2518.18515        30.50015
G31  21195796.25614   -173248.76214     -1356.88414        28.10014
G18  21912030.41714    181654.69514      1492.39514        26.50014
G25  21993232.50214    -28314.05114     -4047.28614        24.50014
C35  24191338.38515 -31172668.59515      1630.62315        31.50015
R16  21983759.66014    -33679.61114     -4807.49314        26.80014
C30  24007390.52914   -162957.94614     -3886.67514        25.60014
C29  21422691.47914  30859159.69914     -1230.94514        23.90014
R10  20753554.71313    557510.05013      1720.98913        22.00013
C36  23824797.13613   -987128.31413     -4081.62213        21.50013
> 2025 05 03 08 05 43.9999999  0 11                      
G28  21454856.21215   -934372.30115     -3046.40415        31.90015
G29  20724919.43715   -194894.48415     -2523.95715        30.40015
G31  21195843.02314   -174597.76814     -1354.91914        27.90014
G18  21911531.56214    183152.15714      1492.85514        26.20014
G25  21993794.61314    -32360.17214     -4053.42114        24.60014
C35  24190815.24715 -31171032.98915      1628.73615        31.30015
R16  21984427.59714    -38354.17914     -4803.89914        27.10014
C30  24007926.25814   -166841.44414     -3890.06214        25.50014
C29  21422716.06214  30857935.52514     -1232.63114        23.90014
R10  20753033.07413    559185.76013      1714.32213        22.00013
C36  23825360.44613   -991207.14613     -4085.35813        21.70013
> 2025 05 03 08 05 44.9999998  0 10                      
G28  21455191.38015   -937413.02615     -3046.95415        32.00015
G29  20725144.88115   -197412.21715     -2524.33415        30.30015
G31  21195863.70914   -175950.23914     -1360.12014        27.80014
G25  21994323.14714    -36406.71314     -4052.66614        25.10014
C35  24190245.94115 -31169399.44915      1626.64115        31.00015
R16  21985075.44914    -43143.35914     -4806.53814        27.60014
C30  24008434.10714   -170728.46514     -3894.64514        25.40014
C29  21422702.27214  30856707.11514     -1237.03214        23.90014
R10  20752487.15213    560770.74313      1704.35913        22.00013
C36  23825893.77713   -995284.75613     -4082.86013        21.80013
> 2025 05 03 08 05 45.9999999  0 10                      
G28  21455559.52525   -940453.96025     -3046.88125        32.10025
G29  20725414.69415   -199927.75515     -2520.28415        30.20015
G31  21195922.76814   -177303.40614     -1359.35914        27.60014
G25  21994870.56814    -40453.15114     -4052.22814        25.10014
C35  24189719.50615 -31167760.57515      1635.74915        30.80015
R16  21985758.97614    -47900.47714     -4806.59514        28.00014
C30  24008962.04114   -174615.51114     -3892.84714        25.30014
C29  21422731.65114  30855475.45314     -1237.85014        24.00014
R10  20751936.43313    562602.05513      1704.98313        22.20013
C36  23826472.07713   -999359.64013     -4079.31013        22.00013
> 2025 05 03 08 05 46.9999999  0 10                      
G28  21455904.88615   -943496.26915     -3048.85715        32.10015
G29  20725661.42315   -202443.18515     -2521.23715        30.10015
G31  21195952.14814   -178657.84614     -1360.93914        27.40014
G25  21995388.90914    -44496.66414     -4047.91014        25.10014
C35  24189168.18715 -31166121.41315      1633.49415        30.60015
R16  21986428.11314    -52741.66614     -4806.63814        28.20014
C30  24009464.19414   -178500.58114     -3889.88914        25.40014
C29  21422722.05814  30854243.01314     -1236.95614        24.00014
R10  20751386.31413    564270.90913      1708.25613        22.30013
C36  23827023.69513  -1003433.75113     -4079.53213        22.10013
> 2025 05 03 08 05 47.9999999  0 11                      
G28  21456271.83215   -946539.77615     -3050.02315        32.10015
G29  20725923.74215   -204957.64515     -2519.89215        30.10015
G31  21195992.62014   -180011.67314     -1359.43814        27.20014
G25  21995939.62814    -48540.01414     -4049.18314        25.00014
G18  21909489.97613    189127.01013      1473.63213        22.00013
C35  24188633.35815 -31164484.52815      1629.88215        30.50015
R16  21987096.05014    -57477.34414     -4804.65114        28.30014
C30  24009996.02614   -182390.00714     -3897.46614        25.60014
C29  21422743.34314  30853011.73414     -1236.32614        24.00014
C36  23827587.90413  -1007511.11413     -4084.85013        22.40013
R10  20750847.28713    565977.93613      1716.97613        22.30013
> 2025 05 03 08 05 48.9999999  0 11                      
G28  21456618.99215   -949581.84115     -3047.18615        32.20015
G29  20726175.26715   -207473.68615     -2522.67315        30.20015
G31  21196016.60314   -181361.86514     -1354.21714        27.00014
G25  21996484.35114    -52582.65214     -4048.12414        24.90014
G18  21908969.23613    190601.04613      1468.17113        21.90013
C35  24188089.53415 -31162848.70215      1629.50215        30.40015
R16  21987775.08014    -62372.03914     -4807.03814        28.50014
C30  24010510.46914   -186280.68314     -3897.08914        25.80014
C29  21422747.54014  30851784.01614     -1229.44414        24.20014
C36  23828142.82013  -1011588.43213     -4083.08513        22.60013
R10  20750264.79113    567819.91913      1708.66213        22.30013
> 2025 05 03 08 05 49.9999999  0 11                      
G28  21456961.65515   -952625.12215     -3049.75015        32.50015
G29  20726420.19815   -209990.48215     -2523.03515        30.30015
G31  21196027.99514   -182713.95714     -1358.90514        26.80014
G25  21997019.78014    -56629.94114     -4055.47514        24.70014
G18  21908455.39214    192075.29714      1468.49514        23.50014
C35  24187543.01215 -31161215.07115      1626.72315        30.30015
R16  21988420.83314    -67087.11814     -4806.96014        28.60014
C30  24011030.01014   -190169.45014     -3893.61914        25.90014
C29  21422753.53614  30850560.10914     -1230.24614        24.50014
C36  23828682.74613  -1015665.87713     -4083.31513        23.10013
R10  20749728.16213    569415.54713      1708.13913        22.30013
> 2025 05 03 08 05 50.9999999  0 11                      
G28  21457299.82025   -955669.26225     -3050.43125        32.50025
G29  20726668.72615   -212504.65715     -2518.72715        30.30015
G31  21196035.19014   -184069.93714     -1363.78714        26.60014
G18  21907934.35314    193547.99514      1466.05714        24.30014
G25  21997564.20314    -60682.32614     -4060.79214        24.60014
C35  24186991.99415 -31159578.59015      1632.09415        30.70015
C36  23829228.96814  -1019742.65414     -4082.24914        28.20014
R16  21989060.89014    -71773.14314     -4796.79214        28.60014
C30  24011535.76014   -194059.33614     -3896.25314        26.10014
C29  21422743.94314  30849336.03714     -1230.21914        24.50014
R10  20749216.11713    570881.51813      1703.63613        22.30013
> 2025 05 03 08 05 52.0000000  0 10                      
G28  21457663.16925   -958713.90725     -3050.75825        32.50025
G29  20726951.73015   -215020.43715     -2522.44515        30.20015
G18  21907449.28815    195019.51515      1465.06715        30.00015
G31  21196070.56614   -185430.72914     -1369.05914        26.40014
G25  21998133.50914    -64736.55814     -4061.01714        24.50014
C35  24186467.35716 -31157941.86316      1631.03916        36.40016
C36  23829801.57215  -1023820.78215     -4084.61015        29.90015
C30  24012075.98614   -197946.64614     -3891.82814        26.20014
C29  21422784.41514  30848109.31514     -1233.09314        24.40014
R10  20748690.58013    572580.11313      1705.71713        22.30013
> 2025 05 03 08 05 52.9999999  0 11                      
G28  21458004.63325   -961759.39025     -3051.81825        32.70025
G29  20727183.17015   -217536.68215     -2522.39215        30.20015
G18  21906918.65615    196492.45415      1467.72915        29.70015
G31  21196080.75914   -186791.96614     -1367.37714        26.20014
G25  21998645.55514    -68789.79514     -4058.65314        24.30014
C35  24185899.55026 -31156305.51926      1630.28726        36.60026
C36  23830343.29715  -1027898.11415     -4082.79515        29.90015
C30  24012567.04614   -201830.37614     -3887.80214        26.30014
C29  21422761.03114  30846882.93314     -1232.86114        24.30014
R10  20748043.92813    574700.52913      1703.98713        22.20013
R09  19072535.35913     -4255.66813     -1462.66313        21.80013
> 2025 05 03 08 05 54.0000000  0 11                      
G28  21458379.97325   -964805.36825     -3052.06825        32.90025
G29  20727450.28515   -220055.20115     -2525.50115        30.20015
G18  21906427.89614    197970.78414      1475.17914        29.30014
G31  21196144.91414   -188152.50514     -1366.03514        26.00014
G25  21999216.65914    -72840.99614     -4056.02614        24.20014
C35  24185379.41026 -31154669.32626      1630.32426        36.60026
C36  23830920.09715  -1031978.67215     -4087.96115        29.90015
C30  24013099.47714   -205719.32114     -3897.34114        26.50014
C29  21422787.41314  30845656.53514     -1232.26714        24.20014
R10  20747477.32013    576617.25313      1700.15413        22.10013
R09  19072590.52013     -5656.15013     -1460.37013        21.80013
> 2025 05 03 08 05 55.0000000  0 11                      
G28  21458719.63825   -967852.37125     -3052.62625        33.20025
G29  20727695.21515   -222575.76415     -2527.44515        30.40015
G18  21905898.16214    199445.29714      1466.74014        28.90014
G31  21196173.09514   -189510.98014     -1363.30314        25.80014
G25  21999748.49114    -76889.04714     -4052.33614        24.00014
C35  24184831.09026 -31153033.40126      1629.98026        36.60026
C36  23831456.42615  -1036056.09615     -4081.66215        29.90015
C30  24013608.22514   -209609.80914     -3897.06614        26.50014
C29  21422787.71314  30844430.08414     -1232.36614        24.10014
R10  20746929.60013    578273.14313      1699.73313        22.10013
R09  19072622.59813     -7093.31213     -1458.48213        21.70013
> 2025 05 03 08 05 56.0000000  0 11                      
G28  21459065.89825   -970899.69425     -3053.59425        33.60025
G29  20727929.05315   -225095.57815     -2525.30115        30.50015
G18  21905387.31614    200918.44014      1466.59214        28.60014
G31  21196185.08614   -190867.75714     -1361.79114        25.60014
G25  22000288.41714    -80936.96314     -4053.70914        23.80014
C35  24184280.07126 -31151397.80226      1629.62526        36.60026
C36  23832005.64615  -1040136.82315     -4088.18715        29.90015
C30  24014120.57014   -213496.36914     -3890.40314        26.60014
C29  21422788.31214  30843202.39614     -1235.75614        24.10014
R10  20746324.31913    580236.39713      1695.64713        22.00013
R09  19072648.98013     -8500.67613     -1466.96913        21.60013
> 2025 05 03 08 05 57.0000000  0 12                      
G28  21459413.65725   -973947.80125     -3054.36025        33.60025
G29  20728173.08415   -227611.86315     -2520.38215        30.50015
G18  21904884.86414    202391.95314      1467.83414        28.30014
G31  21196206.97114   -192223.91014     -1361.70414        25.40014
G25  22000828.64314    -84985.90114     -4055.30914        23.70014
C35  24183728.45316 -31149762.71216      1629.02416        36.50016
C36  23832553.36715  -1044218.78215     -4088.38115        29.80015
C30  24014638.01214   -217385.09214     -3895.61114        26.60014
R16  21993129.37313     -4896.22413     -4810.15313        23.00013
C29  21422797.60614  30841972.66314     -1235.93314        24.20014
R10  20745843.15213    581537.61913      1697.69013        21.90013
R09  19072745.21313    -10279.36613     -1467.46713        21.50013
> 2025 05 03 08 05 58.0000000  0 12                      
G28  21459771.01025   -976996.13325     -3054.36025        33.70025
G31  21196256.13714   -193583.92214     -1367.85814        27.70014
G29  20728438.40115   -230127.10215     -2520.63315        30.40015
G18  21904385.11014    203863.75514      1465.02714        28.10014
G25  22001389.55514    -89034.89214     -4054.93314        23.70014
C35  24183195.42226 -31148127.61226      1629.24026        36.30026
C36  23833112.18015  -1048295.49815     -4079.95615        29.70015
R16  21993807.50414     -9686.93414     -4811.13214        25.80014
C30  24015165.04714   -221274.94714     -3896.28314        26.70014
C29  21422813.49514  30840742.59014     -1234.95414        24.50014
R10  20745276.54413    583391.09113      1698.29113        21.90013
R09  19072773.09413    -11596.53013     -1459.54213        21.60013
> 2025 05 03 08 05 59.0000000  0 12                      
G31  21196277.12315   -194947.73815     -1371.56215        34.10015
G28  21460122.36625   -980045.32725     -3055.46825        33.90025
G18  21903877.56114    205331.44314      1459.78614        27.90014
G29  20728663.54515   -232640.14515     -2517.78815        29.70015
G25  22001926.18314    -93086.84014     -4059.26814        24.10014
C35  24182641.70626 -31146492.96726      1628.62426        35.70026
C36  23833649.70815  -1052370.60315     -4080.08815        29.50015
R16  21994453.85614    -14406.59814     -4810.54114        28.30014
C30  24015687.28614   -225165.57914     -3896.80914        26.80014
C29  21422820.69014  30839511.55114     -1239.57014        24.90014
R09  19072836.35013    -13200.25513     -1462.09813        22.00013
R10  20744744.41213    584963.08313      1709.82013        21.80013
> 2025 05 03 08 06 00.0000000  0 12                      
G31  21196298.70815   -196309.92615     -1367.23615        34.20015
G28  21460464.13025   -983095.14425     -3055.98825        33.90025
G18  21903357.42114    206797.53714      1459.43214        27.70014
G29  20728907.57614   -235159.58614     -2528.50014        28.70014
G25  22002467.60914    -97138.39714     -4057.22314        24.20014
C35  24182088.88825 -31144858.59725      1628.42125        35.00025
R16  21995122.39414    -19243.20514     -4813.10114        29.20014
C36  23834204.02414  -1056451.58814     -4089.73114        29.40014
C30  24016193.63514   -229053.71914     -3892.70114        26.90014
C29  21422813.49514  30838277.90414     -1240.56214        25.10014
R09  19072876.52213    -14680.20613     -1474.28713        22.30013
R10  20744176.60513    586726.51313      1713.49313        21.70013
> 2025 05 03 08 06 01.0000001  0 11                      
G28  21460825.68025   -986145.45725     -3056.42325        33.90025
G31  21196340.37915   -197671.72015     -1367.45915        34.10015
G18  21902856.76814    208265.21914      1462.61214        27.50014
G29  20729198.67414   -237683.65414     -2532.24314        28.10014
G25  22003032.11814   -101195.21414     -4065.30614        24.20014
C35  24181566.95025 -31143224.34125      1628.38825        34.50025
R16  21995780.13814    -23865.03214     -4813.86814        29.20014
C36  23834780.52514  -1060534.31214     -4089.40114        29.20014
C30  24016744.05414   -232939.80214     -3890.86114        27.00014
C29  21422845.57314  30837044.62714     -1237.77814        25.10014
R09  19072934.98213    -16100.55813     -1484.38513        22.40013
> 2025 05 03 08 06 01.9999997  0 11                      
G28  21461084.10125   -989196.37725     -3057.08425        33.80025
G31  21196270.82715   -199031.68715     -1364.91515        33.90015
G29  20729357.86414   -240206.93914     -2528.75514        27.90014
G18  21902245.49114    209737.56514      1468.81314        27.30014
G25  22003459.62214   -105253.84514     -4065.39914        24.10014
C35  24180925.69325 -31141590.41225      1627.95425        34.30025
C36  23835240.70614  -1064615.77814     -4086.64314        29.10014
R16  21996355.14014    -28684.05314     -4798.73814        29.00014
C30  24017153.57114   -236829.37514     -3897.12614        27.30014
C29  21422749.63914  30835812.56614     -1237.65114        25.00014
R09  19072880.42013    -17555.29613     -1487.30613        22.40013
> 2025 05 03 08 06 03.0000001  0 11                      
G28  21461534.98825   -992248.19825     -3058.18825        34.00025
G31  21196409.93115   -200397.50115     -1374.65515        33.60015
G29  20729702.92514   -242727.74914     -2525.49014        29.10014
G18  21901826.08114    211209.05614      1465.14614        27.20014
G25  22004098.48014   -109315.33014     -4068.82714        24.00014
C35  24180481.10125 -31139957.18825      1627.00725        34.10025
C36  23835891.25614  -1068696.82414     -4086.69914        28.90014
C30  24017773.24214   -240721.60014     -3899.41214        27.90014
R16  21997162.48114    -33684.19314     -4803.05014        28.80014
C29  21422852.46814  30834581.95314     -1237.52714        25.00014
R09  19073055.19913    -19177.32413     -1506.00613        22.30013
> 2025 05 03 08 06 03.9999998  0 10                      
G28  21461779.91925   -995300.59025     -3058.52025        34.10025
G31  21196334.08315   -201762.87615     -1371.00015        33.30015
G29  20729852.82214   -245251.48014     -2531.03314        29.40014
G18  21901227.69614    212678.33014      1462.31914        27.40014
G25  22004542.77214   -113377.52114     -4068.38614        23.90014
C35  24179846.14125 -31138323.90425      1627.52125        33.90025
C30  24018199.84614   -244612.20814     -3895.58814        28.10014
C36  23836345.74114  -1072777.05314     -4085.60714        28.80014
R16  21997740.78114    -38520.03714     -4822.16014        28.60014
C29  21422774.82214  30833350.60114     -1235.49014        24.90014
> 2025 05 03 08 06 04.9999999  0 10                      
G28  21462153.46025   -998353.84625     -3059.54925        34.10025
G31  21196383.24925   -203129.21225     -1372.67925        33.10025
G29  20730114.54014   -247777.34414     -2532.79314        29.40014
G18  21900742.03214    214142.47914      1455.72214        27.40014
G25  22005104.88314   -117439.70914     -4068.04614        23.80014
C35  24179330.79825 -31136690.95125      1626.97525        33.70025
C30  24018745.76814   -248502.84314     -3896.45614        28.30014
C36  23836936.63214  -1076858.99614     -4088.60814        28.70014
R16  21998436.89914    -43344.41414     -4818.46214        28.40014
C29  21422805.70014  30832120.24814     -1237.11714        24.70014
> 2025 05 03 08 06 05.9999999  0 10                      
G28  21462489.52825  -1001407.44625     -3059.63325        34.10025
G31  21196409.93125   -204495.83125     -1372.62225        32.90025
G29  20730364.86715   -250300.86315     -2528.20715        29.50015
G18  21900230.58614    215606.07114      1457.44914        27.40014
G25  22005640.61214   -121497.50214     -4061.45614        23.70014
C35  24178775.88215 -31135055.73315      1630.54015        33.60015
C30  24019261.11214   -252389.32814     -3890.21714        28.30014
C36  23837489.74914  -1080941.92314     -4089.22614        28.50014
R16  21999112.63114    -48221.52614     -4811.17314        28.20014
C29  21422808.09914  30830887.44714     -1241.88914        24.60014
> 2025 05 03 08 06 06.9999999  0 10                      
G28  21462853.17625  -1004461.82525     -3060.68425        34.00025
G31  21196455.19925   -205863.64725     -1374.33225        32.80025
G29  20730619.69115   -252825.13615     -2530.56715        29.70015
G18  21899730.23214    217075.48214      1466.40114        27.30014
G25  22006194.92814   -125551.98214     -4058.73914        23.60014
C35  24178248.54715 -31133423.07515      1625.51315        33.40015
C30  24019783.95014   -256279.58714     -3898.00814        28.20014
C36  23838046.16414  -1085021.56514     -4083.86014        28.40014
R16  21999775.77214    -52932.74914     -4816.91414        28.10014
C29  21422828.78414  30829647.57814     -1247.63414        24.60014
> 2025 05 03 08 06 07.9999999  0 11                      
G28  21463205.13225  -1007516.45725     -3060.60025        33.90025
G31  21196474.38625   -207231.78525     -1374.14325        32.60025
G29  20730864.02115   -255348.08215     -2528.12615        29.90015
G18  21899217.28714    218546.52714      1466.01614        27.40014
G25  22006731.55714   -129605.04714     -4058.19814        23.50014
C35  24177698.72715 -31131788.38015      1629.92115        33.20015
C30  24020303.49014   -260171.04314     -3897.84214        28.20014
C36  23838593.88514  -1089104.83314     -4090.86914        28.20014
R16  22000448.20714    -57790.75514     -4815.07714        27.90014
C29  21422823.68814  30828408.91014     -1243.83314        24.50014
R10  20739793.64013      4761.75413      1695.87213        20.60013
> 2025 05 03 08 06 08.9999999  0 11                      
G28  21463552.29225  -1010571.92625     -3061.74925        33.90025
G31  21196502.56725   -208600.37725     -1374.68125        32.50025
G29  20731114.34815   -257873.00315     -2531.76815        30.10015
G18  21898696.84814    220016.94714      1464.24314        27.50014
G25  22007268.48513   -133659.88913     -4061.59113        23.40013
C35  24177148.00915 -31130153.62315      1628.97615        33.00015
C30  24020817.93414   -264062.30614     -3896.97414        28.60014
C36  23839139.50714  -1093189.21314     -4090.74414        28.00014
R16  22001110.74814    -62596.78414     -4812.91514        27.70014
C29  21422826.08614  30827171.77514     -1241.94914        24.50014
R10  20739267.50413      6302.48113      1705.07413        20.30013
> 2025 05 03 08 06 09.9999999  0 11                      
G28  21463888.35925  -1013627.99625     -3062.23025        33.90025
G31  21196524.45125   -209969.84925     -1375.77425        32.40025
G29  20731345.78815   -260399.22415     -2532.73315        30.30015
G18  21898174.60914    221484.13914      1459.71314        27.50014
G25  22007792.82213   -137717.62213     -4065.03913        23.30013
C35  24176596.09115 -31128521.82315      1624.51115        32.80015
C30  24021341.07215   -267954.29715     -3898.16215        29.60015
C36  23839683.63014  -1097272.77614     -4088.96114        27.80014
R16  22001768.49314    -67376.83114     -4807.06914        27.50014
C29  21422820.99014  30825935.96514     -1240.47214        24.70014
R10  20738672.41613      8210.82813      1715.40113        20.10013
> 2025 05 03 08 06 10.9999999  0 9                      
G28  21464251.70815  -1016681.20715     -3058.44915        33.80015
G31  21196565.52325   -211339.67625     -1375.92225        32.30025
G29  20731603.60915   -262927.04715     -2534.54115        30.30015
G18  21897691.94314    222948.06914      1456.37914        27.50014
G25  22008355.83213   -141776.79213     -4065.80413        23.10013
C30  24021877.10115   -271845.94215     -3897.33415        29.80015
C36  23840252.03714  -1101352.29814     -4083.36314        27.60014
R16  22002425.63814    -72055.19514     -4827.57614        27.30014
C29  21422846.77214  30824699.45014     -1242.25514        24.70014
> 2025 05 03 08 06 11.9999999  0 10                      
G31  21196591.30515   -212710.87915     -1377.73515        32.20015
G29  20731854.23615   -265453.05715     -2530.94615        30.20015
G28  21464606.66215  -1019735.45815     -3060.36315        32.70015
G18  21897178.99814    224411.84914      1457.86014        27.40014
G25  22008890.96213   -145836.95713     -4066.50413        22.90013
C30  24022407.73315   -275736.16915     -3895.30615        29.80015
C36  23840804.25514  -1105433.25314     -4087.46014        27.40014
R16  22003110.96314    -76981.98914     -4828.63414        27.00014
C29  21422847.67114  30823461.28314     -1244.80314        24.70014
C35  24175512.34114 -31125254.64314      1630.48214        29.20014
> 2025 05 03 08 06 13.0000000  0 11                      
G31  21196637.17315   -214082.78915     -1378.12515        32.20015
G29  20732127.04715   -267978.92615     -2531.66015        30.10015
G28  21464977.50515  -1022791.62215     -3062.98115        31.60015
G18  21896686.14014    225879.65714      1463.95714        27.30014
G25  22009463.86513   -149892.83213     -4059.59213        22.70013
C30  24022952.75615   -279626.07415     -3895.55215        29.70015
C36  23841385.25214  -1109517.30014     -4091.40014        27.20014
C35  24174998.19714 -31123617.58514      1631.24714        27.70014
R16  22003790.59314    -81718.46014     -4814.02614        26.70014
R10  20736995.37724                      1699.87224        24.00024
C29  21422881.24814  30822222.97514     -1242.61314        24.60014
> 2025 05 03 08 06 14.0000000  0 11                      
G31  21196665.35415   -215455.57615     -1379.08915        32.10015
G29  20732378.57315   -270507.73615     -2536.14115        30.20015
G28  21465321.66715  -1025849.38415     -3064.42115        31.00015
G18  21896174.39414    227346.26114      1460.13814        27.30014
G25  22010005.29013   -153943.46013     -4053.86413        22.60013
C30  24023453.10915   -283515.85715     -3895.52815        29.60015
C36  23841934.47214  -1113597.56614     -4084.18214        27.00014
C35  24174446.57914 -31121985.04814      1624.46514        27.20014
R16  22004481.01514    -86672.77214     -4812.88214        26.50014
R10  20736474.93714      1511.72614      1696.96214        24.00014
C29  21422875.25214  30820985.25214     -1244.34714        24.50014
> 2025 05 03 08 06 14.9999999  0 12                      
G31  21196680.64315   -216829.45015     -1380.33415        32.00015
G29  20732610.31315   -273035.61015     -2533.32215        30.70015
G28  21465654.73615  -1028908.23815     -3065.31615        30.60015
G18  21895649.75714    228807.79314      1453.07614        27.30014
G25  22010532.02613   -157990.69613     -4051.45513        22.40013
C30  24023941.77115   -287406.74315     -3897.29915        29.50015
C36  23842466.60414  -1117676.64514     -4084.34614        26.80014
C35  24173882.96914 -31120353.41114      1625.32214        26.80014
R16  22005124.66914    -91440.55714     -4818.81014        26.30014
C29  21422852.46814  30819745.00714     -1245.21414        24.40014
R10  20735891.84114      3292.72914      1684.47914        23.90014
R09  19073512.08213     -5922.04213     -1483.36813        19.90013
> 2025 05 03 08 06 16.0000000  0 11                      
G31  21196747.19715   -218202.99715     -1379.22815        32.10015
G29  20732884.62315   -275563.47715     -2533.70815        31.10015
G28  21466027.97815  -1031970.62315     -3069.99415        30.30015
G18  21895159.29714    230264.22214      1448.03214        27.30014
G25  22011088.14113   -162034.27913     -4047.59913        22.20013
C30  24024473.90315   -291297.53815     -3896.53915        29.50015
C35  24173347.54014 -31118723.22114      1623.67314        26.50014
R16  22005840.87314    -96372.70614     -4831.48314        26.10014
C29  21422883.94614  30818504.91314     -1246.47214        24.20014
R10  20735352.81414      5063.02514      1694.22914        23.80014
R09  19073607.41613     -7537.22613     -1482.91813        19.70013
> 2025 05 03 08 06 17.0000000  0 11                      
G31  21196774.47825   -219576.90525     -1379.95125        32.20025
G29  20733127.45515   -278090.75415     -2532.84215        31.30015
G28  21466375.73715  -1035032.87115     -3068.03915        30.20015
G18  21894641.25514    231719.66014      1449.07814        27.20014
G25  22011620.57213   -166079.17813     -4051.41713        21.90013
C30  24025006.63414   -295189.58314     -3898.47614        29.40014
C35  24172797.72014 -31117094.87314      1621.61614        26.20014
R16  22006497.71914   -101148.16614     -4831.51614        25.80014
C29  21422883.34614  30817264.72714     -1245.70014        24.10014
R10  20734757.12614      6973.65714      1694.40114        23.60014
R09  19073583.73313     -8677.16713     -1481.65513        19.70013
> 2025 05 03 08 06 18.0000000  0 12                      
G31  21196794.56415   -220955.54115     -1386.86215        32.20015
G29  20733369.68715   -280614.39215     -2527.68115        31.30015
G28  21466719.29915  -1038092.37415     -3063.99215        30.10015
G18  21894128.01114    233184.00614      1462.93614        27.10014
G25  22012149.70613   -170130.60413     -4060.54913        21.70013
C30  24025505.48914   -299081.71914     -3897.98814        29.30014
C35  24172256.59514 -31115464.60314      1625.41914        26.10014
R16  22007137.77614   -105832.66114     -4812.34714        25.60014
C36  23844139.44614  -1129925.18814     -4085.20514        23.50014
C29  21422877.95014  30816027.23014     -1242.77814        23.90014
R10  20734233.38913      8502.93213      1689.19113        23.40013
R09  19073592.42713     -9989.02013     -1479.01313        19.60013
> 2025 05 03 08 06 19.0000000  0 12                      
G31  21196818.84815   -222337.48815     -1389.46515        32.10015
G29  20733619.41415   -283142.47915     -2536.17215        31.20015
G28  21467064.96015  -1041150.15715     -3062.78215        30.00015
G18  21893610.56914    234656.73814      1471.06014        27.10014
G25  22012693.52913   -174186.54113     -4064.05313        21.60013
C30  24025995.94914   -302972.45714     -3895.84714        29.10014
C35  24171706.47614 -31113834.70014      1623.90914        26.50014
R16  22007795.52014   -110613.47214     -4809.13814        25.40014
C36  23844697.36013  -1134002.11213     -4082.73113        23.30013
C29  21422868.35714  30814792.81414     -1238.82414        23.70014
R10  20733703.35613     10064.23913      1694.75013        23.10013
R09  19073610.71413    -11352.06613     -1474.88013        19.60013
> 2025 05 03 08 06 20.0000000  0 11                      
G31  21196859.61915   -223723.55015     -1394.03615        32.00015
G29  20733886.52915   -285668.91015     -2531.52015        31.20015
G28  21467428.00915  -1044211.62615     -3069.22915        29.80015
G18  21893106.61814    236130.56414      1468.45514        27.00014
G25  22013240.05113   -178238.63813     -4056.09113        21.80013
C35  24171181.23915 -31112208.28515      1618.80415        33.50015
C30  24026513.99014   -306862.84914     -3896.08014        29.00014
R16  22008480.54614   -115441.63014     -4812.28314        25.20014
C29  21422897.73714  30813558.36714     -1240.93814        23.60014
C36  23845257.67213  -1138075.13513     -4076.93513        23.30013
R10  20733133.75013     11934.48413      1693.39613        22.80013
> 2025 05 03 08 06 21.0000000  0 10                      
G31  21196893.79615   -225112.68515     -1396.51415        32.10015
G28  21467774.56915  -1047279.00515     -3076.17815        29.70015
G18  21892585.57814    237601.90314      1464.24914        27.40014
G25  22013772.78213   -182287.09313     -4052.47613        21.80013
C35  24170630.52125 -31110585.53925      1615.12025        34.40025
C30  24027014.04414   -310754.71114     -3898.38514        28.80014
R16  22009115.80614   -120100.90814     -4802.80614        25.10014
C29  21422910.02814  30812322.99814     -1240.06914        23.50014
C36  23845796.99813  -1142147.70513     -4078.13213        23.20013
R10  20732581.23313     13616.29513      1687.06813        22.50013
> 2025 05 03 08 06 22.0000001  0 11                      
G31  21196947.45915   -226503.32515     -1397.25515        32.10015
G28  21468154.10615  -1050346.97515     -3074.12615        29.60015
G18  21892101.11414    239072.32914      1464.10414        27.70014
G29  20734407.56814   -290726.31314     -2536.97514        29.20014
G25  22014327.39813   -186333.20313     -4050.79913        21.80013
C35  24170112.77925 -31108966.97825      1610.65625        35.40025
C30  24027542.87814   -314642.07914     -3890.92914        28.60014
R16  22009823.01714   -124984.13614     -4797.11714        25.20014
C29  21422942.10614  30811089.21114     -1239.85514        23.60014
C36  23846369.30213  -1146220.83413     -4079.21713        23.30013
R10  20732050.30013     15342.34213      1674.74213        22.50013
> 2025 05 03 08 06 22.9999998  0 12                      
G31  21196878.80615   -227898.63815     -1403.51115        32.00015
G28  21468413.42715  -1053418.54715     -3079.23415        29.60015
G18  21891498.83114    240536.85714      1455.71614        28.40014
G29  20734560.46214   -293256.50814     -2536.05614        28.00014
G25  22014756.10113   -190376.26313     -4047.39313        22.00013
C35  24169475.12126 -31107353.96426      1604.42926        35.60026
R16  22010395.92016   -129791.70016     -4802.93416        36.90016
C30  24027957.79114   -318521.74114     -3881.61514        28.50014
C29  21422847.97114  30809850.66614     -1247.00814        24.60014
R09  19073794.18724                     -1484.71524        25.60024
C36  23846810.29714  -1150296.41114     -4082.60714        23.60014
R10  20731400.95013     17060.77513      1676.03913        22.90013
> 2025 05 03 08 06 24.0000001  0 11                      
G31  21197011.91415   -229293.43115     -1400.45115        31.90015
G28  21468864.31515  -1056494.72015     -3084.39015        29.70015
G18  21891090.81314    241996.84214      1451.79414        28.70014
G29  20734922.61214   -295778.28314     -2523.48214        27.20014
G25  22015391.36213   -194418.24113     -4047.35313        22.20013
C35  24169039.22226 -31105744.64626      1601.60526        35.50026
R16  22011154.09516   -134530.43716     -4810.40516        36.30016
C29  21422960.09314  30808610.36014     -1243.78514        27.90014
C30  24028576.86214   -322401.56214     -3885.76314        28.30014
R09  19073904.21114     -1276.67214     -1483.95914        27.40014
R10  20730956.65713     18742.63013      1681.61113        23.00013
> 2025 05 03 08 06 24.9999998  0 12                      
G28  21469129.93115  -1059577.64715     -3092.14515        29.70015
G18  21890479.23714    243452.55114      1447.72514        28.90014
G25  22015838.95214   -198463.04914     -4052.06414        24.40014
G31  21196952.85515   -230687.04115     -1398.86215        31.00015
G29  20735072.80814   -298296.76014     -2522.67014        26.70014
C35  24168404.56215 -31104138.32715      1599.02515        35.40015
R16  22011733.29416   -139371.63416     -4815.78016        35.50016
C29  21422872.85414  30807369.66214     -1250.88614        28.20014
C30  24028990.57614   -326277.50514     -3879.79214        28.10014
R09  19073877.52914     -2880.39614     -1494.19614        27.30014
C36  23847928.22324                     -4088.37624        23.60024
R10  20730345.08114     20258.17914      1688.14714        23.70014
> 2025 05 03 08 06 25.9999999  0 11                      
G18  21890009.46214    244901.25514      1439.33714        29.20014
G28  21469507.96915  -1062665.36315     -3095.97315        29.60015
G31  21197014.61215   -232078.67315     -1396.50515        30.00015
G25  22016395.66614   -202510.28814     -4054.31614        25.90014
G29  20735348.61714   -300815.61214     -2524.90214        26.20014
R16  22012429.11215   -144193.71915     -4819.31415        34.90015
C29  21422898.33614  30806124.50914     -1250.38114        29.30014
C36  23848505.32314     -4089.61914     -4095.42614        27.70014
R09  19073932.09214     -4276.29414     -1483.25114        27.50014
C30  24029524.20714   -330144.09114     -3867.71414        27.90014
R10  20729818.64514     21961.35514      1690.67314        24.10014
> 2025 05 03 08 06 26.9999999  0 12                      
G18  21889495.91715    246346.43315      1437.55015        29.50015
G28  21469873.71615  -1065747.76315     -3085.60215        29.50015
G25  22016931.09614   -206562.27514     -4060.22014        26.60014
G31  21197042.49314   -233472.55114     -1400.86314        29.30014
G29  20735589.05014   -303332.60114     -2521.91914        25.90014
R16  22013087.15725   -148975.29825     -4824.94025        34.70025
C36  23849056.34215     -8183.87315     -4102.37815        29.70015
C29  21422902.23314  30804881.51514     -1247.90014        29.30014
R09  19073960.57214     -5694.35514     -1489.99314        27.50014
C30  24030020.66314   -334006.08314     -3865.50214        27.70014
C35  24167348.09315 -31100949.32115      1586.74315        32.60015
R10  20729264.02914     23653.09414      1698.41214        24.20014
> 2025 05 03 08 06 27.9999999  0 12                      
G18  21888980.57415    247788.87915      1435.21615        30.00015
G28  21470214.28014  -1068827.35414     -3084.04914        29.40014
G31  21197067.37614   -234867.68414     -1401.62114        28.80014
G25  22017464.12714   -210618.95414     -4064.88614        26.90014
G29  20735836.97914   -305854.48214     -2530.18714        25.60014
R16  22013747.60015   -153771.39315     -4826.06815        34.60015
C36  23849599.26615    -12280.92315     -4104.25515        30.50015
C29  21422903.73214  30803640.86714     -1246.85614        29.20014
C30  24030533.60814   -337869.93314     -3870.58714        27.50014
R09  19074008.83814     -7220.14214     -1485.96714        27.40014
C35  24166797.37415 -31099359.43915      1584.07015        30.90015
R10  20728678.83414     25507.28514      1699.44614        24.30014
> 2025 05 03 08 06 28.9999999  0 12                      
G18  21888487.11615    249230.95015      1435.96315        30.30015
G28  21470577.02914  -1071912.44714     -3093.75914        29.20014
G25  22018018.44314   -214675.68414     -4062.67014        27.50014
G31  21197115.64214   -236262.23414     -1400.17714        28.50014
G29  20736097.49814   -308383.02414     -2537.78914        25.30014
R16  22014440.72025   -158641.59125     -4824.38325        34.50025
C36  23850171.27015    -16378.67215     -4103.95915        31.20015
C29  21422925.91714  30802395.52514     -1253.38914        29.20014
C30  24031056.74614   -341733.85714     -3869.82214        27.40014
R09  19074076.59214     -8748.18714     -1485.57914        27.30014
R10  20728164.39014     27085.41014      1700.76214        24.30014
C35  24166262.24514 -31097770.63714      1582.39814        29.30014
