     4.01           OBSERVATION DATA    M                   RINEX VERSION / TYPE
GnssLogger          samsung 13          20250503 092025 UTC PGM / RUN BY / DATE
Google GnssLogger                                           MARKER NAME
Unknown                                                     MARKER NUMBER
Unknown             Unknown                                 OBSERVER / AGENCY
Unknown             GnssLogger          v3.1.0.4            REC # / TYPE / VERS
Unknown             Unknown                                 ANT # / TYPE
        0.0000        0.0000        0.0000                  ANTENNA: DELTA H/E/N
G    4 C1C L1C D1C S1C                                      SYS / # / OBS TYPES
R    4 C1C L1C D1C S1C                                      SYS / # / OBS TYPES
C    4 C2C L2C D2C S2C                                      SYS / # / OBS TYPES
  2025    05    03    09    20   25.0000000     GPS         TIME OF FIRST OBS
 3 R09 -2 R10 -7 R19  3                                     GLONASS SLOT / FRQ #
samsung SM-A515F (Android 13) HW Year: 2016 HW Model:       COMMENT
S.LSI,K102                                                  COMMENT
                                                            END OF HEADER
> 2025 05 03 09 20 25.9999999  0 18                      
G16  21533099.34627     54374.19027      1251.73927        41.60027
G26  20485521.66826    -23070.75426      -553.45726        41.10026
G29  22410376.31926   -161574.10826     -3769.44626        39.20026
G18  20624852.01226    -45318.51426     -1072.09426        38.40026
G23  23731686.99526     85318.85826      1975.63026        36.00026
G05  23598428.94826    -98722.07226     -2315.16026        36.10026
G31  22507266.24415   -170850.27115     -3986.45015        31.70015
G28  23865323.08114    -28475.71014     -4760.71314        26.60014
G27  23582464.10013     80525.05513      1861.01213        19.60013
C26  22589236.69726    -23773.53826      -569.41526        38.60026
C13  38237379.81326    -22447.98926      -531.47126        35.50026
C29  22202596.46226   -124292.85826     -2901.04926        35.80026
R10  19338717.48425    -51235.70525     -1213.32825        33.60025
R09  20613053.08025   -197778.98325     -4611.69025        32.70025
C30  26511603.09915   -181630.49715     -4226.72015        30.20015
C35  22276910.81615     12375.88715       274.00815        32.00015
C08  38596336.91214    -34005.77314     -1039.23214        27.90014
R19  21764685.72214   -208509.02514     -4863.10314        25.80014
> 2025 05 03 09 20 26.9999999  0 18                      
G16  21532623.27527     55632.20727      1252.29027        42.10027
G26  20485387.66126    -23618.88926      -554.37226        40.80026
G29  22410858.68526   -165338.87026     -3771.17826        39.20026
G18  20624815.13826    -46385.75226     -1073.72626        38.60026
G23  23731078.71626     87298.82926      1973.32426        36.40026
G05  23598628.31026   -101031.75626     -2315.87826        35.80026
G28  23865993.71615    -33224.82215     -4752.88815        30.20015
G31  22507782.78615   -174831.38115     -3987.05615        31.40015
G27  23581861.21713     82396.14813      1867.36113        19.90013
C26  22589106.28726    -24337.09726      -569.45026        38.60026
C29  22202913.94326   -127188.65026     -2901.90826        35.70026
C13  38237244.30726    -22974.59326      -532.89526        35.50026
R10  19338703.69415    -52427.03315     -1213.87915        33.60015
R09  20613670.35325   -202341.88825     -4614.39625        32.80025
C30  26512171.50615   -185849.01315     -4222.44115        30.20015
C35  22276629.01115     12652.50715       268.57715        31.40015
C08  38596308.73114    -35038.28814     -1037.73414        27.60014
R19  21765352.16014   -213341.71014     -4858.73014        25.70014
> 2025 05 03 09 20 27.9999999  0 17                      
G16  21532146.90527     56888.97227      1250.27527        42.70027
G26  20485256.05226    -24168.62826      -556.40426        40.70026
G18  20624782.76016    -47452.11116     -1072.53316        38.60016
G23  23730458.44516     89276.66716      1970.15716        36.40016
G05  23598824.07416   -103343.28416     -2318.31216        35.70016
G31  22508293.33315   -178812.30515     -3986.69015        31.10015
G28  23866667.35015    -37975.90715     -4757.93115        30.20015
G27  23581280.51913     84270.83613      1870.62113        20.20013
C26  22588978.57616    -24902.67416      -572.39616        38.80016
C29  22203232.92226   -130085.37326     -2902.99626        36.40026
C13  38237112.39815    -23503.27415      -535.53015        35.40015
R10  19338694.40015    -53641.24515     -1216.74415        33.60015
R09  20614288.82525   -206909.37525     -4614.32225        33.10025
C30  26512745.30815   -190068.50415     -4225.78615        30.20015
C35  22276329.21815     12934.75115       279.24615        30.90015
C08  38596270.05814    -36073.76914     -1042.77214        27.80014
R19  21766031.79014   -218246.34114     -4853.01314        26.10014
> 2025 05 03 09 20 29.0000000  0 15                      
G16  21531702.31327     58145.88727      1251.12527        42.70027
G26  20485149.32626    -24717.75026      -554.67726        40.60026
G23  23729875.94916     91257.19716      1976.26116        36.40016
G05  23599056.71316   -105654.16916     -2316.42616        35.50016
G18  20624777.06416    -48519.70016     -1073.81616        38.50016
G28  23867370.96315    -42731.24015     -4763.31715        30.00015
G27  23580725.30413     86147.29313      1871.47713        20.20013
C29  22203587.27626   -132981.13726     -2901.09326        36.40026
R10  19338719.58325    -54878.33625     -1214.41025        33.60025
R09  20614941.17325   -211499.78525     -4612.11725        33.20025
C35  22276071.09715     13216.09915       275.08915        30.50015
C26  22588879.94416    -25468.07116      -571.11616        38.50016
C08  38596257.46714    -37106.78614     -1037.59414        27.80014
C13  38237016.46415    -24031.26415      -533.45315        34.80015
R19  21766727.30814   -223074.43314     -4852.74814        26.10014
> 2025 05 03 09 20 30.0000000  0 13                      
G16  21531207.35527     59402.26427      1250.29827        42.70027
G26  20484997.93126    -25267.07126      -555.22926        40.60026
G05  23599236.88825   -107965.67125     -2317.61725        35.40025
G23  23729254.17916     93241.91216      1980.99716        35.50016
G28  23868026.30914    -47486.71114     -4761.34414        29.30014
G27  23580123.92013     88026.59913      1874.92013        20.10013
R10  19338700.69625    -56139.87325     -1216.88625        33.50025
R09  20615540.75815   -216064.25315     -4610.93915        33.20015
C26  22588736.64316    -26034.81216      -573.16816        37.30016
C35  22275759.31315     13496.99615       274.91615        30.20015
C08  38596191.81214    -38141.10614     -1040.72714        27.70014
C13  38236871.06515    -24557.38415      -530.94115        33.20015
R19  21767341.58314   -227725.75614     -4849.95514        26.00014
> 2025 05 03 09 20 31.0000001  0 14                      
G16  21530758.26627     60658.32027      1250.01327        42.60027
G26  20484897.80026    -25817.17826      -556.38026        40.50026
G05  23599474.02425   -110277.85425     -2318.40325        35.20025
G18  20624724.00115    -50650.45515     -1073.92115        34.90015
G23  23728669.58415     95220.64515      1969.85915        33.60015
G28  23868729.62214    -52238.95514     -4756.50814        28.60014
G27  23579551.61613     89909.46213      1878.75913        20.00013
R10  19338718.98325    -57341.11825     -1217.56625        33.50025
C26  22588634.11416    -26600.66216      -571.23316        36.10016
C35  22275490.99815     13776.09115       272.36515        30.00015
C29  22204242.02315   -138773.11015     -2901.24415        35.30015
C08  38596186.71614    -39175.96814     -1040.96014        27.70014
C13  38236770.03515    -25080.80015      -527.89115        31.70015
R19  21768054.48914   -232647.99314     -4851.28914        25.80014
> 2025 05 03 09 20 31.9999998  0 14                      
G16  21530194.95627     61914.16527      1249.87427        42.60027
G26  20484676.55426    -26367.68026      -556.56326        40.40026
G05  23599578.35225   -112590.61725     -2318.91525        35.10025
G18  20624602.58515    -51722.13615     -1080.02915        33.00015
G23  23727958.17615     97195.17815      1966.56815        32.00015
G28  23869311.51914    -56989.73814     -4755.91314        27.80014
G27  23578878.28213     91794.60513      1880.41713        19.90013
R10  19338613.75625    -58523.29625     -1218.24425        33.40025
C26  22588420.66225    -27166.90625      -572.24925        35.30025
C29  22204468.06715   -141670.49315     -2904.03215        33.70015
C35  22275113.26015     14055.14215       273.21815        29.80015
C08  38596066.49914    -40210.78614     -1040.60514        27.50014
C13  38236544.89115    -25609.46615      -537.10115        30.60015
R19  21768690.04914   -237796.02314     -4855.39014        25.60014
> 2025 05 03 09 20 32.9999999  0 16                      
G16  21529747.36627     63169.67527      1249.48027        42.60027
G26  20484571.32626    -26918.57126      -556.94826        40.30026
G05  23599809.19225   -114904.02425     -2319.59025        34.90025
G18  20624591.49215    -52792.08015     -1074.93815        31.80015
G23  23727375.68015     99170.72115      1970.18315        30.80015
G27  23578307.47713     93680.89313      1880.99813        19.70013
G31  22510866.75113   -198697.12913     -3969.61913        22.30013
R10  19338625.44825    -59690.21825     -1218.78025        33.30025
C26  22588319.93225    -27733.71925      -572.90925        34.70025
C29  22204817.02515   -144567.14715     -2902.09715        32.80015
C35  22274848.54315     14333.16815       271.70415        29.70015
C08  38596063.80114    -41243.70314     -1037.77614        27.40014
C13  38236421.67615    -26139.49215      -536.51615        29.60015
R19  21769326.50914   -242311.06914     -4854.36514        25.40014
R09  20617430.95014   -230116.65614     -4611.17114        26.90014
C30  26515636.80713   -211219.20713     -4248.36413        19.90013
> 2025 05 03 09 20 33.9999999  0 16                      
G16  21529272.79527     64424.76927      1249.02227        42.60027
G26  20484444.21426    -27470.22726      -557.90126        40.20026
G05  23600015.14925   -117218.09025     -2320.25725        34.80025
G18  20624554.31815    -53864.51715     -1079.54615        30.90015
G23  23726764.10315    101151.78515      1977.95915        29.80015
G27  23577715.38713     95567.05013      1880.22513        19.50013
G31  22511391.08813   -202656.15613     -3960.90713        21.40013
C26  22588186.82425    -28301.06625      -573.42325        34.30025
R10  19338617.35425    -60910.53025     -1220.03025        33.10025
C29  22205139.30215   -147463.32315     -2901.74315        32.10015
C35  22274559.84315     14613.58315       275.79915        29.60015
C13  38236295.76314    -26669.88614      -536.38714        28.90014
C08  38596015.53414    -42276.95114     -1039.22414        27.20014
R19  21770034.61914   -247366.48514     -4857.79814        25.20014
R09  20618030.23514   -234582.52514     -4612.88314        25.70014
C30  26516229.49613   -215467.07213     -4257.46813        19.00013
> 2025 05 03 09 20 34.9999999  0 16                      
G16  21528796.42427     65679.57327      1248.79427        42.70027
G26  20484314.40426    -28022.30126      -558.14626        40.10026
G05  23600217.50925   -119532.72725     -2320.78425        34.60025
G18  20624527.03715    -54936.04915     -1076.94215        30.20015
G23  23726151.32714    103135.68714      1979.45614        29.00014
G31  22511918.42313   -206611.21813     -3958.93913        20.70013
G27  23577120.29913     97451.08713      1877.11213        19.30013
C26  22588055.51525    -28868.87525      -573.84925        33.90025
R10  19338620.05225    -62188.81025     -1220.85425        33.00025
C29  22205457.98115   -150360.58815     -2903.61815        31.60015
C35  22274266.34615     14896.37715       278.17415        29.50015
C13  38236159.35814    -27196.74514      -530.90114        28.40014
C08  38595980.75914    -43316.15814     -1047.99514        27.00014
R19  21770690.86414   -252144.83114     -4862.91414        25.00014
R09  20618644.50914   -239129.38514     -4614.88714        24.90014
C30  26516807.49613   -219723.91313     -4267.13513        18.40013
> 2025 05 03 09 20 35.9999999  0 16                      
G16  21528320.95427     66934.03727      1248.42927        42.70027
G26  20484182.19626    -28574.83926      -558.63326        40.00026
G05  23600415.37225   -121848.04325     -2321.51625        34.50025
G18  20624491.06215    -56006.99715     -1076.51815        29.70015
G23  23725542.44914    105121.60114      1981.05614        28.40014
G31  22512423.57313   -210568.18013     -3963.77213        20.20013
G27  23576515.31813     99336.21813      1879.81313        19.10013
C26  22587937.09725    -29437.26525      -574.49025        33.70025
R10  19338592.47115    -63306.15615     -1221.28215        32.90015
C29  22205765.86815   -153254.33315     -2897.79415        31.20015
C35  22273982.74314     15175.20714       271.03814        29.30014
C13  38236019.05514    -27724.17314      -533.52214        28.00014
C08  38595938.48814    -44356.29214     -1046.40714        26.90014
R19  21771378.58814   -257092.32414     -4864.58814        24.90014
R09  20619263.88114   -243702.98814     -4625.73614        24.20014
C30  26517395.68913   -223989.78313     -4276.19113        17.90013
> 2025 05 03 09 20 37.0000000  0 16                      
G16  21527875.46227     68188.14327      1248.06427        42.70027
G26  20484079.96726    -29128.04726      -559.40626        39.90026
G05  23600657.30525   -124164.02325     -2322.17425        34.30025
G18  20624493.46014    -57077.68714     -1076.42414        29.40014
G23  23724950.05914    107108.12814      1980.96914        27.90014
G31  22512968.29613   -214529.18113     -3968.88113        19.80013
G27  23575939.11713    101226.06813      1886.34413        18.90013
C26  22587837.26625    -30006.07325      -574.82825        33.50025
R10  19338617.65425    -64544.01025     -1222.20025        32.70025
C29  22206115.12615   -156150.44315     -2903.10115        30.80015
C35  22273711.13114     15452.77814       271.13214        29.20014
C13  38235918.02514    -28250.09014      -530.97114        27.70014
C08  38595934.59014    -45391.73814     -1038.91114        26.70014
R19  21772095.39214   -262034.46014     -4855.70014        24.80014
R09  20619908.73414   -248252.14114     -4636.98214        23.60014
C30  26518003.96813   -228260.50713     -4278.96013        17.60013
> 2025 05 03 09 20 38.0000000  0 15                      
G16  21527401.19027     69441.74027      1247.47727        42.70027
G26  20483947.15826    -29681.90426      -560.04526        39.80026
G05  23600855.76825   -126480.82725     -2323.07725        34.20025
G18  20624455.68614    -58149.82714     -1078.72714        29.10014
G23  23724341.78014    109088.82714      1971.91914        27.50014
G31  22513483.04013   -218492.57313     -3970.44713        19.60013
G27  23575325.14213    103123.00713      1894.61913        18.70013
C26  22587709.85425    -30575.67525      -575.80725        33.40025
R10  19338596.36825    -65693.39025     -1223.42725        32.60025
C29  22206434.10615   -159049.85115     -2906.86415        30.50015
C35  22273426.32814     15730.81114       272.45314        29.10014
C13  38235789.71414    -28776.91714      -533.09214        27.40014
C08  38595896.51714    -46425.38914     -1038.56314        26.50014
R19  21772754.93514   -266831.17314     -4859.77814        24.60014
R09  20620564.08113   -253016.75713     -4641.53613        23.00013
> 2025 05 03 09 20 39.0000000  0 15                      
G16  21526926.61927     70695.07527      1247.34027        42.70027
G26  20483812.55226    -30236.24126      -560.44026        39.70026
G05  23601057.52825   -128798.06625     -2323.31825        34.10025
G18  20624428.70514    -59221.72114     -1077.63314        28.90014
G23  23723728.40514    111064.93114      1967.94314        27.20014
G31  22514005.57813   -222460.54413     -3976.12113        19.30013
G27  23574727.95513    105028.17513      1903.41913        18.50013
C26  22587580.94325    -31145.56225      -575.84025        33.40025
R10  19338608.06025    -67019.72125     -1224.12625        32.40025
C29  22206755.18315   -161950.72615     -2907.41515        30.20015
C35  22273139.12714     16008.80214       272.16014        29.00014
C13  38235655.40714    -29303.92214      -532.90314        27.20014
C08  38595851.24814    -47456.48514     -1035.62814        26.30014
R19  21773388.69714   -271489.34814     -4858.64114        24.40014
R09  20621257.20113   -257983.84313     -4633.14513        22.50013
> 2025 05 03 09 20 40.0000001  0 15                      
G16  21526480.52827     71947.89527      1246.69827        42.70027
G26  20483712.42126    -30791.28226      -561.25526        39.60026
G05  23601298.56125   -131116.49025     -2324.87925        34.00025
G18  20624428.10614    -60295.89914     -1081.18314        28.70014
G23  23723149.80514    113040.61614      1969.61014        26.90014
G31  22514554.49813   -226436.64613     -3986.02813        19.10013
G27  23574156.85113    106939.89913      1909.13713        18.30013
C26  22587482.01225    -31716.32325      -577.00725        33.40025
R10  19338641.03715    -68300.28815     -1224.98815        32.30015
C29  22207097.54615   -164849.04715     -2902.85315        30.00015
C35  22272879.80614     16288.38714       274.57214        28.90014
C13  38235548.38114    -29830.14714      -531.64514        27.00014
C08  38595848.25014    -48489.93414     -1040.43314        26.20014
R19  21774065.32814   -276216.40814     -4858.55214        24.20014
R09  20621857.68513   -262296.89913     -4620.61413        22.10013
> 2025 05 03 09 20 40.9999998  0 16                      
G16  21525913.92027     73200.30227      1246.33727        42.80027
G26  20483492.67326    -31346.85726      -561.70526        39.50026
G05  23601412.18215   -133435.26815     -2324.81515        33.70015
G18  20624306.69014    -61369.98414     -1079.90114        28.60014
G29  22417534.16424                     -3772.79424        25.90024
G23  23722443.19414    115017.44914      1971.54214        26.60014
G31  22514983.20113   -230417.69513     -3989.38213        19.00013
G27  23573464.03013    108855.46513      1911.62313        18.10013
C26  22587265.56125    -32287.49725      -577.18925        33.30025
R10  19338522.32015    -69409.24415     -1224.17115        32.10015
C35  22272497.87114     16564.78914       269.00014        28.80014
C29  22207331.68415   -167747.22015     -2903.90615        29.70015
C13  38235317.24114    -30357.30414      -533.43214        26.80014
C08  38595713.64314    -49523.83114     -1039.93214        26.00014
R19  21774670.90914   -281205.23514     -4863.64714        23.90014
R09  20622392.51513   -266899.53413     -4619.51513        21.70013
> 2025 05 03 09 20 41.9999998  0 16                      
G16  21525439.34827     74452.18227      1245.75227        42.80027
G26  20483357.46726    -31903.21526      -562.61226        39.40026
G05  23601618.44015   -135755.19215     -2326.35815        33.20015
G29  22418016.23014     -3768.04314     -3773.90314        27.80014
G18  20624265.01814    -62446.81314     -1084.06314        28.40014
G23  23721842.41014    116995.55814      1972.88314        26.40014
G31  22515501.54313   -234407.40313     -3999.89713        18.90013
G27  23572856.35113    110773.94413      1914.06913        17.90013
C26  22587145.64425    -32859.51925      -578.25625        33.30025
R10  19338517.52315    -70647.86215     -1225.69715        32.00015
C35  22272212.16814     16838.90314       267.16014        28.80014
C29  22207647.96514   -170647.90314     -2907.74614        29.40014
C13  38235176.63814    -30885.48514      -534.50314        26.70014
C08  38595681.56614    -50557.15614     -1038.84814        25.70014
R19  21775328.65414   -285991.23114     -4859.37214        23.60014
R09  20622999.89413   -271408.19013     -4618.83513        21.40013
> 2025 05 03 09 20 42.9999999  0 15                      
G16  21524994.15727     75703.83127      1245.66927        42.90027
G26  20483259.43526    -32460.08026      -562.98126        39.40026
G05  23601861.57115   -138075.63715     -2326.56815        32.60015
G18  20624255.12514    -63522.89414     -1081.57014        28.40014
G29  22418530.07514     -7537.89514     -3776.61614        28.00014
G23  23721255.41714    118975.18914      1974.52714        26.20014
G31  22516057.05813   -238408.14413     -4012.11913        18.80013
C26  22587041.31725    -33431.80125      -578.22225        33.30025
R10  19338550.20015    -71926.14115     -1229.59915        31.90015
C35  22271944.15414     17115.39114       271.86414        28.80014
C29  22208003.81914   -173548.21814     -2905.93914        29.20014
C13  38235075.30814    -31416.04014      -537.55114        26.60014
C08  38595662.07914    -51593.08214     -1043.03514        25.50014
R19  21776042.75913   -290918.82413     -4860.33913        23.40013
R09  20623648.04613   -275974.91313     -4619.63013        21.20013
> 2025 05 03 09 20 43.9999999  0 15                      
G16  21524518.38627     76954.94527      1244.98227        42.90027
G26  20483127.52626    -33017.49926      -563.56026        39.30026
G05  23602067.82815   -140398.04915     -2329.25715        32.40015
G29  22419008.84314    -11305.84114     -3772.85314        28.10014
G18  20624223.94714    -64594.56214     -1075.32314        28.30014
G23  23720637.24514    120955.52514      1974.82414        26.00014
G31  22516590.38913   -242418.80913     -4021.48513        18.70013
C26  22586918.40225    -34004.78625      -579.14525        33.30025
R10  19338531.91315    -73092.30015     -1229.70315        31.80015
C35  22271656.05314     17388.55314       265.68914        28.80014
C29  22208323.99714   -176447.47314     -2904.53314        28.90014
C13  38234945.19814    -31950.20714      -541.78214        26.50014
C08  38595624.30514    -52631.49514     -1045.46614        25.30014
R19  21776697.50613   -295690.27813     -4857.70913        23.10013
R09  20624287.80313   -280657.00813     -4609.20413        21.00013
> 2025 05 03 09 20 45.0000000  0 14                      
G16  21524059.70427     78205.54527      1244.53427        42.90027
G26  20483010.00726    -33575.76826      -564.50226        39.20026
G05  23602286.07715   -142718.74915     -2325.65015        32.20015
G18  20624212.85514    -65670.71114     -1084.19714        28.20014
G29  22419483.41514    -15074.99314     -3775.56014        28.10014
G23  23720034.36214    122938.66014      1978.72414        25.90014
G31  22517120.42213   -246434.98713     -4024.74013        18.60013
C26  22586799.98425    -34578.53225      -579.88325        33.40025
R10  19338542.40615    -74350.02315     -1229.59115        31.70015
C35  22271381.14414     17666.40214       274.43614        28.80014
C13  38234823.18314    -32484.38614      -539.94014        26.50014
C08  38595606.61814    -53668.59914     -1042.20514        25.20014
R19  21777343.25913   -300350.02213     -4862.01913        22.90013
R09  20624937.45313   -285329.97413     -4610.44313        20.80013
> 2025 05 03 09 20 46.0000000  0 14                      
G16  21523582.43427     79456.05727      1244.58427        42.90027
G26  20482879.59826    -34134.29726      -564.54026        39.10026
G05  23602485.14015   -145039.51415     -2326.67715        32.20015
G18  20624175.68014    -66748.20314     -1084.04514        28.10014
G29  22419965.78114    -18841.35314     -3770.84314        28.00014
G23  23719408.69514    124923.37314      1979.61814        25.70014
G31  22517651.95413   -250457.74413     -4031.92413        18.60013
C26  22586674.97025    -35152.51725      -579.93125        33.60025
R10  19338531.31315    -75553.55415     -1228.34015        31.60015
C35  22271084.94914     17945.34114       273.65614        28.80014
C13  38234690.07514    -33016.30614      -536.61814        26.50014
C08  38595570.34314    -54702.05914     -1037.46514        25.00014
R19  21778044.47413   -305369.46613     -4863.65513        22.60013
R09  20625595.79713   -290112.16413     -4622.51813        20.60013
> 2025 05 03 09 20 47.0000000  0 15                      
G16  21523106.06427     80706.12627      1243.98427        42.90027
G26  20482747.98926    -34693.41426      -565.27326        39.10026
G05  23602689.59815   -147361.61815     -2328.63615        32.00015
G18  20624139.70514    -67821.37814     -1076.87914        28.10014
G29  22420441.55114    -22607.13714     -3771.35714        27.80014
G23  23718793.22114    126904.66514      1973.71714        25.60014
G31  22518180.18813   -254483.61513     -4033.28813        18.50013
C26  22586546.95925    -35727.24725      -580.91325        33.60025
R10  19338511.82715    -76715.90215     -1229.95715        31.50015
C35  22270798.04714     18219.73114       266.30514        28.80014
C13  38234544.97514    -33542.76114      -529.53214        26.40014
C29  22209305.21814     -2898.45214     -2907.07614        25.50014
C08  38595533.46814    -55735.42514     -1039.12914        24.80014
R19  21778750.78513   -310416.46313     -4864.18213        22.40013
R09  20626246.94613   -294855.38613     -4634.65013        20.50013
> 2025 05 03 09 20 48.0000001  0 15                      
G16  21522659.37327     81955.86227      1243.70627        42.90027
G26  20482644.86026    -35253.12026      -565.86426        39.00026
G05  23602924.33515   -149685.87015     -2331.18715        32.00015
G18  20624148.99914    -68897.74814     -1083.83114        28.00014
G29  22420963.79014    -26372.63114     -3771.20814        27.60014
G23  23718208.62614    128881.58814      1968.87414        25.50014
G31  22518741.40013   -258504.80213     -4024.70613        18.40013
C26  22586449.52625    -36302.41725      -581.20025        33.60025
R10  19338557.09615    -78061.29915     -1230.50415        31.40015
C35  22270537.22814     18493.02114       266.93114        28.70014
C13  38234452.04014    -34072.38714      -537.02214        26.40014
C08  38595523.87514    -56769.33314     -1039.98814        24.70014
C29  22209643.08414     -5800.57814     -2907.93414        25.40014
R19  21779465.79013   -315350.18213     -4867.22813        22.10013
R09  20626892.69913   -299409.88513     -4627.43113        20.40013
> 2025 05 03 09 20 48.9999998  0 15                      
G16  21522091.26627     83204.95627      1242.90827        42.80027
G26  20482425.11226    -35813.55726      -566.66526        39.00026
G05  23603042.45415   -152010.04915     -2330.00315        32.10015
G18  20624021.58714    -69978.17014     -1088.31014        27.90014
G29  22421350.22214    -30138.51414     -3771.93814        27.30014
G23  23717521.20214    130858.12114      1970.47314        25.40014
G31  22519181.49513   -262516.94713     -4013.48413        18.20013
C26  22586228.57925    -36878.17725      -581.86425        33.50025
R10  19338463.56015    -79306.01915     -1232.02015        31.40015
C35  22270166.38514     18766.90214       268.36514        28.70014
C13  38234225.99614    -34603.54914      -537.73914        26.40014
C08  38595388.66814    -57802.06514     -1037.95214        24.60014
C29  22209856.83614     -8704.05214     -2909.95514        25.00014
R19  21780075.86713   -320361.97213     -4873.88813        21.80013
R09  20627423.03213   -303988.83313     -4623.35113        20.30013
> 2025 05 03 09 20 49.9999999  0 15                      
G16  21521647.57327     84453.82427      1242.89127        42.80027
G26  20482325.88126    -36374.52326      -567.09426        38.90026
G05  23603269.69615   -154335.09715     -2331.34515        32.20015
G18  20624022.18714    -71062.98614     -1092.87614        27.80014
G29  22421855.37314    -33906.86414     -3775.44414        27.10014
G23  23716938.10514    132835.12614      1971.37614        25.30014
G31  22519719.62313   -266515.15013     -3997.09313        18.10013
C26  22586139.54125    -37454.61225      -582.58225        33.40025
R10  19338480.94815    -80501.92515     -1234.78515        31.30015
C35  22269909.46214     19038.89214       265.23514        28.70014
C13  38234111.47514    -35135.95114      -538.83314        26.50014
C08  38595389.86814    -58837.12814     -1042.03814        24.40014
C29  22210218.68614    -11611.68614     -2915.52214        24.50014
R19  21780787.27513   -325275.02713     -4885.84313        21.60013
R09  20628077.77913   -308590.70213     -4614.37613        20.30013
> 2025 05 03 09 20 50.9999999  0 15                      
G16  21521176.00027     85702.23227      1242.31427        42.80027
G26  20482195.47126    -36936.00726      -567.60626        38.90026
G05  23603478.05225   -156660.96625     -2332.14025        32.40025
G18  20623987.71014    -72146.21214     -1088.29314        27.70014
G29  22422336.24014    -37673.99514     -3772.38214        27.00014
G23  23716327.12814    134813.85714      1973.73014        25.20014
G31  22520233.76713   -270499.01613     -3982.55613        18.30013
C26  22586006.73325    -38031.45825      -582.86225        33.40025
R10  19338476.15215    -81740.54215     -1233.13315        31.30015
C35  22269612.36814     19315.16614       272.60514        28.70014
C13  38233981.06614    -35668.19614      -537.97514        26.60014
C08  38595361.38714    -59878.49514     -1050.32814        24.20014
C29  22210543.06114    -14519.81414     -2914.18314        24.00014
R19  21781461.50813   -330151.34813     -4907.20913        21.30013
R09  20628706.44413   -313213.20213     -4614.87713        20.20013
> 2025 05 03 09 20 51.9999999  0 15                      
G16  21520698.73027     86950.02227      1241.61527        42.70027
G26  20482063.26326    -37498.42126      -568.74226        38.90026
G05  23603683.11025   -158987.80625     -2333.18725        32.40025
G18  20623962.82814    -73228.11814     -1087.10814        27.60014
G29  22422823.10314    -41439.41114     -3770.41814        26.80014
G23  23715721.54814    136792.41014      1972.59814        25.10014
G31  22520759.60313   -274480.19913     -3985.70113        19.00013
C26  22585886.51625    -38609.36725      -584.25025        33.30025
R10  19338462.36115    -82930.34515     -1233.63315        31.30015
C35  22269323.36814     19589.89614       268.14814        28.80014
C13  38233848.25814    -36202.34514      -540.91214        26.70014
C08  38595313.72014    -60922.26114     -1050.77614        24.10014
C29  22210858.44314    -17428.40214     -2914.62614        23.70014
R09  20629343.80213   -317883.07313     -4612.06713        20.10013
R19  21782146.53413   -335083.53813     -4917.74213        21.00013
> 2025 05 03 09 20 52.9999999  0 14                      
G16  21520228.35627     88197.43027      1241.35427        42.70027
G26  20481937.94926    -38061.38326      -569.09826        38.90026
G05  23603890.26725   -161315.27425     -2333.64425        32.40025
G18  20623928.95114    -74310.70014     -1088.78314        27.50014
G29  22423307.26714    -45204.43214     -3770.68514        26.70014
G23  23715097.97914    138770.65014      1972.21814        24.90014
G31  22521291.73413   -278462.39613     -3988.56513        19.30013
C26  22585758.80525    -39187.65825      -584.29125        33.20025
R10  19338460.56215    -84184.21815     -1237.87715        31.20015
C35  22269035.56714     19860.47314       262.69014        28.80014
C13  38233707.65514    -36737.62014      -541.64714        26.70014
C08  38595268.15214    -61964.80314     -1047.73914        24.00014
C29  22211177.12213    -20333.32613     -2908.90013        23.40013
R09  20629952.68113   -322400.13413     -4610.61713        20.10013
> 2025 05 03 09 20 54.0000000  0 14                      
G16  21519784.96327     89444.28327      1240.71127        42.70027
G26  20481838.41826    -38625.04826      -569.87926        38.80026
G05  23604124.40525   -163643.51725     -2334.49225        32.40025
G18  20623925.35414    -75388.77914     -1081.69014        27.40014
G29  22423815.71514    -48970.98714     -3773.18214        26.60014
G23  23714517.88114    140750.69214      1975.07814        24.70014
G31  22521846.65013   -282449.78013     -3995.83813        19.60013
C26  22585665.26925    -39766.52425      -584.96325        33.20025
R10  19338483.94615    -85412.92215     -1239.55015        31.20015
C35  22268775.94714     20131.70014       265.74214        28.80014
C13  38233604.22714    -37269.07514      -535.35514        26.70014
C08  38595260.65714    -63003.23714     -1042.18914        23.90014
C29  22211533.57513    -23235.43313     -2906.50613        23.20013
R09  20630655.39413   -327258.72813     -4618.32213        20.00013
> 2025 05 03 09 20 55.0000000  0 14                      
G16  21519310.09227     90690.86127      1240.57627        42.60027
G26  20481709.20826    -39189.24126      -570.32026        38.80026
G05  23604329.76325   -165972.99125     -2335.20125        32.50025
G18  20623897.17314    -76470.03814     -1088.71214        27.30014
G29  22424289.98714    -52738.91214     -3774.47014        26.50014
G23  23713901.20814    142730.52414      1973.86314        24.50014
G31  22522382.37913   -286441.46513     -3999.69713        20.00013
C26  22585533.96025    -40346.08625      -585.71925        33.10025
R10  19338467.45815    -86588.99715     -1240.26615        31.20015
C35  22268491.74414     20403.68114       266.54814        28.90014
C13  38233469.62014    -37802.63414      -540.42114        26.70014
C08  38595229.77814    -64039.60114     -1041.13814        23.80014
C29  22211865.44613    -26135.67313     -2905.11513        23.00013
R09  20631314.93813   -332045.49913     -4619.21413        19.90013
> 2025 05 03 09 20 56.0000000  0 14                      
G16  21518837.61927     91937.01327      1240.07527        42.60027
G26  20481580.89726    -39754.01326      -570.92526        38.80026
G05  23604540.51725   -168302.51625     -2335.66125        32.50025
G18  20623876.18814    -77555.07614     -1092.79114        27.10014
G29  22424763.95914    -56506.54014     -3773.34014        26.40014
G23  23713284.83514    144712.57714      1977.29814        24.30014
G31  22522911.21313   -290437.33813     -4003.82613        20.10013
C26  22585413.14425    -40926.21225      -586.21825        33.10025
R10  19338461.16215    -87818.46115     -1237.82415        31.20015
C35  22268200.04614     20676.48014       267.39714        28.90014
C13  38233340.10914    -38338.64814      -543.05014        26.60014
C08  38595208.49314    -65078.83614     -1046.48014        23.70014
C29  22212167.63613    -29034.77513     -2904.34013        22.70013
R09  20631933.11013   -336613.75313     -4616.40313        19.80013
> 2025 05 03 09 20 56.9999999  0 14                      
G16  21518314.78127     93182.73627      1239.69927        42.50027
G26  20481404.01926    -40319.43826      -571.55826        38.80026
G05  23604698.50725   -170632.85325     -2336.55025        32.50025
G18  20623794.34414    -78639.61514     -1090.09614        27.00014
G29  22425202.25614    -60276.97214     -3777.63914        26.30014
G23  23712617.19714    146696.36114      1978.84014        24.10014
G31  22523383.98613   -294437.92313     -4008.74813        20.40013
C26  22585238.36525    -41506.84925      -586.64925        33.00025
R10  19338412.29615    -89078.47415     -1242.90715        31.10015
C35  22267863.07914     20945.86014       261.91614        29.00014
C13  38233158.43514    -38874.36814      -541.32914        26.60014
C08  38595123.95214    -66120.11114     -1048.05014        23.70014
C29  22212434.75113    -31929.62613     -2898.47913        22.50013
R09  20632473.63613   -341023.11913     -4625.64313        19.60013
> 2025 05 03 09 20 57.9999999  0 14                      
G16  21517841.10927     94428.18927      1239.43527        42.50027
G26  20481267.91326    -40885.32226      -571.99626        38.70026
G05  23604901.76725   -172963.74825     -2337.05425        32.50025
G18  20623769.76114    -79725.41114     -1092.30614        26.80014
G29  22425688.21914    -64049.38514     -3779.28214        26.10014
G23  23711992.12914    148679.84614      1977.45114        23.80014
G31  22523904.12613   -298437.41713     -4004.82613        20.60013
C26  22585111.85225    -42087.92325      -587.12025        33.00025
R10  19338417.09215    -90368.19215     -1239.55315        31.10015
C35  22267575.57814     21214.71214       262.75814        29.00014
C13  38233021.73014    -39409.62714      -540.85614        26.60014
C08  38595084.67914    -67157.58114     -1041.39514        23.70014
C29  22212754.33013    -34824.51313     -2900.72913        22.30013
R09  20633079.51613   -345524.13513     -4621.38413        19.40013
> 2025 05 03 09 20 58.9999999  0 14                      
G16  21517369.23527     95673.20327      1238.93127        42.50027
G26  20481139.90226    -41451.81726      -572.66326        38.70026
G05  23605109.22325   -175295.39125     -2337.87925        32.60025
G18  20623742.18014    -80817.29914     -1100.79514        26.60014
G29  22426171.48514    -67820.45814     -3776.26414        26.00014
G23  23711384.75014    150658.39014      1970.21014        23.60014
G31  22524433.55913   -302436.94813     -4005.41013        20.80013
C26  22584992.53525    -42669.74025      -587.99825        33.10025
R10  19338408.39815    -91586.21615     -1242.11815        31.10015
C35  22267287.77714     21485.56914       266.04914        29.00014
C13  38232888.62214    -39941.53514      -536.04114        26.50014
C08  38595039.41014    -68197.15014     -1046.42814        23.70014
C29  22213072.41013    -37723.07113     -2906.20213        22.10013
R09  20633672.80613   -349957.91113     -4611.57113        19.20013
> 2025 05 03 09 20 59.9999999  0 14                      
G16  21516895.26327     96918.05827      1238.91227        42.40027
G26  20481013.68926    -42018.65026      -572.86626        38.70026
G05  23605315.78025   -177627.51025     -2338.21725        32.60025
G18  20623717.59714    -81911.11314     -1100.64114        26.50014
G29  22426654.75014    -71592.34414     -3778.15214        25.80014
G23  23710759.38313    152633.00613      1966.78713        23.40013
G31  22524944.10613   -306433.50413     -4000.92913        21.00013
C26  22584868.12125    -43251.63125      -587.73725        33.10025
R10  19338401.50315    -92813.39315     -1243.32815        31.10015
C35  22266992.48214     21757.03414       265.95914        29.00014
C13  38232748.91914    -40474.64414      -539.51914        26.50014
C08  38594993.24214    -69237.44214     -1046.46314        23.70014
C29  22213368.00513    -40620.30013     -2902.37213        21.90013
R09  20634322.45613   -354693.48813     -4591.33613        19.00013
> 2025 05 03 09 21 01.0000000  0 14                      
G16  21516448.87227     98162.37127      1238.17827        42.40027
G26  20480913.85826    -42586.18426      -573.74726        38.70026
G05  23605549.91825   -179960.33325     -2339.03825        32.60025
G18  20623700.20914    -83001.44614     -1094.45414        26.30014
G29  22427164.09714    -75363.79314     -3777.09214        25.60014
G23  23710177.78513    154604.23413      1963.66813        23.20013
G31  22525493.32513   -310427.03913     -3997.88513        21.20013
C26  22584766.49225    -43834.48125      -589.13925        33.10025
R10  19338423.98815    -94037.52015     -1241.62515        31.00015
C35  22266731.36314     22028.19514       265.19914        29.00014
C13  38232640.69414    -41011.11614      -543.96314        26.40014
C08  38594988.44514    -70275.92914     -1043.39314        23.70014
C29  22213719.96213    -43517.73313     -2903.34513        21.60013
R09  20634933.43313   -359063.08413     -4570.37713        18.70013
> 2025 05 03 09 21 02.0000000  0 13                      
G16  21515974.00127     99406.38027      1237.99227        42.30027
G26  20480786.14726    -43154.40626      -574.42926        38.70026
G05  23605759.17325   -182293.91125     -2339.81725        32.60025
G18  20623666.93214    -84089.94114     -1093.43914        26.20014
G29  22427650.96014    -79134.58514     -3776.32314        25.40014
G23  23709567.40813    156571.01013      1958.68613        23.10013
G31  22526003.87213   -314418.75313     -3996.66413        21.30013
C26  22584645.07625    -44417.77125      -589.32025        33.10025
R10  19338414.99415    -95254.02015     -1244.85815        31.00015
C35  22266444.16114     22297.05014       261.89114        29.00014
C13  38232506.98614    -41543.38814      -535.98314        26.30014
C08  38594956.06814    -71317.49714     -1048.91814        23.80014
C29  22214042.23913    -46411.96713     -2898.44113        21.40013
> 2025 05 03 09 21 03.0000000  0 13                      
G16  21515499.43027    100649.88927      1237.39527        42.30027
G26  20480659.93426    -43723.17026      -574.89726        38.70026
G05  23605963.93125   -184628.29825     -2340.65225        32.70025
G18  20623624.96214    -85178.45314     -1094.38214        26.00014
G29  22428130.02914    -82904.94414     -3776.00214        25.20014
G23  23708959.72913    158536.56513      1959.08013        23.00013
G31  22526538.10213   -318412.93813     -4001.28013        21.40013
C26  22584520.36225    -45001.72325      -590.09325        33.20025
R10  19338409.29815    -96487.29615     -1243.90415        30.90015
C35  22266160.25814     22567.79714       265.88314        29.00014
C13  38232372.08014    -42075.04314      -537.15514        26.20014
C08  38594918.89414    -72361.15814     -1050.51614        24.00014
C29  22214360.01913    -49304.95013     -2898.16513        21.10013
> 2025 05 03 09 21 04.0000000  0 13                      
G16  21515024.85827    101893.16327      1237.29227        42.30027
G26  20480527.72626    -44292.34326      -575.24226        38.70026
G05  23606172.28725   -186963.10425     -2340.87825        32.80025
G18  20623588.98614    -86266.64414     -1093.89314        25.90014
G29  22428609.99614    -86674.28514     -3774.69214        25.10014
G23  23708355.04713    160503.11113      1961.17613        22.90013
G31  22527060.64013   -322409.63613     -4003.81313        21.40013
C26  22584392.65025    -45586.11025      -590.41325        33.20025
R10  19338401.50315    -97709.89815     -1246.38415        30.90015
C35  22265879.05314     22835.79214       260.80914        29.00014
C13  38232235.97414    -42607.29814      -538.36514        26.20014
C08  38594891.61314    -73407.03014     -1052.78814        24.00014
C29  22214675.40013    -52198.74613     -2900.00913        20.90013
> 2025 05 03 09 21 05.0000001  0 13                      
G16  21514581.76527    103136.01227      1236.77127        42.20027
G26  20480429.69426    -44862.15526      -575.99426        38.70026
G05  23606414.81925   -189298.72625     -2341.89025        32.80025
G18  20623581.49214    -87359.09314     -1100.44114        25.70014
G29  22429125.63914    -90441.98314     -3772.73714        25.00014
G23  23707769.25313    162474.15013      1967.42213        22.80013
G31  22527620.35313   -326411.89713     -4010.90513        21.50013
C26  22584300.01425    -46170.95925      -590.89125        33.20025
R10  19338434.18115    -98986.65215     -1247.69415        30.80015
C35  22265612.83714     23100.96414       257.95014        29.00014
C13  38232127.74914    -43140.51314      -539.50414        26.10014
C08  38594876.92314    -74449.01814     -1045.85514        24.00014
C29  22215027.35713    -55094.26013     -2902.18213        20.70013
> 2025 05 03 09 21 05.9999998  0 13                      
G16  21514017.85527    104378.54027      1236.50427        42.20027
G26  20480213.24326    -45432.52226      -576.50726        38.60026
G05  23606529.04025   -191634.83825     -2342.21825        32.80025
G18  20623463.37314    -88453.96714     -1101.94914        25.60014
G29  22429515.37014    -94208.35414     -3771.56714        24.80014
G23  23707069.23713    164448.57713      1970.25513        22.80013
G31  22528061.34813   -330413.69713     -4007.42713        21.70013
C26  22584085.66325    -46756.44025      -591.60525        33.30025
R10  19338341.84515   -100238.23415     -1248.07215        30.80015
C35  22265233.30014     23363.81114       255.87414        29.00014
C13  38231916.09514    -43677.48714      -544.66314        26.00014
C08  38594755.20714    -75492.25014     -1049.66214        23.90014
C29  22215252.20113    -57989.16113     -2900.40213        20.50013
> 2025 05 03 09 21 06.9999999  0 13                      
G16  21513575.66127    105620.77127      1236.21827        42.10027
G26  20480112.21326    -46003.30226      -576.85026        38.60026
G05  23606758.08125   -193971.72525     -2343.13725        32.70025
G18  20623469.96914    -89545.01914     -1095.00314        25.40014
G29  22430040.90614    -97978.56014     -3777.98514        24.70014
G23  23706476.24813    166426.87513      1974.36913        23.10013
G31  22528612.06613   -334415.41113     -4007.53213        21.70013
C26  22583987.63125    -47342.23425      -591.76125        33.30025
R10  19338366.42815   -101473.04015     -1248.56615        30.70015
C35  22264971.28114     23628.33314       259.55114        29.00014
C13  38231805.77214    -44214.73014      -543.18814        25.80014
C08  38594739.31814    -76539.00614     -1054.32814        23.80014
C29  22215597.86213    -60886.57513     -2904.47813        20.40013
> 2025 05 03 09 21 07.9999999  0 13                      
G16  21513102.88927    106862.56827      1235.71727        42.10027
G26  20479985.40126    -46574.74126      -577.63126        38.50026
G05  23606968.23625   -196309.24025     -2343.68925        32.70025
G18  20623435.49314    -90634.41014     -1094.42314        25.20014
G29  22430525.67014   -101751.28214     -3779.83914        24.60014
G23  23705869.46813    168406.51113      1974.44013        23.10013
G31  22529133.10613   -338418.93013     -4010.28113        22.00013
C26  22583866.81425    -47928.85425      -592.84125        33.30025
R10  19338363.43015   -102721.57115     -1250.58515        30.60015
C35  22264685.87914     23894.22414       260.76414        28.90014
C13  38231667.26714    -44751.32514      -542.08114        25.70014
C08  38594710.23814    -77583.84814     -1049.69514        23.70014
C29  22215926.73413    -63787.09913     -2907.88713        20.20013
> 2025 05 03 09 21 09.0000000  0 12                      
G16  21512642.10827    108104.12427      1235.62527        42.10027
G26  20479866.08426    -47146.58126      -577.84926        38.50026
G05  23607188.28425   -198647.38325     -2344.26425        32.60025
G18  20623434.59314    -91724.05014     -1095.57314        25.00014
G23  23705266.88513    170387.78313      1976.27913        23.00013
G31  22529667.03613   -342421.45413     -4007.83213        22.00013
C26  22583756.79125    -48515.60725      -592.57525        33.40025
R10  19338372.12415   -103967.85515     -1249.67215        30.50015
C35  22264410.96914     24157.50714       256.22514        28.90014
C13  38231537.75714    -45287.56114      -541.81114        25.50014
C08  38594686.85414    -78625.95414     -1046.49214        23.60014
C29  22216271.49513    -66689.47313     -2909.05313        20.10013
> 2025 05 03 09 21 10.0000000  0 12                      
G16  21512169.33527    109345.24427      1235.02027        42.00027
G26  20479741.07026    -47719.18126      -578.86026        38.40026
G05  23607392.14225   -200986.01125     -2344.75125        32.60025
G18  20623412.10914    -92818.91614     -1103.35914        24.90014
G23  23704667.30013    172370.39313      1977.39613        22.90013
G31  22530187.77613   -346419.78613     -4002.11413        22.20013
C26  22583629.67925    -49103.10725      -593.70125        33.50025
R10  19338375.12115   -105248.42115     -1250.37215        30.40015
C35  22264118.97114     24423.19014       261.05414        28.80014
C13  38231408.84614    -45828.42214      -549.00214        25.30014
C08  38594649.08014    -79669.64514     -1050.31214        23.50014
C29  22216612.35913    -69597.19613     -2916.22313        19.90013
> 2025 05 03 09 21 11.0000000  0 12                      
G16  21511696.86227    110586.06027      1234.80027        42.00027
G26  20479611.86026    -48292.23526      -579.14526        38.30026
G05  23607609.19225   -203325.45525     -2345.71325        32.60025
G18  20623392.62214    -93913.49714     -1100.30114        24.90014
G31  22530704.01813   -350417.33213     -4003.01413        22.20013
G23  23704040.13413    174354.94513      1979.65913        22.70013
C26  22583503.46625    -49691.19025      -594.18425        33.80025
R10  19338365.52815   -106461.10715     -1251.95515        30.30015
C35  22263831.17014     24692.18514       264.84114        28.70014
C13  38231265.24614    -46376.32714      -557.23614        25.10014
C08  38594614.30413    -80713.04813     -1049.06813        23.40013
C29  22216951.12513    -72507.56213     -2917.49513        20.50013
> 2025 05 03 09 21 12.0000001  0 12                      
G16  21511252.87027    111826.44927      1234.31127        42.00027
G26  20479510.23026    -48865.78726      -579.66326        38.30026
G05  23607842.43125   -205665.70125     -2346.50925        32.60025
G18  20623384.82814    -95007.26514     -1099.22414        24.80014
G31  22531273.92413   -354415.49513     -4004.33213        22.40013
G23  23703454.04013    176336.69713      1974.48713        22.50013
C26  22583411.13025    -50279.77325      -594.64325        33.90025
R10  19338397.30615   -107734.04615     -1252.98015        30.20015
C35  22263572.15014     24960.84914       262.68814        28.60014
C13  38231162.41714    -46927.77414      -559.02914        24.90014
C08  38594605.31113    -81753.56613     -1044.88513        23.30013
C29  22217314.47313    -75420.18013     -2919.55213        21.00013
> 2025 05 03 09 21 13.0000001  0 12                      
G16  21510779.49727    113066.54227      1234.08027        42.00027
G26  20479383.71826    -49439.93826      -580.31426        38.20026
G05  23608058.58125   -208006.36125     -2346.72825        32.50025
G18  20623368.33914    -96100.40414     -1098.68614        24.80014
G31  22531797.96113   -358414.52513     -4005.32313        22.40013
G23  23702833.77013    178315.05113      1970.79013        22.30013
C26  22583283.41825    -50868.66325      -594.85225        33.90025
R10  19338379.91815   -108905.54515     -1250.35115        30.20015
C35  22263294.54214     25225.78814       257.26614        28.50014
C13  38231038.30314    -47476.85114      -553.70014        24.70014
C08  38594573.53313    -82795.51713     -1048.47613        23.20013
C29  22217640.04813    -78332.84313     -2918.49313        21.40013
> 2025 05 03 09 21 13.9999998  0 12                      
G16  21510217.98627    114306.34727      1233.79727        42.00027
G26  20479166.06826    -50014.52026      -580.66026        38.10026
G05  23608177.29925   -210347.72525     -2347.57725        32.50025
G18  20623252.61914    -97193.32914     -1098.68114        24.70014
G31  22532229.96213   -362416.28313     -4008.98113        22.50013
G23  23702130.15713    180289.23013      1966.22713        22.10013
C26  22583073.56325    -51458.31025      -595.83625        33.90025
R10  19338280.38715   -110117.47015     -1259.82915        30.10015
C35  22262906.61014     25488.88814       256.37114        28.30014
C13  38230826.94914    -48026.21814      -555.32114        24.50014
C08  38594432.93013    -83837.94913     -1048.48213        23.10013
C29  22217884.67813    -81242.56413     -2914.05813        21.70013
> 2025 05 03 09 21 14.9999999  0 12                      
G16  21509772.79427    115545.74827      1233.33527        42.00027
G26  20479072.83326    -50589.69826      -581.33926        38.00026
G05  23608414.73525   -212689.69325     -2348.13325        32.40025
G18  20623255.61714    -98285.76614     -1098.05514        24.70014
G31  22532783.07913   -366419.13213     -4009.25613        22.50013
G23  23701560.25113    182262.78913      1967.38313        22.00013
C26  22582980.02825    -52048.34325      -596.03525        33.90025
R10  19338316.66215   -111416.34315     -1261.04115        30.10015
C35  22262648.78914     25752.80914       258.52114        28.20014
C13  38230733.11414    -48569.88114      -546.62114        24.40014
C08  38594437.42713    -84879.45813     -1046.85613        23.00013
C29  22218234.53613    -84150.65513     -2913.08413        22.20013
> 2025 05 03 09 21 15.9999999  0 12                      
G16  21509303.01927    116784.76827      1232.96627        42.00027
G26  20478944.22226    -51165.55226      -582.05426        38.00026
G05  23608616.19515   -215031.92315     -2348.97215        32.30015
G18  20623228.63614    -99378.72414     -1099.08014        24.60014
G31  22533303.21913   -370422.75913     -4009.87413        22.50013
G23  23700947.47513    184235.08413      1965.79813        21.80013
C26  22582855.91425    -52639.05525      -596.86225        33.90025
R10  19338306.46915   -112625.21215     -1258.12315        30.00015
C35  22262364.88514     26016.11014       257.18114        28.10014
C13  38230598.50714    -49105.19814      -536.95514        24.30014
C08  38594393.65713    -85920.02113     -1045.90013        22.90013
C29  22218551.11713    -87059.89813     -2915.62613        22.40013
> 2025 05 03 09 21 16.9999999  0 12                      
G16  21508829.64727    118023.42427      1232.61027        42.00027
G26  20478818.00926    -51741.74626      -582.22826        37.90026
G05  23608822.45215   -217373.92015     -2347.49215        32.20015
G18  20623198.65714   -100475.31714     -1104.27314        24.80014
G31  22533830.55413   -374425.99213     -4008.89613        22.40013
G23  23700335.89913    186204.72313      1962.44713        21.60013
C26  22582731.80025    -53230.22425      -597.20625        34.00025
R10  19338316.66215   -113944.67515     -1251.20915        29.90015
C35  22262072.88814     26279.66614       257.87414        28.00014
C13  38230453.10814    -49638.00514      -537.36114        24.10014
C08  38594355.88313    -86965.22613     -1053.33513        22.90013
C29  22218864.10013    -89970.69413     -2917.38213        22.50013
> 2025 05 03 09 21 18.0000000  0 12                      
G16  21508387.15327    119261.73227      1232.26927        42.00027
G26  20478723.57526    -52318.67326      -583.15626        37.80026
G05  23609060.18815   -219718.04215     -2351.04615        32.10015
G18  20623203.75314   -101571.56014     -1101.93014        24.90014
G31  22534389.06713   -378431.70413     -4012.81313        22.40013
G23  23699751.30413    188170.88813      1958.56413        21.40013
C26  22582640.36325    -53821.93825      -597.79725        34.00025
R10  19338338.84715   -115165.75515     -1258.08115        29.80015
C35  22261812.96814     26544.61914       259.84014        27.80014
C13  38230347.88114    -50172.47614      -541.11314        24.00014
C29  22219204.36513    -92881.69513     -2916.91013        22.70013
C08  38594348.68813    -88011.73413     -1052.96913        22.80013
> 2025 05 03 09 21 19.0000000  0 12                      
G16  21507912.28227    120499.66027      1231.87527        42.00027
G26  20478593.16526    -52896.18026      -583.66026        37.70026
G05  23609264.94615   -222063.55015     -2352.06215        32.00015
G18  20623168.97714   -102671.29414     -1107.34214        25.00014
G31  22534904.41013   -382440.66813     -4016.44913        22.30013
G23  23699155.01613    190135.51413      1957.99113        21.20013
C26  22582519.54725    -54414.07225      -598.15325        34.00025
R10  19338327.75415   -116370.81315     -1262.23815        29.70015
C35  22261522.46914     26810.23314       260.13414        27.70014
C13  38230217.17114    -50711.86614      -547.65814        23.90014
C29  22219523.34413    -95794.46313     -2919.46013        23.00013
C08  38594306.11813    -89059.14713     -1053.67413        22.80013
> 2025 05 03 09 21 20.0000000  0 12                      
G16  21507441.60827    121737.26627      1231.58127        42.00027
G26  20478465.75326    -53474.04826      -583.91126        37.60026
G05  23609476.30015   -224409.94515     -2352.69915        31.90015
G18  20623135.40014   -103771.91914     -1106.93414        25.00014
G31  22535433.84413   -386449.15813     -4014.11413        22.20013
G23  23698542.24113    192100.48713      1959.28113        21.10013
C26  22582388.23825    -55006.78425      -598.81125        34.00025
R10  19338348.44015   -117744.42915     -1259.41215        29.60015
C35  22261237.96614     27072.21114       254.35014        27.50014
C13  38230080.16614    -51255.24314      -551.18014        23.80014
C29  22219848.01913    -98707.06413     -2918.32513        23.10013
C08  38594268.34413    -90106.52813     -1053.17513        22.70013
> 2025 05 03 09 21 20.9999998  0 12                      
G16  21506892.38827    122974.48127      1231.20827        42.00027
G26  20478263.39326    -54052.58826      -584.68426        37.60026
G05  23609612.10615   -226758.82715     -2355.93215        31.80015
G18  20623033.47114   -104874.95114     -1110.04214        25.00014
G31  22535873.63913   -390458.36713     -4015.37313        22.00013
G23  23697869.20713    194065.56213      1959.31613        21.00013
C26  22582189.77525    -55600.16325      -599.46825        33.90025
R10  19338281.88615   -119070.03415     -1258.17815        29.50015
C35  22260865.02414     27333.11614       254.61414        27.40014
C13  38229869.71214    -51800.85114      -552.47914        23.70014
C29  22220092.05013   -101618.56813     -2916.70713        23.10013
C08  38594152.02513    -91155.31013     -1055.23613        22.60013
> 2025 05 03 09 21 21.9999999  0 13                      
G16  21506448.99527    124211.37927      1230.85827        42.00027
G26  20478158.76626    -54631.63626      -585.18426        37.50026
G05  23609850.14115   -229104.17815     -2349.46515        31.70015
G18  20623042.16514   -105980.24614     -1112.30814        25.00014
G31  22536431.25313   -394470.60513     -4019.63213        21.90013
G23  23697287.90913    196031.92113      1961.11913        20.90013
C26  22582098.93825    -56193.95025      -599.81825        33.90025
R10  19338286.98314   -120201.86914     -1259.45414        29.40014
C35  22260608.10214     27600.62014       264.97514        27.30014
C13  38229762.98614    -52343.95214      -547.67514        23.60014
C29  22220450.30213   -104526.52513     -2912.01113        23.10013
C08  38594155.92213    -92205.75813     -1057.11013        22.50013
R19  21802190.95713     -9496.25713     -4868.39513        19.60013
> 2025 05 03 09 21 22.9999999  0 13                      
G16  21505975.32327    125447.88827      1230.45027        42.00027
G26  20478031.65426    -55211.32226      -585.86926        37.50026
G05  23610062.39415   -231448.26915     -2349.32315        31.70015
G18  20622992.99914   -107080.96614     -1104.29514        25.00014
G31  22536948.39513   -398484.03213     -4019.88113        21.80013
G23  23696667.93813    198001.29113      1965.01113        20.80013
C26  22581972.72625    -56788.34125      -600.50325        33.80025
R10  19338305.27014   -121562.52214     -1262.39114        29.40014
C35  22260314.60514     27872.27314       267.91714        27.10014
C13  38229623.58214    -52884.17614      -544.59614        23.50014
C29  22220775.87713   -107430.33413     -2907.54213        23.20013
C08  38594132.23813    -93250.84913     -1048.22013        22.40013
R19  21802913.75713    -14631.27313     -4867.06713        20.00013
> 2025 05 03 09 21 23.9999999  0 14                      
G16  21505502.85027    126683.96427      1229.99627        42.00027
G26  20477907.24026    -55791.59326      -586.42626        37.40026
G05  23610273.14815   -233796.31615     -2355.88515        31.60015
G29  22438136.50114     -3774.70314     -3776.82114        25.00014
G18  20622961.22114   -108179.37214     -1103.11214        24.90014
G31  22537473.93113   -402497.88913     -4019.93113        21.70013
G23  23696060.55913    199972.59813      1966.41113        20.70013
C26  22581853.40825    -57383.41225      -601.22025        33.80025
R10  19338310.66614   -122854.53014     -1260.04114        29.30014
C35  22260035.19814     28141.25814       261.84014        27.00014
C29  22221105.04914   -110336.26914     -2912.80714        23.50014
C13  38229477.88314    -53425.05814      -547.02014        23.50014
C08  38594091.16713    -94292.59913     -1045.88913        22.20013
R19  21803693.81713    -20070.91713     -4860.92913        20.10013
> 2025 05 03 09 21 24.9999999  0 13                      
G16  21505032.47627    127919.81527      1229.87427        42.00027
G26  20477777.43026    -56372.26726      -586.73826        37.50026
G05  23610490.19815   -236143.38015     -2352.43415        31.60015
G18  20622938.73714   -109279.40214     -1106.70314        25.00014
G31  22538004.86413   -406508.54413     -4014.91413        21.60013
G23  23695436.09113    201944.11413      1965.75413        20.60013
C26  22581730.19325    -57978.74725      -601.27825        33.70025
R10  19338281.28614   -123961.96114     -1262.55214        29.20014
C35  22259742.00114     28403.34714       252.83114        26.90014
C29  22221431.52314   -113244.78314     -2915.61114        23.50014
C13  38229340.87813    -53964.05713      -543.86813        23.40013
C08  38594051.29413    -95332.79413     -1045.22613        22.10013
R19  21804316.78613    -24672.45213     -4858.22413        20.30013
> 2025 05 03 09 21 26.0000000  0 13                      
G16  21504590.88227    129155.15727      1229.22427        42.00027
G26  20477681.49626    -56953.62326      -587.56126        37.60026
G05  23610724.93515   -238493.07015     -2356.86615        31.60015
G18  20622933.64014   -110381.00314     -1108.24914        25.00014
G31  22538566.97513   -410514.37313     -4009.27813        21.50013
G23  23694848.79813    203916.46813      1966.90913        20.40013
C26  22581637.55825    -58574.73025      -602.11525        33.70025
R10  19338326.55514   -125307.36014     -1267.72814        29.20014
C35  22259487.77714     28664.09914       254.27414        26.70014
C13  38229248.24213    -54500.03613      -540.27813        23.40013
C29  22221784.07914   -116153.57714     -2914.74114        23.50014
C08  38594042.60013    -96371.78813     -1044.20413        22.10013
R19  21804985.92213    -29359.71413     -4868.67313        20.60013
> 2025 05 03 09 21 27.0000000  0 13                      
G16  21504114.81127    130390.24127      1229.09027        42.10027
G26  20477555.58326    -57535.42026      -587.87926        37.70026
G05  23610931.79215   -240839.45115     -2350.58715        31.60015
G18  20622896.16614   -111483.84814     -1109.32914        25.00014
G31  22539096.70813   -414518.36513     -4008.93313        21.50013
G23  23694237.52113    205891.25613      1970.14013        20.30013
C26  22581511.34525    -59171.17925      -602.49225        33.90025
R10  19338326.85514   -126573.43514     -1267.45714        29.20014
C35  22259214.96614     28924.42714       254.30414        26.60014
C13  38229117.23313    -55034.38513      -539.34313        23.40013
C29  22222087.76913   -119063.10813     -2915.70713        23.40013
C08  38594005.42613    -97417.16413     -1054.37513        22.40013
R19  21805642.16813    -34138.05813     -4878.61313        20.70013
> 2025 05 03 09 21 28.0000000  0 14                      
G16  21503644.73727    131625.02827      1228.77527        42.10027
G26  20477434.76726    -58117.75526      -588.46826        37.80026
G05  23611139.24815   -243190.52115     -2359.27615        31.70015
G18  20622882.97514   -112588.81814     -1111.89614        25.00014
G29  22440099.84214     -3776.16214     -3783.09414        24.40014
G31  22539609.35313   -418523.35313     -4011.34613        21.40013
G23  23693622.34713    207864.68613      1966.88713        20.20013
C26  22581390.82825    -59768.02225      -602.85025        34.20025
R10  19338311.86514   -127756.37214     -1262.02314        29.20014
C35  22258930.16314     29182.64714       251.35714        26.50014
C08  38593971.54913    -98465.49813     -1055.62213        23.20013
C13  38228981.72713    -55569.36913      -541.11213        23.40013
C29  22222413.34313   -121976.34613     -2920.90013        23.30013
R19  21806274.73013    -38790.11013     -4876.51313        20.90013
> 2025 05 03 09 21 29.0000000  0 14                      
G16  21503174.66227    132859.46827      1228.40327        42.10027
G26  20477309.15426    -58700.58826      -588.94426        38.00026
G05  23611350.00315   -245540.65015     -2355.52115        31.70015
G18  20622859.59114   -113696.67914     -1115.16814        25.00014
G29  22440604.09314     -7550.76014     -3780.45814        24.40014
G31  22540132.19113   -422533.10913     -4018.00013        21.40013
G23  23693005.67313    209836.42713      1965.03013        20.10013
C26  22581274.80925    -60365.50525      -603.61225        34.40025
R10  19338322.35814   -129078.12614     -1262.91214        29.30014
C35  22258642.96214     29440.52814       251.90114        26.40014
C08  38593938.57214    -99514.38014     -1054.96614        23.60014
C13  38228850.11813    -56107.03213      -544.81113        23.40013
C29  22222735.32013   -124891.74513     -2922.28713        23.10013
R19  21806930.67613    -43569.21813     -4878.61113        21.00013
> 2025 05 03 09 21 30.0000001  0 14                      
G16  21502734.26727    134093.49427      1227.95327        42.00027
G26  20477217.11826    -59284.02826      -589.60726        38.00026
G05  23611592.23515   -247891.46915     -2357.02415        31.70015
G29  22441079.26414    -11327.59814     -3783.81914        25.10014
G18  20622864.98814   -114805.88314     -1115.73814        25.00014
G31  22540686.20813   -426544.71913     -4018.39813        21.40013
G23  23692418.68013    211807.99513      1965.61813        20.10013
C26  22581180.07425    -60963.48425      -604.03725        34.60025
R10  19338346.64114   -130310.64514     -1267.77814        29.30014
C35  22258389.03814     29697.01614       249.98314        26.30014
C08  38593937.37314   -100562.70014     -1053.84814        23.60014
C13  38228755.98313    -56647.42013      -547.56013        23.40013
C29  22223082.48013   -127810.09213     -2925.62813        23.00013
R19  21807621.09813    -48369.75513     -4871.05813        21.00013
> 2025 05 03 09 21 30.9999998  0 14                      
G16  21502170.65727    135327.14927      1227.60627        42.00027
G26  20477000.06826    -59868.02526      -590.13926        38.00026
G05  23611712.45215   -250245.12915     -2360.94215        31.70015
G29  22441489.38014    -15103.58714     -3781.42314        25.50014
G18  20622760.66014   -115913.87514     -1113.24814        24.90014
G31  22541119.70813   -430558.03113     -4020.02313        21.30013
G23  23691708.47213    213783.22813      1971.20013        20.00013
C26  22580968.72125    -61561.96125      -604.53625        34.60025
R10  19338261.20014   -131598.83814     -1271.01214        29.30014
C35  22258000.50714     29955.19814       253.21814        26.10014
C08  38593814.15814   -101609.90214     -1052.45114        23.60014
C13  38228523.04413    -57190.28913      -549.91913        23.30013
C29  22223316.61813   -130726.21313     -2920.81613        22.80013
R19  21808230.57613    -53379.24713     -4866.24413        21.10013
> 2025 05 03 09 21 31.9999999  0 14                      
G16  21501725.16527    136560.46227      1227.27827        42.00027
G26  20476902.03626    -60452.53826      -590.63326        38.00026
G05  23611957.98215   -252598.15815     -2358.57515        31.70015
G29  22442001.72514    -18874.68314     -3774.51014        25.90014
G18  20622771.45214   -117023.47314     -1116.26414        24.80014
G31  22541665.03013   -434571.89813     -4020.00413        21.20013
G23  23691126.27513    215761.20513      1973.48413        19.90013
C26  22580876.68425    -62161.00525      -605.13825        34.60025
R10  19338283.38514   -132820.67414     -1267.63614        29.30014
C35  22257740.58714     30219.10014       260.95314        26.00014
C08  38593809.66214   -102657.11714     -1053.03114        23.60014
C13  38228430.40813    -57728.68813      -541.97313        23.20013
C29  22223660.18013   -133636.56013     -2913.26813        22.70013
R19  21808916.20113    -58154.52813     -4876.37413        21.20013
> 2025 05 03 09 21 32.9999999  0 14                      
G16  21501255.09127    137793.44227      1226.94927        42.00027
G26  20476779.42126    -61037.60726      -591.21126        38.00026
G05  23612175.03115   -254953.81215     -2362.82815        31.60015
G29  22442483.49214    -22649.71314     -3782.85814        26.20014
G18  20622739.97414   -118136.83314     -1121.10314        24.70014
G31  22542191.16613   -438587.77113     -4022.73613        21.00013
G23  23690521.89313    217741.13113      1975.03513        19.80013
C26  22580753.76925    -62760.55025      -605.60425        34.60025
R10  19338283.98514   -134087.51314     -1270.02814        29.40014
C35  22257446.49014     30482.94914       258.01214        25.80014
C08  38593776.08514   -103705.67114     -1055.03414        23.50014
C13  38228279.31313    -58264.28513      -540.00513        23.10013
C29  22223973.16413   -136542.60213     -2909.69713        22.50013
R19  21809611.42013    -63141.05713     -4876.91913        21.30013
> 2025 05 03 09 21 34.0000000  0 14                      
G16  21500795.50927    139026.06327      1226.63127        42.00027
G26  20476661.90226    -61623.26226      -591.75626        38.00026
G05  23612396.57815   -257307.34515     -2358.27915        31.50015
G29  22442979.94814    -26428.32614     -3786.20914        26.20014
G18  20622726.48414   -119252.87514     -1123.19114        24.60014
G31  22542726.89513   -442603.83813     -4021.96913        20.80013
G23  23689925.00613    219720.37913      1973.09913        19.60013
C26  22580642.24725    -63360.87125      -606.46325        34.60025
R10  19338305.86914   -135406.25514     -1269.56414        29.40014
C35  22257172.78014     30743.93314       253.79614        25.60014
C08  38593746.40514   -104756.76914     -1058.12414        23.50014
C13  38228153.70013    -58800.56113      -542.37213        23.00013
R19  21810224.49613    -67626.29013     -4868.77013        21.50013
C29  22224303.83513   -139441.53513     -2901.13113        22.30013
> 2025 05 03 09 21 35.0000000  0 14                      
G16  21500324.53527    140258.29627      1226.15727        41.90027
G26  20476532.69126    -62209.43326      -592.30926        38.10026
G05  23612612.42915   -259662.68315     -2362.12115        31.50015
G29  22443457.81714    -30206.66214     -3784.07714        26.20014
G18  20622697.70314   -120366.82014     -1118.77714        24.50014
G31  22543256.92813   -446619.98913     -4022.07113        20.60013
G23  23689309.83213    221696.96613      1969.37313        19.50013
C26  22580520.83125    -63961.53125      -606.65725        34.50025
R10  19338304.07115   -136659.36315     -1274.74515        29.50015
C35  22256899.66914     31004.66314       254.77514        25.50014
C08  38593700.83714   -105807.69414     -1056.66514        23.60014
C13  38228023.59013    -59336.51913      -541.62613        22.80013
R19  21810946.99613    -72759.77713     -4873.19613        21.70013
C29  22224642.60013   -142343.99413     -2910.04813        22.10013
> 2025 05 03 09 21 36.0000000  0 14                      
G16  21499853.86127    141490.32427      1226.06027        41.90027
G26  20476406.77926    -62796.05426      -592.70926        38.30026
G05  23612824.08215   -262018.46715     -2361.86715        31.50015
G29  22443946.17914    -33979.31214     -3775.66714        26.10014
G18  20622671.02214   -121474.87914     -1110.97914        24.50014
G31  22543793.25713   -450635.09613     -4020.44513        20.40013
G23  23688694.95813    223671.24213      1967.25613        19.50013
C26  22580394.91825    -64562.46225      -606.87625        34.40025
R10  19338294.47715   -137872.04715     -1271.16515        29.60015
C35  22256603.47414     31267.63114       258.27614        25.50014
C08  38593664.26214   -106854.45814     -1050.49414        23.60014
C13  38227893.18013    -59873.53213      -543.35013        22.70013
R19  21811620.92913    -77632.26313     -4875.01013        21.70013
C29  22224975.67013   -145252.09013     -2916.72313        22.00013
> 2025 05 03 09 21 37.0000001  0 14                      
G16  21499412.26727    142721.78027      1225.30627        41.90027
G26  20476309.94626    -63383.42526      -593.61026        38.30026
G05  23613063.61615   -264373.57515     -2360.63315        31.50015
G29  22444450.73014    -37752.19814     -3778.86414        26.10014
G18  20622670.12314   -122579.38014     -1108.58414        24.40014
G31  22544346.67413   -454646.98413     -4016.13913        20.30013
G23  23688114.85913    225645.88513      1968.96113        19.40013
C26  22580304.68025    -65164.25225      -608.03025        34.40025
R10  19338332.85115   -139180.83615     -1273.77515        29.60015
C35  22256347.15114     31526.13614       250.46414        25.40014
C08  38593669.65814   -107902.85914     -1055.02814        23.60014
C13  38227787.65313    -60411.79513      -544.69713        22.60013
R19  21812300.85813    -82377.69313     -4877.20313        21.70013
C29  22225330.02413   -148164.18413     -2919.90113        21.90013
> 2025 05 03 09 21 37.9999998  0 14                      
G16  21498851.35527    143953.05127      1225.31527        41.90027
G26  20476098.89226    -63971.16326      -593.78326        38.40026
G05  23613179.93615   -266729.99415     -2362.93415        31.50015
G29  22444844.65714    -41529.14814     -3784.84314        26.30014
G18  20622543.61014   -123681.88514     -1107.37114        24.20014
G23  23687413.64513    227618.04213      1965.05013        19.60013
G31  22544771.18013   -458655.62313     -4012.87513        20.10013
C26  22580097.82425    -65766.38725      -608.11525        34.30025
R10  19338248.90915   -140476.65715     -1277.15115        29.60015
C35  22255970.31214     31779.35814       244.77014        25.40014
C08  38593547.64314   -108951.80214     -1055.02314        23.60014
C13  38227569.70413    -60953.72613      -549.57513        22.50013
C29  22225568.35913   -151080.13913     -2923.69313        21.70013
R19  21812867.16613    -87156.80113     -4877.07913        21.60013
> 2025 05 03 09 21 38.9999999  0 15                      
G16  21498408.86127    145183.78927      1224.60827        41.90027
G26  20476007.45526    -64559.56926      -594.60326        38.40026
G05  23613419.17015   -269089.72115     -2367.24415        31.50015
G29  22445352.20614    -45307.27914     -3784.58214        26.50014
G18  20622554.10314   -124783.37214     -1106.84014        24.10014
G23  23686837.74313    229587.62213      1962.42613        19.60013
G31  22545325.49613   -462659.93913     -4008.01413        20.00013
C26  22580006.08725    -66369.26625      -609.06225        34.30025
R10  19338266.89615   -141675.61315     -1274.18015        29.60015
C35  22255715.48914     32030.88614       244.87214        25.30014
C08  38593547.64314   -110004.09414     -1059.77714        23.60014
C13  38227465.97613    -61498.23613      -551.60813        22.40013
R19  21813577.67413    -92065.26013     -4873.40713        21.50013
C29  22225917.61713   -153999.46013     -2926.81213        21.60013
C30  26553405.56013    -25329.02613     -4226.49913        20.60013
> 2025 05 03 09 21 39.9999999  0 14                      
G16  21497936.98827    146414.25427      1224.46327        41.90027
G26  20475879.44426    -65148.47126      -595.01226        38.40026
G05  23613630.82415   -271448.10915     -2363.57915        31.50015
G29  22445836.07114    -49082.04814     -3778.94914        26.70014
G18  20622521.12614   -125890.87314     -1116.37014        24.00014
G23  23686236.66013    231552.66013      1956.90213        19.60013
G31  22545848.33413   -466658.83813     -4002.05113        19.80013
C26  22579884.97125    -66972.48825      -609.20225        34.20025
R10  19338267.79615   -142944.73815     -1273.24415        29.50015
C35  22255428.88714     32285.16414       249.84214        25.20014
C08  38593512.26714   -111054.80814     -1055.73414        23.50014
C13  38227343.06113    -62042.17713      -549.46713        22.40013
R19  21814246.51113    -96910.95313     -4861.25813        21.40013
C29  22226247.08913   -156920.14913     -2927.18013        21.40013
> 2025 05 03 09 21 40.9999999  0 14                      
G16  21497468.71227    147644.26027      1223.91327        41.90027
G26  20475755.33026    -65738.01126      -595.72226        38.40026
G05  23613835.88215   -273805.22815     -2362.34615        31.50015
G29  22446319.33614    -52856.24714     -3779.77314        26.70014
G18  20622497.44214   -127002.83914     -1120.06114        23.90014
G23  23685627.48113    233513.49813      1952.87413        19.50013
G31  22546379.86613   -470651.32713     -3995.14513        19.70013
C26  22579764.75425    -67576.35625      -610.00125        34.20025
R10  19338262.10015   -144178.78015     -1275.65615        29.50015
C35  22255140.78714     32539.89414       249.14514        25.00014
C08  38593474.49413   -112100.99013     -1049.72513        23.40013
C13  38227213.55113    -62584.46713      -547.27513        22.40013
R19  21814900.65913   -101678.58013     -4855.03013        21.30013
C29  22226565.76913   -159837.24313     -2921.10513        21.30013
> 2025 05 03 09 21 41.9999999  0 14                      
G16  21496996.53927    148874.12027      1223.92227        41.90027
G26  20475633.31426    -66327.95226      -596.00526        38.40026
G05  23614048.43415   -276160.64315     -2360.42515        31.40015
G29  22446807.69814    -56637.04214     -3789.95414        26.70014
G18  20622467.16314   -128117.81814     -1122.34714        23.80014
G23  23685023.69913    235476.78813      1958.65113        19.90013
G31  22546891.01213   -474638.29213     -3990.06213        19.50013
C26  22579643.93825    -68180.58525      -610.21925        34.40025
R10  19338274.39114   -145507.39814     -1277.40614        29.40014
C35  22254851.78714     32795.21714       249.81114        24.90014
C08  38593443.61513   -113147.28813     -1052.16413        23.30013
C13  38227083.74113    -63126.12813      -547.15513        22.30013
C29  22226893.14213   -162753.97413     -2922.35613        21.20013
R19  21815597.37613   -106672.76313     -4853.36613        21.20013
> 2025 05 03 09 21 43.0000000  0 14                      
G16  21496556.14427    150103.62727      1223.46627        41.90027
G26  20475536.48126    -66918.40326      -596.56826        38.40026
G05  23614295.46315   -278519.55815     -2366.52615        31.40015
G29  22447316.44614    -60419.95114     -3789.82614        26.90014
G18  20622478.55514   -129233.40714     -1121.75714        23.70014
G23  23684445.40013    237442.33813      1960.81513        20.00013
G31  22547459.41913   -478624.55113     -3991.76713        19.40013
C26  22579553.40025    -68785.35525      -610.85025        34.50025
R10  19338308.26814   -146793.30414     -1279.27614        29.40014
C35  22254602.35914     33051.30414       250.65914        24.80014
C08  38593436.12013   -114192.62713     -1050.67013        23.20013
C13  38226975.51613    -63666.89613      -546.13113        22.30013
C29  22227248.69613   -165671.21213     -2923.29913        21.20013
R19  21816304.28713   -111563.62013     -4855.11813        21.10013
> 2025 05 03 09 21 44.0000000  0 14                      
G16  21496086.36927    151332.77527      1223.10427        41.80027
G26  20475412.96726    -67509.44426      -597.19826        38.40026
G05  23614511.01415   -280882.17115     -2370.32315        31.30015
G29  22447806.00714    -64200.46414     -3785.17514        26.90014
G18  20622453.67214   -130350.22314     -1123.29314        23.70014
G23  23683839.21913    239412.49713      1966.59913        20.00013
G31  22547976.86013   -482605.17313     -3983.66313        19.20013
C26  22579429.88625    -69390.72225      -611.47425        34.60025
R10  19338293.27814   -147977.00514     -1275.63714        29.30014
C35  22254322.35314     33308.13314       251.38914        24.60014
C08  38593401.94413   -115240.44713     -1054.86913        23.20013
C13  38226832.21513    -64211.57113      -552.43813        22.20013
C29  22227564.07813   -168592.37313     -2928.93013        21.10013
R19  21816972.52413   -116407.78713     -4865.92613        21.00013
> 2025 05 03 09 21 45.0000000  0 14                      
G16  21495617.19427    152561.56427      1222.74527        41.80027
G26  20475284.65526    -68101.01426      -597.69726        38.40026
G05  23614723.86715   -283243.77015     -2366.95315        31.30015
G29  22448283.57714    -67979.15214     -3783.63514        26.90014
G18  20622432.68714   -131470.98814     -1128.60014        23.90014
G23  23683232.73913    241381.05513      1961.89213        20.40013
G31  22548487.40713   -486580.96113     -3979.23113        19.00013
C26  22579311.16825    -69996.41625      -611.66825        34.70025
R10  19338310.96614   -149335.37114     -1279.66714        29.20014
C35  22254032.45414     33564.68514       250.60414        24.50014
C08  38593362.07113   -116293.54613     -1061.54913        23.10013
C13  38226703.00413    -64760.04613      -556.18513        22.20013
C29  22227874.36313   -171514.63313     -2928.61813        21.00013
R19  21817693.52513   -121532.85313     -4858.05013        20.80013
> 2025 05 03 09 21 45.9999998  0 14                      
G16  21495065.27627    153789.86427      1222.24627        41.80027
G26  20475084.39426    -68693.24926      -598.37526        38.30026
G05  23614862.97115   -285605.63515     -2367.80515        31.30015
G29  22448686.79814    -71755.32814     -3780.72514        26.90014
G18  20622338.85214   -132589.70014     -1123.49414        24.00014
G23  23682538.72013    243349.60913      1962.74213        20.90013
G31  22548934.69713   -490554.53713     -3978.27613        18.80013
C26  22579111.20725    -70602.95925      -612.72225        34.90025
R10  19338228.82314   -150577.83914     -1281.87914        29.10014
C35  22253669.70514     33822.26014       252.33214        24.40014
C08  38593249.94913   -117347.40613     -1059.99413        23.10013
C13  38226489.85213    -65310.06213      -556.54213        22.10013
C29  22228119.59313   -174438.48913     -2930.40613        21.00013
R19  21818275.42213   -126331.13113     -4853.35613        20.70013
> 2025 05 03 09 21 46.9999999  0 14                      
G16  21494624.58127    155017.88927      1222.00527        41.80027
G26  20474988.16126    -69285.87726      -598.70726        38.30026
G05  23615110.29915   -287969.87515     -2371.30715        31.30015
G29  22449190.44914    -75534.54414     -3786.61514        26.90014
G18  20622350.54414   -133704.41914     -1118.60314        24.00014
G23  23681968.51413    245321.37213      1967.48513        21.30013
G31  22549471.32613   -494528.29313     -3979.72513        18.60013
C26  22579023.96725    -71209.83325      -612.86725        35.00025
R10  19338271.39314   -151908.74414     -1279.39514        29.10014
C35  22253408.58614     34083.42114       257.12414        24.30014
C08  38593246.95113   -118401.53913     -1060.09813        23.00013
C13  38226390.62013    -65858.58413      -553.60313        22.10013
C29  22228465.85313   -177362.77313     -2930.32513        21.00013
R19  21818985.63113   -131238.06113     -4853.34713        20.50013
> 2025 05 03 09 21 47.9999999  0 13                      
G16  21494153.30727    156245.53027      1221.58527        41.70027
G26  20474865.84526    -69879.16826      -599.48526        38.20026
G05  23615316.55715   -290334.30415     -2370.38515        31.20015
G29  22449677.01214    -79313.07314     -3784.04614        27.00014
G18  20622324.46214   -134817.88014     -1118.69414        24.10014
G23  23681370.12913    247290.22813      1961.53713        21.50013
G31  22549982.47213   -498499.54313     -3975.85713        18.30013
C26  22578902.85125    -71817.24925      -613.49825        35.20025
R10  19338275.59014   -153194.65114     -1281.22914        29.10014
C35  22253123.18314     34343.37814       253.54714        24.20014
C08  38593208.87713   -119458.64913     -1064.40813        22.90013
C29  22228786.63113   -180280.76813     -2920.65713        21.10013
R19  21819645.47413   -136036.30513     -4860.31313        20.30013
> 2025 05 03 09 21 48.9999999  0 13                      
G16  21493683.53327    157472.81827      1221.24727        41.70027
G26  20474740.83226    -70473.01626      -599.98926        38.20026
G05  23615530.00915   -292698.56015     -2370.03115        31.20015
G29  22450165.37414    -83090.98514     -3783.46514        27.20014
G18  20622296.88114   -135932.94214     -1121.72614        24.20014
G23  23680763.04913    249257.41413      1960.48613        21.60013
G31  22550496.91613   -502465.31613     -3968.89413        18.00013
C26  22578779.63625    -72425.25925      -614.11625        35.20025
R10  19338280.98714   -154487.42314     -1286.17514        29.00014
C35  22252844.37614     34598.08714       246.27314        24.10014
C08  38593163.00913   -120517.25113     -1065.15713        22.80013
C29  22229107.40913   -183193.80513     -2916.36713        21.10013
R19  21820306.21613   -140839.14213     -4870.38713        20.10013
> 2025 05 03 09 21 49.9999999  0 12                      
G16  21493213.75827    158699.62427      1220.70027        41.70027
G26  20474618.51726    -71067.53726      -600.72126        38.10026
G05  23615745.85915   -295063.27015     -2370.79915        31.30015
G29  22450643.54314    -86872.10814     -3788.58814        27.50014
G18  20622264.20414   -137049.42814     -1123.06014        24.30014
G23  23680161.06613    251223.26513      1959.31913        21.70013
C26  22578658.22025    -73033.87925      -614.73425        35.30025
R10  19338276.19014   -155725.27614     -1287.46614        29.00014
C35  22252567.06814     34851.52814       246.99814        24.00014
C08  38593130.33213   -121577.98613     -1067.61113        22.70013
C29  22229441.37813   -186104.92613     -2915.97013        21.30013
R19  21820983.44813   -145730.00113     -4887.18413        20.00013
> 2025 05 03 09 21 51.0000000  0 12                      
G16  21492773.66227    159926.24827      1220.66927        41.70027
G26  20474523.18326    -71662.32626      -600.78526        38.10026
G05  23616000.68315   -297430.24815     -2373.97315        31.50015
G29  22451151.39114    -90652.00214     -3785.14014        27.70014
G18  20622283.69014   -138169.75914     -1128.11614        24.30014
G23  23679571.07413    253188.63713      1959.26713        21.90013
C26  22578571.58025    -73642.86025      -614.97225        35.30025
R10  19338321.75814   -157072.19814     -1283.46114        29.10014
C35  22252306.84914     35104.82614       247.41614        24.00014
C08  38593123.73613   -122638.68413     -1066.48913        22.60013
C29  22229805.92613   -189016.49413     -2917.60013        21.40013
R19  21821647.78813   -150391.23713     -4892.31813        19.80013
> 2025 05 03 09 21 52.0000000  0 12                      
G16  21492303.58827    161152.55627      1220.28527        41.70027
G26  20474399.66826    -72257.69326      -601.51926        38.00026
G05  23616206.04115   -299796.03515     -2371.05315        31.60015
G29  22451631.35914    -94431.14614     -3784.63014        27.70014
G18  20622260.90614   -139292.12814     -1129.25014        24.30014
G23  23678960.69713    255162.93913      1972.90213        21.90013
C26  22578450.16425    -74252.33725      -615.53525        35.30025
R10  19338304.37014   -158242.93614     -1287.33214        29.10014
C35  22252017.54914     35356.76114       245.44314        24.00014
C08  38593077.26913   -123696.21913     -1061.76213        22.50013
C29  22230137.19613   -191932.52113     -2924.06313        21.50013
R19  21822347.50313   -155403.02313     -4876.91213        19.70013
> 2025 05 03 09 21 53.0000000  0 12                      
G16  21491834.71227    162378.59227      1220.03627        41.70027
G26  20474279.45126    -72853.56026      -601.98026        38.00026
G05  23616416.49515   -302163.84515     -2374.68415        31.60015
G29  22452114.92414    -98209.12914     -3783.26214        27.70014
G18  20622245.31714   -140413.38614     -1126.56414        24.30014
G23  23678356.31513    257140.46313      1973.27113        21.90013
C26  22578328.44825    -74862.22625      -615.90425        35.30025
R10  19338324.75614   -159615.79114     -1286.88814        29.20014
C35  22251737.84214     35609.34414       247.09614        24.00014
C08  38593044.89113   -124752.36713     -1061.26413        22.40013
C29  22230464.27013   -194851.71913     -2926.59213        21.80013
R19  21823021.43713   -160275.50913     -4872.01313        19.50013
> 2025 05 03 09 21 54.0000001  0 12                      
G16  21491395.21727    163604.14527      1219.44827        41.60027
G26  20474186.21626    -73449.99526      -602.58226        37.90026
G05  23616653.93115   -304531.45415     -2373.36915        31.60015
G29  22452628.76914   -101987.83214     -3784.92314        27.70014
G18  20622240.82014   -141535.00314     -1127.66014        24.20014
G23  23677773.81813    259118.14213      1971.89213        21.80013
C26  22578241.50925    -75472.74425      -616.64225        35.30025
R10  19338340.94514   -160805.59414     -1289.28014        29.20014
C35  22251486.31714     35859.66914       243.38614        23.90014
C29  22230834.51413   -197768.63113     -2921.57713        22.30013
C08  38593053.28513   -125804.68913     -1056.21813        22.40013
R19  21823690.27413   -164962.00213     -4871.05513        19.40013
> 2025 05 03 09 21 54.9999998  0 12                      
G16  21490833.70527    164829.26727      1219.04127        41.60027
G26  20473972.16426    -74047.16926      -603.40726        37.90026
G05  23616781.64215   -306898.91315     -2373.24515        31.60015
G29  22453012.50314   -105765.79114     -3783.44814        27.60014
G18  20622132.59514   -142657.63414     -1129.00114        24.10014
G23  23677069.00613    261094.77213      1970.24013        21.80013
C26  22578033.45325    -76084.04425      -617.50125        35.30025
R10  19338271.09414   -162176.92414     -1288.03714        29.20014
C35  22251107.37914     36107.89614       241.36814        23.90014
C29  22231060.85713   -200682.57213     -2918.26213        22.70013
C08  38592926.77313   -126855.26913     -1055.51813        22.30013
R19  21824291.65713   -169927.10113     -4872.54813        19.30013
> 2025 05 03 09 21 55.9999998  0 12                      
G16  21490363.63127    166054.05927      1218.76227        41.60027
G26  20473845.95126    -74644.89226      -603.85926        37.90026
G05  23616991.19715   -309267.07815     -2374.38015        31.60015
G29  22453489.47314   -109545.83314     -3786.94414        27.50014
G18  20622090.02414   -143778.55914     -1125.93314        24.10014
G23  23676444.23913    263065.79013      1962.34713        22.30013
C26  22577911.13725    -76695.63925      -617.55125        35.30025
R10  19338268.39514   -163425.45714     -1290.15214        29.20014
C35  22250820.47814     36357.88014       245.05314        23.90014
C29  22231380.73513   -203600.57213     -2925.83813        23.10013
C08  38592895.29513   -127903.48413     -1052.84113        22.30013
R19  21824955.99713   -174749.83613     -4870.10513        19.40013
> 2025 05 03 09 21 56.9999999  0 12                      
G16  21489923.23627    167278.56727      1218.50327        41.60027
G26  20473755.41426    -75243.01826      -604.19126        37.80026
G05  23617234.62915   -311636.21115     -2375.47915        31.60015
G29  22453998.22014   -113324.42214     -3783.72214        27.40014
G18  20622095.12114   -144902.51114     -1131.32814        24.00014
G23  23675855.74613    265031.68713      1957.47213        22.80013
C26  22577823.89825    -77307.83525      -618.30725        35.30025
R10  19338299.87414   -164699.16014     -1290.50114        29.20014
C35  22250564.45514     36607.88614       244.20614        23.90014
C29  22231729.39413   -206518.76513     -2924.09813        23.10013
C08  38592891.09713   -128954.40913     -1058.09113        22.20013
R19  21825687.79113   -179773.87313     -4875.78413        19.40013
> 2025 05 03 09 21 58.0000000  0 13                      
G16  21489463.95427    168502.69927      1218.13427        41.60027
G26  20473642.99226    -75841.64826      -604.69026        37.80026
G05  23617455.57615   -314004.47515     -2373.63615        31.60015
G29  22454487.48214   -117106.08214     -3789.00114        27.40014
G18  20622080.73114   -146023.10814     -1124.72714        24.00014
G23  23675250.16513    266995.31113      1956.67713        23.30013
C26  22577719.57025    -77920.42325      -618.53825        35.40025
R10  19338303.47114   -165919.51114     -1292.28414        29.20014
C35  22250285.04814     36859.05114       245.98914        23.90014
C29  22232050.17213   -209438.84513     -2926.77513        23.10013
C08  38592873.70913   -130007.51913     -1059.95613        22.20013
C13  38224935.12813     -3828.10413      -556.94713        21.40013
R19  21826385.40813   -184711.45713     -4892.08713        19.40013
> 2025 05 03 09 21 59.0000000  0 13                      
G16  21488994.17927    169726.38927      1217.58527        41.60027
G26  20473522.17626    -76440.99626      -605.58826        37.70026
G05  23617673.52515   -316374.17615     -2376.29915        31.60015
G29  22454973.74514   -120887.72314     -3787.51014        27.30014
G18  20622070.53814   -147143.62214     -1126.35314        24.10014
G23  23674631.69414    268957.90014      1956.18814        23.60014
C26  22577595.45625    -78533.70125      -619.45225        35.40025
R10  19338311.56514   -167226.00814     -1292.25914        29.20014
C35  22250005.34214     37111.17314       246.77414        23.90014
C29  22232379.04413   -212358.68813     -2925.55213        23.10013
C08  38592833.83713   -131063.30613     -1062.95413        22.30013
C13  38224813.11313     -4378.85513      -556.56113        21.30013
R19  21827028.76213   -189420.15013     -4897.69813        19.30013
> 2025 05 03 09 22 00.0000000  0 13                      
G16  21488522.30627    170949.71427      1217.27927        41.60027
G26  20473398.96126    -77040.87626      -606.00826        37.60026
G05  23617879.78215   -318744.68915     -2376.78015        31.60015
G29  22455461.50714   -124669.97314     -3788.41414        27.30014
G23  23674014.72114    270922.12814      1959.18314        24.00014
G18  20622045.95514   -148265.29014     -1128.10814        24.10014
C26  22577475.23925    -79147.50425      -619.87525        35.40025
R10  19338320.55914   -168538.60914     -1289.84714        29.20014
C35  22249721.13914     37363.22714       246.20914        24.10014
C29  22232701.02113   -215276.90313     -2923.20813        23.00013
C08  38592785.27113   -132122.32313     -1066.44013        22.60013
C13  38224684.80113     -4931.79913      -559.85013        21.30013
R19  21827722.18213   -194397.49713     -4907.21313        19.20013
> 2025 05 03 09 22 01.0000000  0 11                      
G16  21488052.23127    172172.75127      1217.02927        41.60027
G26  20473279.04426    -77641.24326      -606.47426        37.50026
G05  23618105.52615   -321115.48215     -2376.79515        31.70015
G29  22455941.77514   -128450.20614     -3785.08414        27.20014
G23  23673397.44814    272887.72114      1960.41014        24.50014
G18  20622017.47414   -149389.31814     -1131.07014        24.10014
C26  22577357.72026    -79761.81126      -620.36726        35.50026
R10  19338329.55314   -169848.92314     -1291.15114        29.20014
C35  22249432.73814     37615.26314       246.21714        24.30014
C08  38592761.88713   -133181.60013     -1065.21613        22.70013
C13  38224548.69613     -5483.06913      -556.24313        21.30013
> 2025 05 03 09 22 02.0000001  0 12                      
G16  21487610.03727    173395.41527      1216.61427        41.60027
G26  20473180.71226    -78242.23526      -607.16626        37.50026
G05  23618357.35115   -323488.26015     -2379.63215        31.70015
G29  22456457.41814   -132232.73014     -3789.53014        27.30014
G23  23672814.65114    274853.27314      1959.66714        24.90014
G18  20622026.76814   -150514.28314     -1131.29514        24.20014
C26  22577269.88126    -80376.70826      -621.00226        35.70026
R10  19338352.33714   -171075.33414     -1294.99614        29.10014
C29  22233380.95124                     -2924.64424        25.00024
C35  22249171.61914     37866.64014       245.23714        24.30014
C08  38592758.88913   -134240.65213     -1064.74913        22.90013
C13  38224431.17713     -6031.63313      -553.02113        21.20013
> 2025 05 03 09 22 02.9999998  0 12                      
G16  21487053.32327    174617.77627      1216.34527        41.50027
G26  20472966.66026    -78843.41426      -607.13526        37.40026
G05  23618483.86415   -325863.57515     -2382.44515        31.70015
G29  22456848.04814   -136013.36814     -3785.55514        27.50014
G23  23672111.03914    276815.16214      1954.19314        25.30014
G18  20621917.04414   -151636.86814     -1127.25814        25.00014
C26  22577058.52826    -80991.82026      -621.03026        35.70026
C29  22233613.59015     -2919.19315     -2925.00115        29.60015
R10  19338270.79414   -172384.12514     -1293.23414        29.10014
C35  22248794.48014     38116.17914       242.81014        24.40014
C08  38592631.17713   -135296.98513     -1060.78213        23.40013
C13  38224208.43113     -6578.41113      -551.69513        21.10013
> 2025 05 03 09 22 03.9999998  0 12                      
G16  21486612.32827    175839.78327      1215.96627        41.50027
G26  20472876.72226    -79445.46126      -608.34426        37.30026
G18  20621919.74215   -152764.90915     -1136.63115        32.30015
G29  22457367.28814   -139796.33714     -3789.99614        28.00014
G23  23671525.84414    278776.92714      1955.83814        25.60014
G05  23618724.89715   -328238.50315     -2380.59615        31.30015
C26  22576971.28826    -81607.65926      -622.01126        35.60026
C29  22233966.44515     -5838.94115     -2925.83315        30.80015
R10  19338310.66614   -173700.53814     -1295.83214        29.20014
C35  22248545.35314     38367.33914       246.16014        24.40014
C08  38592614.38914   -136352.12514     -1060.35214        23.60014
C13  38224107.10113     -7123.11013      -549.46913        21.20013
> 2025 05 03 09 22 04.9999999  0 12                      
G16  21486143.75227    177061.38127      1215.52927        41.50027
G26  20472756.20626    -80047.94926      -608.57126        37.20026
G18  20621893.66015   -153895.34215     -1137.49315        32.10015
G29  22457852.65214   -143577.37114     -3785.92614        28.60014
G23  23670916.66514    280741.65414      1960.34214        26.00014
G05  23618935.65115   -330618.63815     -2388.60015        30.40015
C26  22576851.07126    -82224.06226      -622.49426        35.60026
C29  22234297.41615     -8760.50615     -2928.28115        30.70015
R10  19338318.16114   -175003.98614     -1299.95114        29.20014
C35  22248264.44714     38615.16914       240.35514        24.30014
C08  38592591.00514   -137406.52614     -1059.84214        23.90014
C13  38223982.98713     -7669.05513      -552.37813        21.40013
> 2025 05 03 09 22 05.9999999  0 12                      
G16  21485674.27726    178282.47826      1214.98226        41.40026
G26  20472635.09026    -80651.22826      -609.53726        37.10026
G29  22458344.01215   -147359.40215     -3788.39015        31.40015
G18  20621863.38115   -155022.85615     -1131.91615        31.50015
G23  23670299.99214    282706.13014      1958.48714        26.30014
G05  23619142.20814   -332998.04514     -2384.90514        29.30014
C26  22576733.25326    -82841.10326      -623.17026        35.60026
C29  22234619.99315    -11684.01015     -2930.28115        30.50015
R10  19338321.75814   -176286.08114     -1298.29814        29.20014
C35  22247975.44714     38860.00114       237.52214        24.30014
C08  38592561.02614   -138461.98514     -1061.79614        23.90014
C13  38223852.27813     -8216.90513      -554.61113        21.60013
> 2025 05 03 09 22 06.9999999  0 11                      
G16  21485205.40226    179503.39626      1214.96526        41.40026
G26  20472512.77426    -81254.86326      -609.67726        37.00026
G29  22458824.57915   -151142.32815     -3789.23315        31.30015
G18  20621837.89915   -156148.95215     -1131.25115        30.90015
G05  23619360.15714   -335371.73714     -2376.69614        28.60014
G23  23669692.01314    284673.21314      1962.52114        26.40014
C26  22576617.53326    -83458.47826      -623.35126        35.60026
R10  19338306.76914   -177469.78314     -1304.70514        29.10014
C35  22247685.84814     39107.93314       243.67114        24.20014
C08  38592528.34914   -139515.47914     -1058.32114        23.90014
C13  38223707.77813     -8765.25413      -554.41013        21.60013
> 2025 05 03 09 22 08.0000000  0 12                      
G16  21484767.10526    180723.68026      1214.10226        41.40026
G26  20472420.13826    -81859.26626      -610.64926        36.90026
G29  22459335.72515   -154925.53715     -3789.21215        31.10015
G18  20621848.99115   -157278.21915     -1136.71415        30.50015
G05  23619603.58914   -337748.59414     -2384.30014        28.20014
G23  23669105.91914    286639.15514      1959.50714        26.50014
C26  22576530.89326    -84076.64326      -624.37026        35.60026
R10  19338347.54114   -178791.53514     -1298.10214        29.10014
C35  22247447.81214     39356.06014       242.41514        24.20014
C08  38592519.35514   -140569.00314     -1059.34814        23.90014
R09  20677290.21013     -9154.84213     -4669.97313        22.80013
C13  38223616.64113     -9315.13113      -556.44913        21.70013
> 2025 05 03 09 22 09.0000000  0 13                      
G16  21484301.52826    181943.70226      1214.02726        41.40026
G26  20472298.72326    -82464.20826      -611.07526        36.80026
G29  22459820.49015   -158709.25315     -3789.82815        30.80015
G18  20621825.30715   -158408.50015     -1136.65115        30.00015
G05  23619823.63614   -340125.86814     -2383.34414        28.00014
G23  23668493.44314    288604.90914      1959.79514        26.50014
C26  22576410.37626    -84695.34826      -624.78526        35.70026
R10  19338369.42514   -180172.01814     -1299.59214        29.00014
C29  22235616.20314     -2924.54514     -2926.71114        25.10014
R09  20677926.66914    -13819.36514     -4667.98214        24.50014
C08  38592474.68614   -141623.11614     -1060.21614        24.10014
C35  22247162.71014     39599.44614       235.20514        24.10014
C13  38223487.43013     -9865.83013      -556.92013        22.00013
> 2025 05 03 09 22 10.0000000  0 13                      
G16  21483830.85327    183163.24627      1213.44027        41.50027
G26  20472175.20826    -83069.73426      -611.68026        36.70026
G29  22460291.46415   -162493.68515     -3790.65115        30.50015
G18  20621803.12315   -159539.05915     -1136.56015        29.60015
G05  23620040.08714   -342502.68914     -2382.45614        27.80014
G23  23667887.86214    290565.98014      1952.86414        26.60014
C26  22576291.35926    -85314.50126      -625.18726        35.70026
R10  19338374.22214   -181460.21114     -1302.17614        28.90014
C29  22235944.77614     -5847.95714     -2929.22014        27.80014
R09  20678551.43714    -18422.00014     -4669.66214        24.90014
C08  38592444.40714   -142681.14714     -1065.79914        24.30014
C35  22246883.30314     39839.13214       232.02614        24.10014
C13  38223360.31813    -10414.71713      -553.79013        22.00013
> 2025 05 03 09 22 10.9999999  0 14                      
G16  21483314.01127    184382.40927      1213.16427        41.50027
G26  20472006.12526    -83675.85426      -612.22526        36.70026
G29  22460715.97015   -166277.65315     -3789.54115        30.20015
G18  20621720.68014   -160667.77514     -1133.60214        29.20014
G05  23620216.36414   -344883.22714     -2388.20314        27.70014
G23  23667218.12614    292524.48114      1951.40714        26.60014
C26  22576127.07226    -85934.39926      -626.02626        36.10026
C29  22236217.58714     -8771.04814     -2928.68414        29.00014
R10  19338332.55114   -182762.17214     -1303.14114        28.90014
R09  20679133.03414    -23052.17814     -4670.07014        25.80014
C08  38592376.05414   -143743.26814     -1069.92214        24.30014
C35  22246543.03914     40080.44214       236.36614        24.00014
C13  38223187.03813    -10962.33713      -552.74213        22.00013
R19  21835071.59413     -4600.80913     -4887.31913        21.30013
> 2025 05 03 09 22 11.9999999  0 15                      
G16  21482844.23627    185601.24527      1212.79027        41.50027
G26  20471886.50826    -84282.48326      -612.76526        36.70026
G29  22461206.13115   -170060.35215     -3787.94315        30.00015
G05  23620434.31414   -347263.08814     -2385.40214        27.80014
G18  20621710.18714   -161797.08214     -1135.48414        28.90014
G23  23666594.85714    294486.35014      1957.66914        26.50014
G31  22562697.27013    -28145.68413     -4027.70013        20.40013
C26  22576008.35526    -86554.76926      -626.43426        36.40026
R10  19338326.85514   -183994.68814     -1302.30914        28.90014
C29  22236539.26414    -11697.51114     -2933.97414        29.00014
R09  20679766.19614    -27699.89214     -4670.63014        27.10014
C08  38592338.28014   -144805.12114     -1067.54614        24.30014
C35  22246255.23814     40320.66014       233.84414        24.00014
C13  38223046.73513    -11508.27413      -550.92313        22.50013
R19  21835768.91213     -9599.58613     -4888.04213        21.40013
> 2025 05 03 09 22 12.9999999  0 15                      
G16  21482372.36327    186819.67327      1212.36027        41.60027
G26  20471761.79426    -84889.79426      -613.51426        36.70026
G29  22461685.19915   -173845.15315     -3791.71115        29.70015
G05  23620651.66314   -349644.05514     -2387.38114        28.20014
G18  20621705.39014   -162929.60214     -1139.98914        28.60014
G23  23665986.87814    296449.96714      1958.62614        26.40014
G31  22563240.79313    -32168.26013     -4028.43513        20.40013
C26  22575891.43626    -87175.73226      -627.06826        36.60026
R10  19338353.83614   -185401.86214     -1301.07714        29.00014
C29  22236862.14114    -14623.78914     -2931.99414        28.90014
R09  20680402.05614    -32359.83114     -4670.25214        27.40014
C08  38592306.50214   -145863.61814     -1062.62814        24.40014
C35  22245968.63614     40564.41714       239.71614        23.90014
C13  38222914.52713    -12049.30913      -544.39313        22.50013
R19  21836456.03613    -14543.25413     -4891.45513        21.60013
> 2025 05 03 09 22 13.9999999  0 15                      
G16  21481905.88627    188037.77327      1212.07127        41.60027
G26  20471641.27826    -85497.55726      -613.85226        36.90026
G05  23620858.22014   -352023.79514     -2384.98914        28.60014
G29  22462177.45815   -177629.00215     -3789.23415        29.50015
G18  20621681.70714   -164064.15414     -1141.43214        28.40014
G23  23665376.20114    298413.41014      1957.49314        26.50014
G31  22563771.12613    -36191.63113     -4029.62913        20.30013
C26  22575774.81626    -87796.95926      -627.16926        36.70026
R10  19338348.74014   -186638.95814     -1302.48614        29.20014
C29  22237189.81414    -17548.42014     -2929.61514        28.90014
R09  20681045.11014    -37061.02814     -4674.00814        27.60014
C08  38592268.72814   -146919.49714     -1060.37914        24.70014
C35  22245686.53214     40811.11114       242.35414        24.00014
R19  21837125.17313    -19390.48113     -4886.66513        22.00013
C13  38222779.32013    -12587.97713      -543.29513        22.40013
> 2025 05 03 09 22 15.0000000  0 15                      
G16  21481465.79127    189255.28327      1211.35127        41.60027
G26  20471549.24126    -86106.03326      -614.69626        36.90026
G05  23621103.45014   -354405.11214     -2387.96614        29.10014
G29  22462684.10714   -181409.77514     -3785.09514        29.30014
G18  20621692.79914   -165198.34014     -1139.86414        28.20014
G23  23664804.79714    300378.05314      1959.37714        26.80014
G31  22564318.54713    -40213.15413     -4026.46013        20.30013
C26  22575686.07826    -88419.18026      -628.52726        36.90026
C29  22237540.27114    -20473.40114     -2930.96514        29.00014
R10  19338387.71314   -187950.79614     -1304.97814        29.30014
R09  20681734.33314    -41847.03614     -4667.26014        27.70014
C08  38592262.73214   -147977.54314     -1064.93914        25.10014
C35  22245427.51114     41057.42914       240.31914        24.10014
R19  21837768.82713    -23940.73413     -4881.57513        22.60013
C13  38222672.29513    -13124.18013      -540.77913        22.30013
> 2025 05 03 09 22 16.0000000  0 15                      
G16  21480996.31627    190472.43627      1211.11027        41.70027
G26  20471426.32626    -86715.14426      -615.29026        37.00026
G05  23621325.59714   -356787.89514     -2389.37814        29.30014
G29  22463163.77514   -185187.76114     -3782.45314        29.20014
G18  20621673.91214   -166332.25314     -1139.64014        28.10014
G23  23664192.02114    302341.30514      1956.69214        26.90014
G31  22564844.68313    -44233.41913     -4025.49513        20.20013
C26  22575567.36026    -89041.81626      -628.65426        37.10026
C29  22237866.14615    -23396.73715     -2928.32015        30.10015
R10  19338390.71114   -189229.83714     -1308.98414        29.30014
R09  20682361.19914    -46459.60314     -4669.43914        27.90014
C08  38592226.75714   -149035.25614     -1063.35614        25.40014
C35  22245147.80514     41304.78014       242.05714        24.50014
R19  21838470.94113    -28964.76913     -4879.13213        22.80013
C13  38222547.88113    -13661.46513      -543.63713        22.20013
> 2025 05 03 09 22 17.0000000  0 15                      
G16  21480528.63927    191689.18327      1210.67927        41.80027
G26  20471303.41226    -87324.81626      -615.81726        37.10026
G05  23621534.25215   -359168.11515     -2384.79915        29.60015
G29  22463648.84014   -188970.53514     -3791.02814        29.00014
G23  23663590.63714    304302.57514      1954.41414        27.20014
G18  20621657.72314   -167462.11714     -1133.70114        27.90014
G31  22565363.02413    -48252.24513     -4023.96713        20.20013
C26  22575449.84126    -89665.06326      -629.36126        37.20026
C29  22238193.81915    -26320.93015     -2930.43015        31.00015
R10  19338409.59814   -190594.30314     -1308.88514        29.30014
R09  20682997.05914    -51121.07014     -4671.11214        28.20014
C08  38592198.27714   -150095.00614     -1066.57714        25.80014
C35  22244862.70214     41549.83614       238.09914        25.00014
R19  21839124.48913    -33729.33313     -4884.76113        23.00013
C13  38222404.58013    -14199.56413      -544.31513        22.00013
> 2025 05 03 09 22 18.0000000  0 15                      
G16  21480064.26127    192905.66627      1210.48827        41.80027
G26  20471185.29326    -87935.00126      -616.30326        37.20026
G05  23621749.80315   -361550.41715     -2389.20615        30.00015
G29  22464138.70014   -192758.11214     -3795.83814        28.80014
G23  23662968.26814    306265.96114      1958.57914        27.60014
G18  20621633.44014   -168595.53914     -1141.06314        27.80014
G31  22565889.46013    -52271.53113     -4025.37613        20.40013
C26  22575334.12126    -90288.70326      -629.64626        37.50026
C29  22238511.29915    -29246.10615     -2931.47515        31.40015
R10  19338419.49114   -191910.71714     -1304.92114        29.40014
R09  20683644.01114    -55841.36914     -4676.05614        28.30014
C08  38592169.79714   -151153.04414     -1062.99214        26.30014
C35  22244569.80514     41795.52914       240.20114        25.00014
R19  21839820.60713    -38721.98613     -4873.29413        23.00013
C13  38222267.57513    -14737.30713      -543.37413        21.80013
> 2025 05 03 09 22 19.0000001  0 15                      
G16  21479623.86627    194121.59727      1209.79027        41.80027
G26  20471095.35626    -88545.87926      -617.08826        37.30026
G05  23621999.53015   -363933.58015     -2389.45515        30.00015
G29  22464647.14814   -196545.36014     -3792.94414        28.60014
G23  23662399.26214    308230.25614      1958.88414        27.60014
G18  20621636.13814   -169731.29114     -1142.78014        27.70014
G31  22566450.67113    -56293.77513     -4029.58413        20.40013
C26  22575244.48326    -90913.06626      -630.53526        37.50026
C29  22238868.35215    -32170.84615     -2930.33015        31.40015
R10  19338436.57915   -193106.62415     -1311.01015        29.50015
R09  20684298.15814    -60440.18314     -4675.10214        28.50014
C08  38592158.10514   -152211.62114     -1064.65614        26.30014
C35  22244327.87214     42043.92414       243.93714        25.10014
R19  21840517.02513    -43554.67213     -4879.79913        23.00013
C13  38222176.43813    -15277.08113      -546.60013        21.60013
> 2025 05 03 09 22 19.9999998  0 15                      
G16  21479064.15327    195337.04627      1209.34327        41.80027
G26  20470879.50526    -89157.40026      -617.70526        37.40026
G05  23622123.94415   -366317.16515     -2389.65615        30.00015
G29  22465039.87714   -200329.46814     -3788.39814        28.40014
G23  23661696.54814    310191.30614      1953.56214        27.60014
G18  20621526.71414   -170868.10114     -1143.20114        27.50014
G31  22566889.86713    -60319.57613     -4033.43913        20.50013
C26  22575037.62726    -91538.16726      -631.27826        37.50026
C29  22239105.48815    -35096.23215     -2931.51615        31.40015
R10  19338373.32315   -194512.27315     -1309.74015        29.60015
R09  20684839.88314    -65080.25714     -4672.83414        28.80014
C08  38592033.09114   -153275.43814     -1072.24614        26.30014
C35  22243952.53214     42290.98714       240.58614        25.20014
R19  21841113.31213    -48493.74913     -4896.25913        22.90013
C13  38221967.78213    -15826.53913      -560.10913        21.70013
> 2025 05 03 09 22 20.9999999  0 15                      
G16  21478626.15727    196551.96927      1208.79627        41.70027
G26  20470792.56526    -89769.72526      -618.59126        37.40026
G05  23622370.37315   -368703.09815     -2392.96915        30.10015
G29  22465553.12114   -204113.87414     -3790.41514        28.80014
G23  23661115.85014    312152.86714      1955.95214        27.70014
G18  20621530.31214   -172002.62114     -1139.23914        27.40014
G31  22567444.78313    -64348.13313     -4035.79613        20.50013
C26  22574949.78726    -92163.94526      -631.92726        37.50026
C29  22239465.53815    -38023.42115     -2933.89915        31.40015
R10  19338407.79915   -195799.70715     -1306.97315        29.60015
R09  20685509.91914    -69763.11714     -4678.84914        28.90014
C35  22243695.01014     42533.93614       235.08114        25.50014
C08  38592027.39514   -154340.66714     -1071.74514        26.20014
R19  21841826.21813    -53414.45513     -4897.96613        22.80013
C13  38221873.94713    -16379.17213      -560.03013        21.80013
> 2025 05 03 09 22 21.9999999  0 15                      
G16  21478159.08027    197766.33527      1208.22427        41.70027
G26  20470672.64826    -90382.64026      -619.07226        37.50026
G05  23622591.02115   -371091.72315     -2395.83315        30.30015
G29  22466044.18114   -207898.30714     -3790.30814        28.80014
G23  23660507.57114    314114.36414      1955.60014        27.80014
G18  20621505.42914   -173141.33614     -1146.67414        27.20014
G31  22567969.42013    -68377.40813     -4035.49513        20.50013
C26  22574834.36726    -92790.33126      -632.49926        37.50026
C29  22239787.81515    -40951.34815     -2934.10315        31.50015
R10  19338409.59815   -197072.64715     -1317.91115        29.60015
R09  20686143.68114    -74413.12314     -4675.55014        29.00014
C35  22243409.60814     42775.08114       234.43414        25.80014
C08  38591991.12014   -155405.19914     -1069.99214        26.10014
R19  21842476.16813    -58160.65013     -4889.72113        22.70013
C13  38221734.24413    -16933.88513      -561.56313        21.80013
> 2025 05 03 09 22 23.0000000  0 14                      
G16  21477702.79627    198980.21427      1207.82527        41.60027
G26  20470567.12126    -90996.33426      -619.89226        37.50026
G05  23622821.86115   -373478.65615     -2391.89315        30.60015
G29  22466541.23714   -211686.20114     -3795.42914        28.80014
G23  23659898.09314    316074.34214      1953.40914        28.00014
G31  22568520.43813    -72405.06413     -4032.65113        20.50013
C26  22574732.73826    -93417.41326      -633.18626        37.40026
C29  22240125.08215    -43879.44315     -2933.93215        31.60015
R10  19338409.89715   -198277.74115     -1310.46015        29.50015
R09  20686813.11714    -79193.05614     -4680.75614        29.00014
C35  22243134.09914     43015.56114       234.39214        26.10014
C08  38591963.54014   -156468.29614     -1068.13614        26.00014
R19  21843198.96813    -63233.70813     -4892.03313        22.60013
C13  38221601.13613    -17488.45013      -560.24613        21.70013
> 2025 05 03 09 22 24.0000000  0 15                      
G16  21477234.22027    200193.77127      1207.51427        41.60027
G26  20470446.90426    -91610.59826      -620.43026        37.50026
G05  23623037.11215   -375866.40915     -2394.04215        30.70015
G29  22467014.90914   -215471.03714     -3789.18514        28.80014
G23  23659292.51314    318032.99214      1952.10214        28.00014
G18  20621488.94014   -175434.06514     -1152.54514        26.30014
G31  22569058.56613    -76433.61913     -4034.88313        20.50013
C26  22574615.21926    -94045.08926      -633.80126        37.40026
C29  22240450.05715    -46806.04415     -2931.68015        31.70015
R10  19338433.58115   -199667.37615     -1312.83815        29.50015
R09  20687443.88114    -83827.01714     -4679.10814        29.00014
C35  22242856.49114     43255.00514       233.09814        26.20014
C08  38591935.35914   -157532.68114     -1070.85514        25.90014
R19  21843881.29613    -68151.35213     -4895.99913        22.40013
C13  38221478.22113    -18043.67013      -561.37513        21.70013
> 2025 05 03 09 22 25.0000000  0 15                      
G16  21476765.34527    201406.71327      1206.77127        41.60027
G26  20470328.48626    -92225.57226      -621.19226        37.50026
G05  23623254.76115   -378256.07915     -2396.49015        30.70015
G29  22467502.97114   -219259.79814     -3796.58414        28.80014
G23  23658678.23814    319992.84914      1954.59614        28.10014
G18  20621474.55014   -176583.08314     -1154.88114        25.70014
G31  22569592.79613    -80462.70813     -4035.21513        20.60013
C26  22574497.40126    -94673.39626      -634.43226        37.30026
C29  22240778.03015    -49735.30415     -2936.39615        31.70015
R10  19338441.37614   -200972.34814     -1312.90014        29.40014
R09  20688082.13914    -88502.23714     -4677.98914        29.00014
C35  22242571.98814     43495.05214       234.53814        26.20014
C08  38591894.28814   -158595.17514     -1067.35714        25.80014
R19  21844556.12813    -73029.19413     -4882.48013        22.30013
C13  38221351.40913    -18598.44513      -560.36113        21.60013
> 2025 05 03 09 22 26.0000001  0 15                      
G16  21476329.44727    202619.21027      1206.40927        41.60027
G26  20470239.74826    -92841.32526      -622.00526        37.50026
G05  23623497.29315   -380642.33215     -2390.40715        30.80015
G29  22468012.91814   -223050.00614     -3796.79314        29.00014
G23  23658109.83114    321952.35314      1953.46314        28.20014
G18  20621484.74314   -177727.02914     -1147.27214        25.20014
G31  22570158.50413    -84489.86313     -4032.04913        20.70013
C26  22574410.46126    -95302.44226      -635.22526        37.30026
C29  22241132.08515    -52663.92615     -2934.11215        31.90015
R10  19338483.04714   -202297.91714     -1312.35914        29.40014
R09  20688768.96314    -93276.01914     -4679.22414        29.00014
C35  22242326.15814     43737.68514       238.11614        26.20014
C08  38591895.48714   -159655.70514     -1065.35714        25.60014
R19  21845218.07013    -77678.18313     -4875.57413        22.10013
C13  38221245.28213    -19150.66113      -556.74813        21.50013
> 2025 05 03 09 22 27.0000001  0 15                      
G16  21475863.26927    203831.31027      1206.03827        41.60027
G26  20470120.73026    -93457.48726      -622.23026        37.50026
G05  23623720.33915   -383033.73615     -2399.84015        31.30015
G29  22468493.78514   -226840.57314     -3796.60514        29.00014
G23  23657508.14814    323911.36914      1952.90714        28.20014
G18  20621463.75814   -178864.49214     -1140.08414        25.00014
G31  22570697.53113    -88520.32013     -4037.96813        20.90013
C26  22574295.64026    -95931.99126      -635.61026        37.20026
C29  22241461.25725    -55592.06425     -2933.70325        32.00025
R10  19338489.94214   -203599.07714     -1318.41314        29.30014
R09  20689395.82914    -97888.58714     -4679.97514        28.90014
C35  22242038.35714     43978.74314       234.46114        26.20014
C08  38591867.00614   -160717.40914     -1068.10014        25.50014
R19  21845925.28113    -82729.00713     -4875.18413        22.00013
C13  38221115.17313    -19701.62213      -556.14213        21.50013
> 2025 05 03 09 22 27.9999998  0 15                      
G16  21475303.25727    205042.95127      1205.54827        41.60027
G26  20469912.97426    -94074.29526      -622.99226        37.40026
G05  23623848.35015   -385425.33115     -2397.55315        31.50015
G29  22468905.70014   -230628.52614     -3792.50714        29.00014
G23  23656811.73014    325869.28314      1951.49914        28.20014
G18  20621365.12614   -180003.49214     -1145.63014        25.40014
G31  22571141.22413    -92555.22813     -4042.99313        20.90013
C26  22574088.78426    -96562.18726      -636.32926        37.20026
C29  22241692.09725    -58520.65425     -2934.62325        32.10025
R10  19338397.60614   -204849.13514     -1314.55714        29.20014
R09  20689921.66514   -102443.26514     -4678.60314        28.80014
C35  22241664.81614     44222.21814       238.87314        26.30014
C08  38591744.69114   -161781.18414     -1070.62014        25.40014
R19  21846483.49413    -87464.48813     -4882.12013        22.00013
C13  38220895.72413    -20252.57513      -556.75913        21.40013
> 2025 05 03 09 22 28.9999999  0 15                      
G16  21474865.56027    206254.09327      1205.02827        41.60027
G26  20469823.03626    -94691.86626      -623.81726        37.40026
G05  23624096.87815   -387816.71015     -2397.13315        31.70015
G29  22469406.95314   -234413.85514     -3789.87714        28.90014
G23  23656234.92914    327826.33714      1950.76014        28.10014
G18  20621366.02514   -181146.25014     -1150.49914        25.70014
G31  22571705.13413    -96591.92313     -4043.44913        20.90013
C26  22574004.84226    -97193.03326      -636.98126        37.20026
C29  22242044.35325    -61449.71325     -2935.10225        32.40025
R10  19338445.87314   -206210.55414     -1323.94614        29.10014
R09  20690597.69714   -107158.21014     -4679.79814        28.70014
C35  22241412.39114     44467.36814       240.17614        26.50014
C08  38591738.09614   -162843.27614     -1067.05914        25.40014
R19  21847254.86013    -92699.00613     -4881.57113        21.90013
C13  38220811.78313    -20802.84913      -555.74413        21.20013
> 2025 05 03 09 22 29.9999999  0 15                      
G16  21474398.18327    207464.71027      1204.48927        41.60027
G26  20469704.61826    -95310.15626      -624.51126        37.40026
G05  23624317.22615   -390208.94115     -2398.51815        31.80015
G29  22469888.42014   -238201.01914     -3793.94114        28.90014
G23  23655632.04714    329783.84614      1951.87114        28.10014
G18  20621351.63514   -182289.36714     -1149.16014        25.80014
G31  22572230.67013   -100628.51913     -4042.40713        21.10013
C26  22573888.82226    -97824.53726      -637.64226        37.20026
C29  22242372.62625    -64379.05825     -2935.29625        32.80025
R10  19338460.26314   -207550.60814     -1320.96314        29.00014
R09  20691244.94914   -111881.57114     -4680.69414        28.60014
C35  22241126.68814     44705.90314       229.41914        26.50014
C08  38591704.81914   -163901.97814     -1062.81714        25.30014
R19  21847977.06013    -97830.19513     -4881.23913        21.90013
C13  38220677.47613    -21355.60613      -559.80813        21.10013
> 2025 05 03 09 22 30.9999999  0 15                      
G16  21473929.30827    208674.93227      1204.16127        41.50027
G26  20469582.30326    -95928.98026      -624.95426        37.40026
G05  23624543.26915   -392601.93115     -2399.23115        31.90015
G29  22470362.99114   -241986.90214     -3791.10214        28.90014
G23  23655009.97714    331743.94814      1955.53414        28.10014
G18  20621327.95214   -183433.25414     -1150.13314        25.80014
G31  22572752.00913   -104662.78613     -4038.96213        21.50013
C26  22573773.70226    -98456.58526      -638.13026        37.10026
C29  22242698.50025    -67308.79225     -2935.73625        33.20025
R10  19338474.65314   -208891.42914     -1316.61414        29.00014
R09  20691868.81714   -116477.33314     -4684.82414        28.50014
C35  22240848.18114     44940.18514       226.34514        26.60014
C08  38591674.54014   -164960.07814     -1063.60814        25.20014
R19  21848647.69613   -102686.60813     -4881.49813        21.80013
C13  38220546.46613    -21913.37113      -566.07913        20.90013
> 2025 05 03 09 22 32.0000000  0 15                      
G16  21473493.41027    209884.69227      1203.66627        41.50027
G26  20469492.36526    -96548.41426      -625.60326        37.40026
G05  23624785.50115   -394995.74615     -2400.09015        32.10015
G29  22470875.33714   -245777.18514     -3798.34514        28.90014
G23  23654430.47914    333701.90014      1951.01314        28.10014
G18  20621330.05014   -184575.53814     -1147.34614        25.80014
G31  22573318.01713   -108688.61013     -4027.46213        21.90013
C26  22573688.56126    -99089.30426      -638.86526        37.10026
C29  22243052.25525    -70238.92725     -2936.14325        33.20025
R10  19338524.11814   -210258.94614     -1320.45514        28.90014
R09  20692541.85114   -121178.52514     -4684.17514        28.40014
C35  22240594.85714     45175.79614       230.46514        26.60014
C08  38591667.64414   -166020.14914     -1066.86514        25.10014
R19  21849302.14313   -107295.03213     -4883.10813        21.70013
C13  38220440.93913    -22475.09713      -569.51513        20.70013
> 2025 05 03 09 22 33.0000000  0 15                      
G16  21473007.44627    211094.05527      1203.35527        41.50027
G26  20469353.56126    -97168.59926      -626.36726        37.40026
G05  23624977.36825   -397390.60525     -2401.18725        32.10025
G29  22471347.81014   -249568.49814     -3797.63314        28.90014
G23  23653798.81614    335659.55014      1951.68814        28.10014
G18  20621291.97714   -185716.84914     -1146.63214        25.70014
G31  22573828.26413   -112714.57713     -4031.84313        22.40013
C26  22573552.15526    -99722.67726      -639.45326        37.10026
C29  22243365.23915    -73168.21315     -2934.61415        33.20015
R10  19338504.03214   -211512.85614     -1321.56614        28.90014
R09  20693177.11214   -125933.24514     -4678.69414        28.30014
C35  22240298.66214     45414.54114       234.55614        26.90014
C08  38591627.17214   -167080.27914     -1065.91514        25.00014
R19  21849993.76413   -112359.67213     -4893.14213        21.60013
C13  38220289.24413    -23037.61113      -568.66413        20.50013
> 2025 05 03 09 22 34.0000001  0 15                      
G16  21472571.54827    212303.07827      1202.96927        41.50027
G26  20469266.92126    -97789.23926      -626.74926        37.40026
G05  23625230.69325   -399785.99825     -2401.54125        32.10025
G29  22471859.85514   -253358.68214     -3795.49814        28.80014
G23  23653213.32114    337615.15014      1948.69314        28.10014
G18  20621300.37114   -186859.01014     -1148.46514        25.50014
G31  22574385.27813   -116744.20213     -4037.33413        22.70013
C26  22573468.51326   -100356.43226      -639.77526        37.10026
C29  22243720.49315    -76098.81815     -2937.09115        33.10015
R10  19338540.00714   -212809.44014     -1320.68314        28.90014
R09  20693827.96114   -130514.49914     -4690.76414        28.10014
C35  22240043.23814     45653.78414       233.66414        27.00014
C08  38591626.57314   -168144.54014     -1072.15414        24.90014
R19  21850638.61813   -116917.58013     -4895.02213        21.40013
C13  38220184.91713    -23595.94613      -562.07413        20.30013
> 2025 05 03 09 22 34.9999998  0 14                      
G16  21472015.43327    213511.57127      1202.36427        41.60027
G26  20469054.96826    -98410.57126      -627.54026        37.40026
G05  23625354.50725   -402182.18525     -2402.44425        32.10025
G29  22472253.78214   -257147.94414     -3794.66114        28.80014
G23  23652513.60614    339576.89814      1958.95614        28.00014
G31  22574825.37413   -120775.79013     -4038.42913        22.80013
C26  22573262.55626   -100990.99126      -640.76926        37.10026
C29  22243956.72925    -79029.88825     -2937.11025        33.00025
R10  19338468.35714   -214170.85414     -1325.46014        28.80014
R09  20694367.28814   -135141.56914     -4687.72814        28.00014
C35  22239671.19614     45891.89914       231.74214        27.20014
C08  38591514.45014   -169209.87314     -1071.67814        24.80014
R19  21851192.03513   -121627.03513     -4884.58513        21.30013
C13  38219973.26313    -24153.88713      -563.55213        20.30013
> 2025 05 03 09 22 35.9999999  0 14                      
G16  21471576.53727    214719.70027      1202.08327        41.60027
G26  20468968.02826    -99032.47826      -628.05826        37.50026
G05  23625597.04025   -404578.92625     -2402.88125        32.10025
G29  22472769.42514   -260934.15414     -3790.54614        28.80014
G23  23651933.20714    341534.61314      1949.83414        27.90014
G31  22575380.88913   -124804.81313     -4033.60013        22.80013
C26  22573179.51326   -101625.98426      -641.01926        37.00026
C29  22244313.48225    -81961.13625     -2937.14525        32.80025
R10  19338485.44514   -215365.23314     -1323.71114        28.80014
R09  20695038.22314   -139830.54014     -4676.46314        27.90014
C35  22239416.07314     46126.95314       227.71314        27.20014
C08  38591507.25514   -170276.18614     -1072.61314        24.70014
R19  21851902.24313   -126534.72913     -4882.11513        21.30013
C13  38219870.13413    -24710.61613      -561.93413        20.50013
> 2025 05 03 09 22 36.9999999  0 14                      
G16  21471112.15827    215927.21027      1201.33627        41.60027
G26  20468852.00926    -99655.09026      -628.82726        37.50026
G05  23625815.58825   -406976.69625     -2404.14625        32.10025
G29  22473266.18214   -264721.32414     -3793.50914        28.70014
G23  23651325.52814    343489.86014      1948.14814        27.80014
G31  22575901.92813   -128833.57413     -4034.49013        22.70013
C26  22573063.79326   -102261.80226      -642.04126        37.20026
C29  22244634.86025    -84892.89225     -2937.81625        32.70025
R10  19338504.63214   -216730.46314     -1324.56514        28.80014
C35  22239138.16514     46362.93714       230.63914        27.40014
R09  20695691.17114   -144582.17014     -4684.22214        27.70014
C08  38591479.07514   -171343.03214     -1072.92114        24.60014
R19  21852571.08013   -131380.42613     -4888.91513        21.30013
C13  38219735.22813    -25263.66013      -557.01113        20.60013
> 2025 05 03 09 22 37.9999999  0 14                      
G16  21470644.78227    217134.32527      1201.05327        41.60027
G26  20468731.49226   -100278.38826      -629.50526        37.50026
G05  23626041.03225   -409375.10525     -2404.58925        32.00025
G29  22473745.84914   -268510.81414     -3796.51214        28.70014
G23  23650710.35414    345442.67914      1945.74014        27.70014
G31  22576427.16513   -132866.19613     -4040.41313        22.70013
C26  22572946.27426   -102898.14826      -642.41826        37.40026
C29  22244963.43225    -87824.76225     -2937.73625        32.50025
R10  19338520.52114   -218080.43814     -1327.79514        28.80014
C35  22238851.26414     46598.43414       229.44214        27.50014
R09  20696330.32914   -149263.50114     -4686.82614        27.70014
C08  38591448.19614   -172411.17314     -1074.59814        24.60014
R19  21853254.30713   -136304.19313     -4883.01413        21.30013
C13  38219598.82213    -25815.32913      -556.79113        20.60013
> 2025 05 03 09 22 38.9999999  0 14                      
G16  21470178.60527    218340.93127      1200.48727        41.70027
G26  20468615.77226   -100902.44026      -630.29126        37.50026
G05  23626263.17825   -411774.38525     -2405.57725        32.10025
G29  22474234.21114   -272299.71814     -3794.47014        28.60014
G23  23650105.07314    347397.36414      1949.75214        27.60014
G31  22576958.09713   -136904.43813     -4046.91213        22.70013
C26  22572833.55326   -103535.15826      -643.15326        37.50026
C29  22245293.80415    -90754.06215     -2933.82115        32.40015
R10  19338513.92514   -219309.90214     -1329.22914        28.80014
C35  22238565.26214     46833.77514       229.45314        27.60014
R09  20696973.38314   -153963.17414     -4680.49514        27.60014
C08  38591405.62614   -173481.69014     -1077.51414        24.70014
R19  21853945.62813   -141271.59013     -4886.98913        21.40013
C13  38219468.71213    -26368.87913      -560.30113        20.60013
> 2025 05 03 09 22 40.0000000  0 14                      
G16  21469745.10527    219547.00327      1199.94127        41.70027
G26  20468526.43426   -101527.11426      -630.84826        37.50026
G05  23626514.10525   -414174.51125     -2406.41125        32.10025
G29  22474749.85414   -276088.58314     -3794.70714        28.50014
G23  23649533.06914    349354.02914      1951.79114        27.60014
G31  22577518.40913   -140947.62213     -4051.51613        22.60013
C26  22572747.21226   -104172.95326      -643.99626        37.50026
C29  22245649.35715    -93686.74715     -2940.18615        32.20015
R10  19338571.78514   -220722.41814     -1330.58814        28.70014
C35  22238317.63314     47067.52114       227.13914        27.70014
R09  20697643.12014   -158645.27714     -4690.29214        27.50014
C08  38591406.82514   -174553.73314     -1078.61514        24.70014
R19  21854691.51213   -146369.10113     -4887.45013        21.60013
C13  38219366.78313    -26928.17213      -567.97313        20.50013
> 2025 05 03 09 22 41.0000000  0 14                      
G16  21469276.52927    220752.77027      1199.75027        41.80027
G26  20468404.71826   -102152.32326      -631.34026        37.50026
G05  23626745.24525   -416575.04725     -2406.60325        32.10025
G29  22475234.61914   -279879.80714     -3798.26314        28.50014
G23  23648927.78814    351311.22314      1951.59414        27.50014
G31  22578044.84513   -144987.06313     -4043.42913        22.60013
C26  22572635.09026   -104811.19826      -644.27926        37.50026
C29  22245972.83315    -96618.06815     -2936.44815        32.10015
R10  19338584.97614   -222056.37614     -1331.53014        28.70014
C35  22238027.13414     47301.14514       227.75214        27.70014
R09  20698278.08014   -163301.39414     -4692.74214        27.40014
C08  38591375.64714   -175625.70614     -1077.74814        24.70014
R19  21855365.44513   -151241.58713     -4886.70113        21.70013
C13  38219244.76713    -27489.08813      -567.53813        20.50013
> 2025 05 03 09 22 42.0000000  0 15                      
G16  21468809.75227    221957.99727      1199.09227        41.80027
G26  20468283.00326   -102778.23326      -632.12326        37.40026
G05  23626961.69525   -418976.44025     -2407.68225        32.00025
G29  22475714.58714   -283671.37714     -3797.60414        28.50014
G23  23648313.21314    353265.40214      1946.80614        27.30014
G18  20621111.80114     -1148.82114     -1157.01714        23.70014
G31  22578571.88013   -149022.56413     -4039.39113        22.50013
C26  22572521.46926   -105450.09526      -645.03426        37.50026
C29  22246301.70615    -99551.17215     -2939.80315        31.90015
R10  19338612.25714   -223465.84014     -1328.13014        28.70014
C35  22237746.22914     47533.32314       225.64514        27.70014
R09  20698897.15214   -167873.46714     -4690.69614        27.30014
C08  38591334.27514   -176695.39314     -1074.35214        24.70014
R19  21856034.58213   -156089.58113     -4886.64213        21.80013
C13  38219108.66213    -28051.95413      -569.64913        20.50013
> 2025 05 03 09 22 42.9999998  0 15                      
G16  21468265.32927    223162.92727      1198.97327        41.90027
G26  20468089.03726   -103404.75726      -632.63926        37.40026
G05  23627109.79225   -421378.46225     -2408.14325        32.00025
G29  22476114.80914   -287464.80814     -3800.16614        28.70014
G23  23647621.59214    355215.65714      1942.48314        27.20014
G18  20621018.86614     -2301.51814     -1158.52214        23.80014
G31  22579020.36913   -153057.82713     -4040.95013        22.50013
C26  22572328.10226   -106089.50826      -645.42526        37.60026
C29  22246546.33615   -102485.38615     -2940.52215        31.70015
R10  19338531.01414   -224712.12314     -1332.23614        28.70014
C35  22237393.97214     47769.93214       233.06914        27.70014
R09  20699475.45114   -172644.23014     -4687.52514        27.20014
C08  38591224.25114   -177765.31414     -1075.79414        24.80014
R19  21856587.69913   -160735.54713     -4885.79313        21.80013
C13  38218906.00213    -28618.30213      -573.84513        20.50013
> 2025 05 03 09 22 43.9999999  0 15                      
G16  21467830.93027    224367.33327      1198.26227        41.90027
G26  20468000.59826   -104031.80926      -633.19826        37.30026
G05  23627355.32225   -423781.37925     -2409.24425        31.90025
G29  22476627.45514   -291258.60614     -3799.86114        28.80014
G23  23647059.18214    357169.62214      1949.93614        27.00014
G18  20621040.75114     -3457.00714     -1162.76714        24.30014
G31  22579587.57713   -157093.66913     -4042.01013        22.40013
C26  22572245.36026   -106729.57826      -646.22726        37.70026
C29  22246898.59315   -105419.46915     -2939.84415        31.50015
R10  19338578.08114   -226068.19714     -1329.32914        28.60014
C35  22237140.04814     48006.17614       230.23314        27.70014
R09  20700148.18614   -177343.13514     -4692.78914        27.20014
C08  38591228.74814   -178836.49114     -1077.63314        24.90014
R19  21857298.50713   -165644.77213     -4885.57213        21.80013
C13  38218805.27213    -29186.69213      -575.23913        20.40013
> 2025 05 03 09 22 44.9999999  0 15                      
G16  21467362.65427    225571.38027      1198.00227        42.00027
G26  20467884.57826   -104659.49226      -633.86126        37.30026
G05  23627567.87525   -426184.83925     -2409.59425        31.90025
G29  22477117.61514   -295050.75414     -3797.18314        28.90014
G23  23646442.50814    359127.69614      1954.26314        26.80014
G18  20621012.57014     -4614.12314     -1163.79114        24.30014
G31  22580119.40913   -161130.86313     -4043.73013        22.30013
C26  22572131.73826   -107370.23426      -646.75926        37.70026
C29  22247229.26415   -108354.45015     -2941.23715        31.40015
R10  19338560.99314   -227240.46114     -1335.19614        28.60014
C35  22236854.94614     48237.50414       223.06014        27.70014
R09  20700772.65314   -181944.24014     -4686.06514        27.10014
C08  38591198.76914   -179906.82314     -1075.71814        24.90014
R19  21857940.96213   -170350.40213     -4891.77613        21.90013
C13  38218683.55613    -29750.92013      -567.95613        20.60013
> 2025 05 03 09 22 45.9999999  0 15                      
G16  21466896.17727    226774.96027      1197.48327        42.00027
G26  20467767.65926   -105287.79726      -634.47826        37.30026
G05  23627792.71925   -428588.95125     -2410.29825        32.10025
G29  22477590.68814   -298843.75214     -3799.28314        28.90014
G23  23645821.33914    361080.35214      1944.08214        26.70014
G18  20620992.18414     -5766.32014     -1155.60014        24.20014
G31  22580646.74413   -165170.36313     -4046.51213        22.30013
C26  22572016.01826   -108011.38226      -647.20226        37.70026
C29  22247550.64115   -111289.90715     -2941.50315        31.30015
R10  19338594.27014   -228680.43514     -1338.00814        28.60014
C35  22236580.33614     48468.99014       225.75514        27.70014
R09  20701426.80014   -186703.51214     -4691.59614        27.10014
C08  38591164.59314   -180973.89914     -1071.25714        24.90014
R19  21858609.20013   -175193.03813     -4893.20013        21.90013
C13  38218553.74613    -30308.42813      -559.95813        20.90013
> 2025 05 03 09 22 47.0000000  0 15                      
G16  21466459.37927    227978.23127      1197.25427        42.00027
G26  20467679.82026   -105916.68726      -635.04626        37.30026
G05  23628043.64625   -430993.87725     -2411.19525        32.30025
G29  22478097.63714   -302635.76114     -3797.37614        28.90014
G23  23645239.44114    363033.83214      1948.02814        26.60014
G18  20621007.17414     -6918.22214     -1157.61814        24.10014
G31  22581209.75413   -169212.52113     -4049.34913        22.30013
C26  22571931.77726   -108653.10826      -647.82426        37.70026
C29  22247914.88915   -114225.55215     -2941.54715        31.10015
R10  19338617.35414   -229907.61014     -1335.68114        28.50014
C35  22236324.31314     48701.83214       227.71014        27.90014
R09  20702085.74414   -191327.53014     -4686.79614        27.00014
C08  38591158.89714   -182040.34014     -1071.93314        25.00014
R19  21859396.45513   -180511.74913     -4902.11213        21.90013
C13  38218449.41813    -30863.58913      -559.79813        21.20013
> 2025 05 03 09 22 48.0000000  0 15                      
G16  21465996.20027    229180.95527      1196.58527        42.00027
G26  20467564.70026   -106546.27226      -635.79526        37.20026
G05  23628262.79425   -433399.60325     -2411.98725        32.50025
G29  22478581.80214   -306427.82814     -3797.95414        28.80014
G23  23644639.55714    364991.44714      1953.81714        26.60014
G18  20620998.48014     -8070.55714     -1158.41414        24.00014
G31  22581748.48113   -173258.67613     -4054.01213        22.30013
C26  22571819.95426   -109295.58326      -648.66026        37.70026
C29  22248231.77015   -117160.78515     -2940.83515        31.00015
R10  19338626.64714   -231221.73714     -1329.76314        28.50014
C35  22236040.70914     48933.41414       225.14114        28.10014
R09  20702744.08914   -196108.96814     -4694.21114        27.00014
C08  38591119.32414   -183105.41214     -1070.19714        25.20014
R19  21860091.07413   -185495.98313     -4890.34413        21.80013
C13  38218313.91213    -31417.80613      -559.55313        21.40013
> 2025 05 03 09 22 49.0000000  0 15                      
G16  21465529.42327    230383.22727      1196.18227        42.00027
G26  20467449.58026   -107176.40526      -636.26926        37.20026
G05  23628486.43925   -435805.85525     -2412.37625        32.60025
G29  22479067.16614   -310219.05314     -3796.66514        28.80014
G23  23644036.67414    366945.65214      1946.63414        26.60014
G18  20620982.29114     -9222.09614     -1157.00214        23.90014
G31  22582286.30813   -177302.42313     -4048.40313        22.20013
C26  22571708.13226   -109938.65026      -649.17226        37.70026
C29  22248560.34215   -120094.22415     -2938.34915        30.80015
R10  19338665.02114   -232689.17114     -1339.55514        28.50014
C35  22235761.90214     49162.85114       222.55514        28.10014
R09  20703379.64914   -200768.14114     -4700.80014        26.90014
C08  38591088.14614   -184170.55314     -1070.98314        25.60014
R19  21860742.82313   -190249.83113     -4883.30413        21.80013
C13  38218182.00313    -31976.34113      -566.50413        21.40013
> 2025 05 03 09 22 50.0000000  0 15                      
G16  21465065.34427    231584.99827      1195.65627        42.00027
G26  20467331.46126   -107807.35626      -637.22326        37.20026
G05  23628709.48525   -438213.16825     -2413.70425        32.80025
G29  22479557.92614   -314013.11614     -3801.34314        28.70014
G23  23643433.19214    368899.45614      1947.74014        26.80014
G18  20620973.29714    -10377.65914     -1163.43914        23.80014
G31  22582820.23913   -181343.37213     -4045.40913        22.10013
C26  22571592.41226   -110582.32926      -649.79526        37.60026
C29  22248889.81415   -123028.06815     -2939.85415        30.70015
R10  19338668.91814   -233974.31014     -1341.46714        28.40014
C35  22235479.79814     49391.61714       222.62014        28.20014
R09  20704028.69914   -205499.90014     -4695.01614        26.80014
C08  38591059.06614   -185237.18314     -1073.18414        25.90014
R19  21861385.27813   -194954.69613     -4884.91013        22.00013
C13  38218051.59313    -32539.28813      -570.96313        21.30013
> 2025 05 03 09 22 51.0000001  0 15                      
G16  21464632.14427    232786.27827      1195.16927        42.00027
G26  20467240.02526   -108438.93626      -637.75726        37.10026
G05  23628960.11125   -440621.06225     -2414.04625        33.00025
G29  22480073.86914   -317808.25314     -3801.53314        28.60014
G23  23642862.08714    370853.44314      1948.21314        26.90014
G18  20620985.88914    -11534.66414     -1163.58814        23.70014
G31  22583373.35613   -185383.78713     -4046.00913        22.10013
C26  22571510.26926   -111226.71426      -650.54826        37.60026
C29  22249244.46915   -125962.34215     -2940.29615        30.60015
R10  19338710.28914   -235299.11714     -1337.44514        28.40014
C35  22235224.37414     49622.58614       226.26014        28.20014
R09  20704688.54214   -210130.04214     -4695.08914        26.80014
C08  38591052.77014   -186307.34314     -1077.73514        26.00014
R19  21862097.88513   -199875.40113     -4883.12813        22.20013
C13  38217954.16113    -33104.15913      -571.64213        21.30013
> 2025 05 03 09 22 51.9999999  0 15                      
G16  21464087.72127    233987.18727      1194.91427        42.10027
G26  20467048.75726   -109071.06826      -638.21626        37.10026
G05  23629104.91125   -443029.63025     -2414.71125        33.10025
G29  22480477.38914   -321599.15814     -3794.59414        28.50014
G23  23642169.26714    372806.67814      1947.04914        27.00014
G18  20620890.55514    -12692.44414     -1163.97614        23.60014
G31  22583829.64013   -189424.21313     -4046.23613        22.00013
C26  22571318.10226   -111871.60326      -650.89626        37.60026
C29  22249489.39915   -128899.16015     -2943.84415        30.40015
C35  22234863.12514     49853.14014       224.59114        28.30014
R10  19338645.23414   -236634.63714     -1339.31814        28.40014
R09  20705251.25314   -214819.05114     -4698.68014        26.70014
C08  38590944.24514   -187377.67914     -1076.17714        26.10014
R19  21862651.60113   -204525.19513     -4883.03113        22.50013
C13  38217764.39213    -33669.67513      -571.59513        21.20013
> 2025 05 03 09 22 52.9999999  0 15                      
G16  21463620.64527    235187.57927      1194.25127        42.10027
G26  20466935.13626   -109703.90326      -639.06826        37.10026
G05  23629321.06125   -445438.93425     -2415.55225        33.20025
G29  22480965.75114   -325391.75014     -3799.31314        28.40014
G23  23641564.88514    374760.28114      1947.90514        27.10014
G18  20620876.76414    -13851.96214     -1166.26714        23.50014
G31  22584357.27513   -193465.59213     -4047.73513        22.10013
C26  22571205.67926   -112517.19426      -651.76826        37.50026
C29  22249823.06815   -131834.84415     -2940.94215        30.30015
C35  22234590.31314     50081.02314       220.72014        28.30014
R10  19338664.12114   -237999.10014     -1339.58214        28.30014
R09  20705882.61614   -219457.59114     -4692.30614        26.70014
C08  38590914.86614   -188449.36714     -1078.19214        26.20014
R19  21863324.63513   -209393.85413     -4891.01013        22.60013
C13  38217631.88413    -34236.38513      -573.13513        21.20013
> 2025 05 03 09 22 53.9999999  0 15                      
G16  21463151.46927    236387.79627      1194.26627        42.10027
G26  20466819.71626   -110337.13026      -639.28626        37.10026
G05  23629543.20825   -447848.79425     -2415.99925        33.20025
G29  22481458.01014   -329186.54414     -3801.75514        28.30014
G23  23640956.90614    376712.72614      1946.00014        27.10014
G18  20620863.87313    -15012.99013     -1167.64513        23.40013
G31  22584889.70613   -197508.23613     -4049.13513        22.30013
C26  22571089.96026   -113163.16526      -651.97026        37.50026
C29  22250150.74115   -134771.91915     -2943.57815        30.20015
C35  22234312.40614     50309.33114       222.71014        28.40014
R10  19338672.81514   -239307.89014     -1341.40014        28.30014
R09  20706540.66014   -224237.49014     -4697.36514        26.80014
C08  38590882.18814   -189518.10314     -1073.07014        26.20014
R19  21864007.86213   -214316.85613     -4885.98113        22.60013
C13  38217497.27713    -34802.07413      -570.98813        21.50013
> 2025 05 03 09 22 55.0000000  0 15                      
G16  21462717.37027    237587.39827      1193.42927        42.10027
G26  20466727.67926   -110971.09026      -640.18926        37.00026
G05  23629791.43625   -450259.64925     -2417.21425        33.20025
G29  22481969.45614   -332982.67614     -3802.66214        28.20014
G23  23640376.80814    378666.14814      1948.04514        27.10014
G18  20620869.56913    -16171.86613     -1163.66213        23.40013
G31  22585456.31413   -201555.30213     -4055.13813        22.40013
C26  22571005.71826   -113809.79326      -652.76726        37.60026
C29  22250495.50215   -137707.59315     -2940.78315        30.00015
C35  22234053.38514     50538.74114       224.15114        28.40014
R10  19338712.68814   -240624.30614     -1345.92814        28.20014
R09  20707218.49114   -228962.37314     -4695.25414        26.90014
C08  38590885.48614   -190583.04414     -1068.85214        26.20014
R19  21864703.38113   -219144.94913     -4894.41913        22.60013
C13  38217407.04013    -35365.00913      -567.36713        21.70013
> 2025 05 03 09 22 56.0000000  0 15                      
G16  21462250.59327    238786.65127      1193.21527        42.10027
G26  20466613.45826   -111605.61126      -640.66426        37.00026
G05  23630018.97825   -452671.08025     -2417.58125        33.20025
G29  22482455.42014   -336774.74814     -3795.90114        28.20014
G23  23639767.33014    380615.90214      1942.05614        27.10014
G18  20620847.38413    -17329.32113     -1162.60613        23.30013
G31  22585996.54013   -205598.79913     -4047.57213        22.40013
C26  22570896.59326   -114457.12726      -653.49726        37.60026
C29  22250828.57215   -140646.80915     -2946.79315        29.90015
C35  22233780.87414     50766.63614       221.32714        28.40014
R10  19338736.37114   -242015.46414     -1344.20214        28.10014
R09  20707842.65914   -233561.19014     -4698.98414        27.00014
C08  38590848.91114   -191648.72514     -1071.86014        26.20014
R19  21865394.10313   -224106.98713     -4896.36513        22.50013
C13  38217270.63413    -35926.38813      -566.41113        22.00013
> 2025 05 03 09 22 57.0000000  0 15                      
G16  21461788.61327    239985.45627      1192.71727        42.10027
G26  20466492.94226   -112240.85826      -641.47426        37.00026
G05  23630239.62625   -455083.11625     -2418.20025        33.40025
G29  22482953.07514   -340569.46714     -3801.90314        28.10014
G23  23639153.05514    382566.98814      1945.88714        27.10014
G18  20620833.59413    -18484.71013     -1160.21913        23.30013
G31  22586527.77213   -209642.38313     -4049.48713        22.40013
C26  22570783.27226   -115104.94626      -653.87026        37.60026
C29  22251163.74015   -143584.06515     -2942.08515        29.70015
C35  22233498.17014     50996.10514       224.44514        28.30014
R10  19338739.66914   -243296.03214     -1345.43814        28.00014
R09  20708497.10614   -238321.98214     -4697.36514        27.00014
C08  38590818.03314   -192716.39014     -1074.46614        26.10014
C13  38217141.12413    -36486.27813      -564.95513        22.50013
R19  21866084.82413   -229071.32013     -4892.17413        22.60013
> 2025 05 03 09 22 58.0000000  0 14                      
G16  21461323.03527    241183.80427      1192.25527        42.20027
G26  20466376.62226   -112876.65326      -641.93226        37.20026
G05  23630464.77025   -457496.02025     -2419.19925        33.60025
G29  22483431.84414   -344362.89914     -3798.64814        28.30014
G23  23638557.06714    384519.53414      1947.41114        27.20014
G18  20620805.71313    -19639.88813     -1160.93413        23.30013
G31  22587065.60013   -213684.01913     -4046.52313        22.40013
C26  22570668.45126   -115753.38826      -654.56426        37.60026
C29  22251496.80915   -146519.00415     -2939.58715        29.60015
C35  22233213.36714     51229.24114       229.16014        28.30014
R09  20709147.35614   -243059.85714     -4699.37314        27.00014
C08  38590783.25714   -193787.68614     -1078.92114        26.00014
C13  38217016.11013    -37046.85813      -566.73413        22.80013
R19  21866762.35513   -233963.70613     -4891.85213        22.70013
> 2025 05 03 09 22 59.0000001  0 14                      
G16  21460887.13727    242381.70627      1191.81627        42.20027
G26  20466291.48126   -113513.22726      -642.82626        37.20026
G05  23630711.79925   -459909.61625     -2419.80325        33.80025
G29  22483945.98814   -348155.85414     -3798.57814        28.50014
G23  23637962.57914    386471.91614      1946.43514        27.30014
G18  20620818.60413    -20794.96413     -1160.88813        23.30013
G31  22587614.82013   -217723.94213     -4044.92713        22.30013
C26  22570587.80726   -116402.49726      -655.25226        37.70026
C29  22251851.76415   -149458.60115     -2947.73415        29.50015
C35  22232964.83914     51460.41914       224.38814        28.20014
R09  20709818.29114   -247748.06414     -4696.98314        27.00014
C08  38590786.85414   -194857.21414     -1074.45214        26.20014
C13  38216923.77413    -37605.29913      -563.18113        23.20013
R19  21867453.37713   -238768.07113     -4889.36713        22.90013
> 2025 05 03 09 22 59.9999998  0 15                      
G16  21460331.32227    243579.14127      1191.33727        42.20027
G26  20466084.02526   -114150.35726      -643.27126        37.20026
G05  23630851.50225   -462323.95425     -2420.57125        34.00025
G29  22484339.91514   -351949.64314     -3800.06514        28.50014
G23  23637266.16114    388424.85814      1947.35814        27.40014
G18  20620703.18413    -21953.29913     -1165.82613        23.30013
G31  22588040.22513   -221762.52613     -4043.77313        22.20013
C26  22570387.24626   -117052.17926      -655.77726        37.70026
C29  22252093.09714   -152399.11714     -2946.78314        29.40014
R10  19338734.27324                     -1341.66324        27.40024
C35  22232592.19714     51687.25414       218.85314        28.10014
R09  20710370.50914   -252443.15414     -4699.88714        27.00014
C08  38590666.33814   -195925.97614     -1074.18914        26.20014
C13  38216701.02813    -38167.86813      -570.44313        23.40013
R19  21868040.97013   -243660.45813     -4886.72313        23.00013
> 2025 05 03 09 23 00.9999998  0 15                      
G16  21459895.72327    244776.32427      1191.19327        42.20027
G26  20466000.68326   -114787.89126      -643.59926        37.20026
G05  23631100.92925   -464738.84325     -2421.02625        34.10025
G29  22484859.75514   -355746.52914     -3804.29714        28.50014
G23  23636686.96214    390378.46014      1948.06814        27.40014
G18  20620712.47814    -23114.62614     -1168.68614        23.50014
G31  22588598.73813   -225803.57813     -4048.14813        22.10013
C26  22570304.50326   -117702.36126      -656.24326        37.80026
C29  22252453.44714   -155338.45514     -2944.55814        29.20014
R10  19338771.44714     -1302.68914     -1345.78014        28.20014
C35  22232344.56814     51910.23614       215.24614        28.10014
R09  20711009.06714   -256959.45014     -4706.83414        27.00014
C08  38590666.03814   -196997.00814     -1077.97614        26.30014
C13  38216598.79914    -38732.88914      -572.05614        23.50014
R19  21868763.77013   -248634.74113     -4893.22613        23.20013
> 2025 05 03 09 23 02.0000000  0 15                      
G16  21459445.43527    245972.89827      1190.45927        42.20027
G26  20465896.65526   -115426.28226      -644.62826        37.20026
G05  23631330.87025   -467154.71225     -2422.16625        34.10025
G29  22485365.20614   -359542.78514     -3801.74514        28.80014
G23  23636094.27214    392329.53614      1944.00214        27.50014
G18  20620704.08414    -24280.82914     -1174.44814        23.50014
G31  22589147.65813   -229846.53613     -4049.71513        22.00013
C26  22570205.57226   -118353.27326      -657.03226        37.90026
C29  22252792.81214   -158278.67714     -2946.41714        29.10014
R10  19338798.72814     -2648.12214     -1347.11014        28.20014
C35  22232072.35714     52134.32214       218.88114        28.00014
R09  20711682.40114   -261759.24114     -4697.76014        27.00014
C08  38590647.45114   -198065.09014     -1072.36214        26.50014
C13  38216483.97914    -39300.81014      -575.12714        23.50014
R19  21869456.59014   -253546.30014     -4892.79414        23.50014
> 2025 05 03 09 23 03.0000000  0 15                      
G16  21458980.75727    247169.21827      1190.31127        42.20027
G26  20465783.63326   -116065.14626      -644.98126        37.20026
G05  23631547.32025   -469570.97125     -2422.33425        34.00025
G29  22485852.36814   -363339.13614     -3802.27714        29.10014
G23  23635480.59714    394280.10114      1944.42714        27.50014
G18  20620701.38514    -25451.28214     -1178.45914        23.70014
G31  22589685.48613   -233894.16113     -4055.83813        21.90013
C26  22570093.44926   -119004.52126      -657.24426        37.90026
C29  22253115.08914   -161216.91514     -2943.07114        29.00014
R10  19338832.90514     -4094.19914     -1349.99514        28.20014
C35  22231797.14714     52358.37514       218.20814        28.00014
R09  20712337.44714   -266523.09914     -4698.86314        27.00014
C08  38590621.06914   -199128.65614     -1067.13514        26.50014
C13  38216361.36414    -39867.46114      -571.84314        23.80014
R19  21870144.91414   -258496.09114     -4893.34314        23.50014
> 2025 05 03 09 23 04.0000000  0 15                      
G16  21458515.77927    248364.99727      1189.64427        42.30027
G26  20465667.31326   -116704.56926      -645.56626        37.20026
G05  23631772.16525   -471988.17925     -2423.54425        34.00025
G29  22486335.93414   -367136.41314     -3803.60114        29.30014
G23  23634875.01614    396234.47214      1950.40914        27.50014
G18  20620694.49014    -26622.36214     -1177.25614        23.70014
G31  22590217.01813   -237950.21613     -4066.13013        21.90013
C26  22569979.82826   -119656.56526      -658.25126        37.90026
R10  19338817.31514     -5277.13814     -1349.53214        28.30014
C29  22253444.26114   -164157.36814     -2947.36714        28.90014
C35  22231512.64414     52586.53914       224.40914        27.90014
R09  20712964.31314   -271137.19614     -4703.00114        27.10014
C08  38590579.69814   -200193.62614     -1071.48214        26.40014
C13  38216226.45714    -40433.69314      -571.83314        24.00014
R19  21870792.76514   -263231.57114     -4884.95814        23.50014
> 2025 05 03 09 23 05.0000000  0 15                      
G16  21458047.80327    249560.53727      1189.55627        42.30027
G26  20465557.58926   -117344.62526      -646.23426        37.20026
G05  23632000.90625   -474405.78225     -2423.66125        33.80025
G29  22486826.99414   -370934.08714     -3803.73114        29.30014
G23  23634259.24314    398186.35614      1944.77514        27.50014
G18  20620678.60114    -27794.99014     -1179.26414        23.70014
G31  22590745.85213   -242011.70913     -4070.07113        21.80013
C26  22569866.80626   -120309.09726      -658.58626        37.80026
R10  19338827.20914     -6592.78814     -1352.92614        28.30014
C29  22253767.13814   -167102.30214     -2952.98214        28.70014
C35  22231231.73914     52813.48614       220.53014        27.90014
R09  20713613.06414   -275867.42514     -4702.70414        27.20014
C08  38590544.92214   -201267.10914     -1083.54814        26.30014
C13  38216096.04714    -40998.04114      -569.21414        24.10014
R19  21871483.78714   -268195.90514     -4894.82714        23.50014
> 2025 05 03 09 23 06.0000001  0 15                      
G16  21457615.80227    250755.56427      1188.90827        42.30027
G26  20465465.55326   -117985.32726      -646.88926        37.10026
G05  23632248.53525   -476824.35125     -2424.91525        33.70025
G29  22487335.74114   -374727.10714     -3796.55414        29.30014
G23  23633678.24514    400137.26814      1944.56214        27.70014
G18  20620699.28714    -28960.70114     -1168.11614        23.90014
G31  22591304.66513   -246070.88313     -4063.87513        21.80013
C26  22569787.66126   -120962.22926      -659.24226        37.80026
R10  19338886.26814     -8011.40814     -1352.33014        28.30014
C35  22230979.31314     53039.51514       219.75914        28.00014
C29  22254122.09214   -170044.31314     -2946.35814        28.60014
R09  20714283.70014   -280554.10514     -4701.53814        27.20014
C08  38590547.92014   -202345.60414     -1086.80914        26.20014
C13  38215990.52014    -41560.51914      -567.35414        24.40014
R19  21872169.71214   -272973.48114     -4897.90514        23.50014
> 2025 05 03 09 23 06.9999998  0 15                      
G16  21457061.18627    251950.07327      1188.38427        42.30027
G26  20465261.69426   -118626.65026      -647.49526        37.10026
G05  23632379.84425   -479243.52525     -2425.33625        33.60025
G29  22487734.46515   -378523.32415     -3803.67615        29.50015
G23  23632990.22114    402086.49514      1942.51914        27.70014
G18  20620600.35514    -30126.31614     -1171.42914        24.00014
G31  22591756.75213   -250125.35513     -4057.98013        21.70013
C26  22569586.50026   -121616.00126      -659.90126        37.90026
R10  19338795.13114     -9269.85714     -1353.43714        28.30014
C35  22230612.36714     53262.13014       215.09914        28.00014
C29  22254357.42914   -172984.67514     -2945.34414        28.40014
R09  20714806.23814   -285090.27414     -4706.40714        27.10014
C08  38590428.60214   -203424.13114     -1084.35214        26.10014
C13  38215774.97014    -42123.49214      -569.02914        24.60014
R19  21872755.50614   -277856.68314     -4898.42314        23.50014
> 2025 05 03 09 23 07.9999999  0 15                      
G16  21456624.68827    253144.13527      1187.97627        42.30027
G26  20465174.75426   -119268.69726      -648.27326        37.10026
G05  23632642.76225   -481663.52225     -2426.27125        33.50025
G29  22488240.51515   -382323.53315     -3808.06415        29.50015
G23  23632395.43314    404038.99514      1948.27214        27.60014
G18  20620614.14614    -31296.23814     -1177.93714        24.00014
G31  22592322.76013   -254175.81613     -4054.31713        21.60013
C26  22569505.85626   -122270.36126      -660.46426        37.90026
R10  19338869.17914    -10768.55914     -1352.32414        28.30014
C29  22254717.18014   -175925.35814     -2946.65114        28.30014
C35  22230359.94214     53482.32614       213.17614        28.00014
R09  20715493.96214   -289869.40314     -4709.58814        27.00014
C08  38590417.81014   -204501.21314     -1082.16914        25.90014
C13  38215672.14114    -42686.43414      -568.73814        24.60014
R19  21873430.63914   -282575.32414     -4898.72114        23.50014
> 2025 05 03 09 23 08.9999999  0 14                      
G16  21456162.40827    254337.66227      1187.39427        42.30027
G26  20465062.93226   -119911.34126      -648.80526        37.00026
G05  23632868.20625   -484084.32525     -2427.06725        33.50025
G29  22488728.87715   -386126.39715     -3810.05315        29.50015
G23  23631792.85014    405989.43114      1943.53914        27.60014
G18  20620593.76014    -32470.23814     -1181.90214        24.00014
G31  22592860.28813   -258217.61713     -4043.33113        21.50013
C26  22569390.13626   -122925.56426      -661.43426        37.80026
R10  19338885.96814    -12121.58414     -1354.79214        28.30014
C29  22255058.64314   -178867.14014     -2948.13914        28.20014
C35  22230070.04314     53703.29714       215.54814        27.90014
R09  20716141.51414   -294592.75814     -4707.81814        26.90014
C08  38590390.52914   -205576.75514     -1080.58114        25.80014
C13  38215539.03314    -43253.15314      -574.41514        24.70014
> 2025 05 03 09 23 10.0000000  0 14                      
G16  21455711.82027    255530.74527      1187.05227        42.30027
G26  20464962.20126   -120554.62426      -649.41026        37.00026
G05  23633100.24525   -486505.83125     -2427.66425        33.50025
G29  22489220.23714   -389924.12514     -3800.96414        29.40014
G23  23631194.76414    407935.15314      1937.55514        27.50014
G18  20620601.55514    -33643.76114     -1179.09214        23.90014
G31  22593397.81613   -262253.40413     -4038.58613        21.40013
C26  22569291.50526   -123581.17426      -661.56826        37.80026
R10  19338895.86114    -13374.73114     -1355.27714        28.20014
C29  22255397.10914   -181807.21914     -2944.98114        28.10014
C35  22229814.02014     53926.17914       218.08214        27.90014
R09  20716807.05314   -299349.76714     -4700.50514        26.80014
C13  38215432.00714    -43822.29514      -576.11014        24.90014
C08  38590371.94114   -206649.13114     -1076.54814        25.60014
> 2025 05 03 09 23 11.0000000  0 14                      
G16  21455246.24227    256723.47527      1186.67127        42.30027
G26  20464852.47726   -121198.69726      -650.34926        37.00026
G05  23633321.19225   -488928.04625     -2428.44925        33.60025
G29  22489706.50014   -393719.36414     -3799.87514        29.30014
G23  23630583.48714    409885.83014      1947.27014        27.50014
G18  20620571.87514    -34816.02014     -1177.50714        23.90014
G31  22593909.86213   -266281.95813     -4030.81513        21.30013
C26  22569182.98026   -124237.43026      -662.40626        37.70026
R10  19338908.75214    -14707.16214     -1356.24514        28.20014
C29  22255721.78414   -184748.58214     -2947.83014        28.10014
C35  22229533.71414     54150.61014       219.37614        27.90014
R09  20717467.79514   -304144.17514     -4705.80914        26.80014
C13  38215300.69814    -44389.88914      -572.64814        24.90014
C08  38590346.75914   -207721.92014     -1078.82214        25.50014
> 2025 05 03 09 23 12.0000000  0 14                      
G16  21454782.46327    257915.90027      1186.40927        42.20027
G26  20464734.35926   -121842.99626      -650.27526        36.90026
G05  23633548.13525   -491350.78325     -2428.86025        33.60025
G29  22490191.26514   -397515.53514     -3802.49714        29.20014
G23  23629975.80814    411838.80214      1948.25614        27.50014
G18  20620556.88614    -35988.66414     -1178.69914        23.80014
G31  22594434.19913   -270303.57713     -4024.01213        21.10013
C26  22569071.45726   -124894.13826      -662.74426        37.60026
R10  19338938.73114    -16131.11814     -1354.38514        28.20014
C29  22256045.56014   -187694.26914     -2953.65714        28.10014
C35  22229255.20714     54373.42814       216.20314        27.90014
R09  20718096.76014   -308768.97214     -4702.96114        26.70014
C08  38590314.98114   -208794.36814     -1078.08714        25.30014
C13  38215173.28614    -44953.42814      -567.32014        24.90014
> 2025 05 03 09 23 13.0000001  0 14                      
G16  21454346.56527    259107.79327      1185.76227        42.20027
G26  20464649.21826   -122488.05826      -651.30726        36.90026
G05  23633806.85625   -493774.35225     -2429.84725        33.60025
G29  22490714.10314   -401312.73614     -3803.57614        29.20014
G23  23629402.90514    413787.45114      1940.62214        27.40014
G18  20620584.16714    -37164.81314     -1183.76414        23.70014
G31  22594996.90913   -274318.09713     -4016.83113        20.90013
C26  22568991.11326   -125551.49526      -663.49126        37.60026
R10  19338988.19714    -17497.87314     -1358.88114        28.20014
C29  22256408.00914   -190636.38814     -2946.14314        28.00014
C35  22229003.98114     54593.30014       212.58814        27.90014
R09  20718774.89114   -313496.91814     -4707.44714        26.60014
C08  38590312.28314   -209868.39914     -1080.63314        25.20014
C13  38215076.75314    -45512.48514      -562.62714        24.90014
> 2025 05 03 09 23 14.0000001  0 14                      
G16  21453885.48427    260299.27127      1185.40727        42.20027
G26  20464531.10026   -123133.79026      -651.92926        36.80026
G05  23634033.79925   -496198.59425     -2430.43925        33.50025
G29  22491192.57114   -405112.37114     -3806.71214        29.40014
G23  23628800.02214    415738.71414      1946.70514        27.30014
G18  20620570.07614    -38341.42014     -1182.69814        23.60014
G31  22595521.84613   -278328.51613     -4014.22913        20.80013
C26  22568879.59026   -126209.47726      -664.10326        37.50026
R10  19339009.18314    -18874.54314     -1361.30314        28.20014
C35  22228721.57614     54814.40614       215.91314        27.90014
C29  22256733.58414   -193581.18814     -2951.95014        28.00014
R09  20719399.65814   -318098.02414     -4715.28014        26.60014
C08  38590287.10014   -210942.46914     -1079.89814        25.20014
C13  38214952.03914    -46073.96514      -568.50014        24.90014
> 2025 05 03 09 23 14.9999998  0 14                      
G16  21453334.16627    261490.32927      1184.98427        42.20027
G26  20464331.43826   -123780.08826      -652.44426        36.80026
G05  23634167.20725   -498623.55825     -2431.18725        33.50025
G29  22491595.79215   -408913.77915     -3808.15515        29.50015
G23  23628097.60814    417690.94914      1946.85714        27.20014
G18  20620471.44513    -39520.70813     -1186.49113        23.40013
G31  22595958.64313   -282333.90813     -4008.73713        20.60013
C26  22568680.22826   -126868.04426      -664.67026        37.50026
R10  19338946.52614    -20284.00814     -1361.50814        28.30014
C35  22228358.52814     55033.88514       212.85614        27.90014
C29  22256975.51614   -196523.20214     -2946.42714        27.90014
R09  20719961.46914   -322845.06514     -4714.20314        26.60014
C08  38590174.07814   -212019.14414     -1083.78614        25.20014
C13  38214741.58514    -46635.71914      -567.70114        24.80014
> 2025 05 03 09 23 15.9999999  0 14                      
G16  21452901.56527    262680.94827      1184.53527        42.20027
G26  20464252.59326   -124427.02926      -653.12426        36.70026
G05  23634415.43525   -501049.17625     -2431.80625        33.50025
G29  22492110.53615   -412711.96015     -3802.42815        29.70015
G23  23627530.40114    419639.48714      1940.82414        27.00014
G18  20620491.83113    -40699.56613     -1184.50513        23.30013
G31  22596522.85313   -286334.22913     -4003.64813        20.40013
C26  22568601.38226   -127527.20926      -665.27326        37.40026
R10  19338973.50714    -21531.77814     -1363.19514        28.30014
C35  22228105.80314     55254.10114       214.77314        27.90014
C29  22257323.87514   -199469.39114     -2954.08514        27.90014
R09  20720615.91614   -327444.63914     -4709.56614        26.50014
C08  38590171.98014   -213094.19114     -1080.04414        25.30014
C13  38214633.06014    -47197.16314      -567.09914        24.80014
> 2025 05 03 09 23 16.9999999  0 13                      
G16  21452440.78427    263871.11227      1184.07227        42.20027
G26  20464133.87526   -125074.64926      -653.82326        36.70026
G05  23634641.17825   -503475.66025     -2432.77825        33.50025
G29  22492599.49715   -416510.95815     -3805.26615        29.80015
G23  23626919.42414    421586.64014      1940.59614        26.90014
G18  20620473.24313    -41875.24313     -1179.94813        23.20013
C26  22568490.15926   -128187.01726      -665.94026        37.40026
R10  19338981.90114    -22839.80214     -1363.11014        28.30014
C35  22227820.70014     55475.47314       216.14114        27.90014
C29  22257660.24214   -202413.81814     -2949.35314        27.80014
R09  20721255.37314   -332125.20514     -4702.37014        26.40014
C08  38590143.50014   -214171.77014     -1084.65314        25.50014
C13  38214496.35514    -47762.78314      -573.51614        24.70014
> 2025 05 03 09 23 18.0000000  0 14                      
G16  21451985.69927    265060.85027      1183.71627        42.10027
G26  20464026.54926   -125722.75226      -654.15226        36.60026
G05  23634876.51525   -505902.84425     -2433.34025        33.50025
G29  22493096.55315   -420311.72815     -3807.46215        29.80015
G23  23626322.23714    423529.09114      1934.29014        26.70014
G18  20620465.74913    -43050.14313     -1180.32013        23.10013
C26  22568390.32826   -128847.37426      -666.38626        37.30026
R10  19339040.66114    -24355.32114     -1362.86014        28.30014
C29  22257989.71414   -205357.36614     -2948.86214        27.80014
C35  22227559.28114     55695.05014       212.92314        27.80014
C08  38590127.31114   -215249.05214     -1082.88914        25.80014
R09  20721925.70914   -336909.72414     -4706.60314        26.30014
C13  38214377.33714    -48330.52114      -574.55314        24.60014
R19  21880262.90913     -4491.35613     -4889.79113        20.60013
> 2025 05 03 09 23 19.0000000  0 14                      
G16  21451520.72127    266250.25727      1183.35827        42.10027
G26  20463915.62626   -126371.50026      -654.95226        36.60026
G05  23635097.16325   -508330.50825     -2433.78425        33.50025
G29  22493586.11415   -424109.18315     -3801.67615        29.90015
G23  23625707.96314    425475.47414      1942.46514        26.60014
G18  20620447.76113    -44219.30813     -1172.17713        23.00013
C26  22568280.00526   -129508.17126      -666.84526        37.30026
R10  19339037.96314    -25605.38014     -1362.58314        28.30014
C29  22258320.98514   -208303.36614     -2953.05214        27.80014
C35  22227274.17814     55911.81614       209.53314        27.80014
C08  38590101.52914   -216327.52714     -1084.89914        26.10014
R09  20722597.84414   -341765.25914     -4707.48714        26.20014
C13  38214249.62514    -48900.03214      -576.22514        24.50014
R19  21880902.66613     -9180.91313     -4892.66713        21.70013
> 2025 05 03 09 23 20.0000000  0 14                      
G16  21451057.54227    267439.26727      1182.94827        42.10027
G26  20463803.20426   -127020.84426      -655.50526        36.50026
G05  23635331.60015   -510759.27715     -2435.18315        33.50015
G29  22494071.77815   -427904.80815     -3800.57115        29.90015
G23  23625096.98614    427422.24614      1941.10214        26.50014
G18  20620433.37113    -45387.94513     -1174.23613        22.90013
C26  22568174.17826   -130169.61626      -667.57726        37.30026
C29  22258649.55814   -211248.30714     -2950.21814        28.10014
R10  19339051.45314    -26940.86214     -1362.35514        28.40014
C35  22227001.06714     56130.66414       214.07814        27.70014
C08  38590067.35214   -217407.53014     -1086.57614        26.20014
R09  20723225.31014   -346381.65214     -4711.75614        26.00014
C13  38214119.51614    -49472.56214      -579.84914        24.30014
R19  21881605.08013    -14207.24313     -4896.39713        21.90013
> 2025 05 03 09 23 21.0000001  0 13                      
G16  21450625.54127    268627.99227      1182.71727        42.10027
G26  20463718.96226   -127670.54826      -655.74826        36.50026
G18  20620460.65214    -46566.24614     -1188.99514        27.60014
G29  22494578.72715   -431704.59215     -3807.72415        29.90015
G23  23624526.78014    429369.33114      1941.37614        26.40014
C26  22568092.03526   -130831.51026      -667.92926        37.30026
C29  22259006.91015   -214193.19415     -2950.66915        29.80015
R10  19339111.71214    -28364.82014     -1366.10114        28.60014
C35  22226745.64414     56350.91414       215.14214        27.60014
C08  38590053.86214   -218485.62614     -1082.95114        26.20014
R09  20723869.26414   -350926.98614     -4714.56714        25.90014
C13  38214022.68314    -50042.18514      -573.97914        24.20014
R19  21882252.03213    -18775.86613     -4890.12013        21.90013
> 2025 05 03 09 23 21.9999998  0 14                      
G16  21450070.02627    269815.93027      1181.68127        42.10027
G26  20463518.10126   -128321.39426      -657.27826        36.50026
G29  22494968.15815   -435502.47715     -3802.79515        29.90015
G18  20620353.32614    -47743.34614     -1182.36314        29.20014
G23  23623831.26214    431315.77814      1940.26414        26.70014
G05  23635714.43515   -515608.81915     -2429.94815        31.40015
C26  22567890.57426   -131494.37826      -669.16326        37.20026
C29  22259245.24515   -217139.40715     -2952.68215        30.70015
R10  19339033.76614    -29692.67614     -1369.31314        28.70014
C35  22226373.30214     56569.94114       212.60414        27.50014
C08  38589926.75014   -219565.10214     -1085.97614        26.10014
R09  20724469.44814   -355877.25814     -4714.30714        25.70014
C13  38213811.92814    -50610.42614      -573.35914        24.10014
R19  21882826.13513    -23594.77513     -4887.61713        22.00013
> 2025 05 03 09 23 22.9999999  0 14                      
G16  21449636.52627    271003.65227      1181.74927        42.00027
G26  20463439.55626   -128972.44026      -657.01026        36.60026
G29  22495489.49715   -439302.55015     -3807.02815        29.90015
G18  20620366.51714    -48920.88314     -1183.61714        29.10014
G05  23635963.26315   -518037.15815     -2434.20015        29.80015
G23  23623251.16414    433262.33414      1940.74614        26.70014
C26  22567811.12926   -132157.53326      -669.10826        37.40026
C29  22259608.89315   -220086.54015     -2953.40115        31.50015
R10  19339081.43314    -31051.80314     -1369.24914        28.80014
C35  22226131.36914     56789.03714       213.32114        27.40014
C08  38589939.34114   -220645.81014     -1087.13314        26.10014
R09  20725129.59114   -360508.92514     -4705.67414        25.50014
C13  38213707.30114    -51172.41814      -564.67714        24.00014
R19  21883584.90913    -28762.70313     -4891.54713        22.10013
> 2025 05 03 09 23 23.9999999  0 14                      
G16  21449176.04427    272190.91527      1181.17027        42.00027
G26  20463323.53626   -129624.36126      -658.22026        36.60026
G29  22495974.86115   -443109.94515     -3816.91715        29.90015
G05  23636186.30914   -520466.08414     -2435.08114        29.10014
G18  20620350.92814    -50102.01914     -1188.79914        28.80014
G23  23622638.68814    435207.96614      1939.30514        26.70014
C26  22567699.90626   -132821.37526      -669.99526        37.60026
C29  22259945.26115   -223033.53615     -2952.73615        31.50015
R10  19339107.51414    -32454.40314     -1367.41314        28.80014
C35  22225853.76214     57006.39114       210.67314        27.40014
C08  38589924.35114   -221721.41814     -1078.86914        26.00014
R09  20725790.63414   -365304.87214     -4714.74414        25.30014
C13  38213577.49114    -51728.82614      -559.42514        23.90014
R19  21884290.32113    -33803.57713     -4902.15313        22.30013
> 2025 05 03 09 23 24.9999999  0 14                      
G16  21448714.66427    273377.78827      1180.81327        41.90027
G26  20463212.61326   -130276.70426      -658.41726        36.60026
G29  22496454.82815   -446916.77215     -3812.40415        29.80015
G05  23636408.45514   -522897.99314     -2439.26114        28.80014
G23  23622032.20714    437154.67514      1941.38314        26.70014
G18  20620346.43114    -51275.27514     -1175.17714        28.40014
C26  22567593.78026   -133485.82026      -670.55626        37.80026
C29  22260278.63015   -225983.31415     -2956.97715        31.30015
R10  19339125.20214    -33811.24014     -1369.00014        28.80014
C35  22225576.15414     57223.32114       210.90914        27.90014
C08  38589893.47314   -222798.92914     -1084.27114        25.90014
R09  20726413.60214   -369896.04414     -4714.49714        25.10014
C13  38213441.98514    -52285.03914      -561.92614        23.80014
R19  21884929.47913    -38490.83713     -4897.13113        22.40013
> 2025 05 03 09 23 26.0000000  0 14                      
G16  21448266.47427    274564.23527      1180.42627        41.90027
G26  20463108.28526   -130929.59326      -658.97126        36.60026
G29  22496956.98115   -450717.32515     -3803.22115        29.70015
G05  23636652.18614   -525329.92414     -2437.74914        28.70014
G23  23621444.01514    439096.77414      1933.98414        26.70014
G18  20620343.13314    -52445.85714     -1175.05314        27.80014
C26  22567493.64926   -134150.72426      -670.88926        37.80026
R10  19339145.58814    -35121.59014     -1368.96214        28.80014
C35  22225305.44114     57441.79114       213.48414        28.20014
C08  38589877.88314   -223875.25914     -1081.49414        25.90014
R09  20727083.63914   -374678.27214     -4713.71414        25.00014
C29  22260614.69715   -228931.31215     -2952.86015        30.70015
C13  38213345.45114    -52846.32914      -569.58314        23.70014
R19  21885644.78313    -43523.32813     -4897.44013        22.40013
> 2025 05 03 09 23 27.0000000  0 14                      
G16  21447801.49627    275750.41027      1180.15627        41.80027
G26  20462995.56326   -131583.07526      -659.65926        36.60026
G29  22497445.64215   -454515.21615     -3802.43715        29.60015
G05  23636886.02414   -527763.07614     -2439.64214        29.10014
G23  23620837.23514    441039.47114      1937.11314        26.60014
G18  20620323.64714    -53616.83214     -1177.05214        27.30014
C26  22567385.72426   -134816.15726      -671.52526        37.80026
C35  22225032.93014     57659.06714       210.85214        28.50014
R10  19339174.96814    -36542.49814     -1373.41814        28.70014
C08  38589839.51014   -224952.41814     -1083.40114        26.00014
R09  20727735.38714   -379424.55514     -4721.77114        24.80014
C29  22260933.37714   -231878.00914     -2951.87314        29.20014
C13  38213211.74414    -53413.70914      -576.25314        23.60014
R19  21886345.39813    -48538.17813     -4898.95013        22.40013
> 2025 05 03 09 23 28.0000001  0 13                      
G16  21447365.89827    276936.10927      1179.59727        41.80027
G26  20462910.12226   -132237.23226      -660.35626        36.60026
G05  23637145.04514   -530195.94314     -2438.58614        29.30014
G29  22497970.27915   -458317.83115     -3810.83915        29.50015
G23  23620252.04014    442985.64614      1942.04914        26.60014
C26  22567307.77826   -135482.22826      -672.19926        37.90026
C35  22224782.00414     57875.63014       210.39614        28.90014
R10  19339230.13014    -37939.75514     -1366.13614        28.60014
C08  38589831.71514   -226031.62414     -1086.03814        26.00014
C29  22261285.93214   -234823.73314     -2951.04514        28.00014
R09  20728451.29214   -384353.44014     -4724.49414        24.70014
C13  38213128.40213    -53982.88713      -575.88513        23.40013
R19  21887051.70913    -53424.44013     -4902.20013        22.40013
> 2025 05 03 09 23 28.9999998  0 13                      
G16  21446814.57927    278121.30127      1179.07427        41.70027
G26  20462709.56126   -132891.92526      -660.82526        36.50026
G05  23637287.14715   -532629.28315     -2439.43715        29.60015
G29  22498371.40214   -462120.66214     -3808.79814        29.40014
G23  23619546.92814    444937.23814      1948.43614        26.50014
C26  22567109.91526   -136148.93126      -672.82926        38.00026
C35  22224411.16014     58092.28814       210.89514        29.10014
R10  19339161.77714    -39318.71314     -1371.55414        28.50014
C08  38589719.89314   -227111.85414     -1086.55114        26.00014
C29  22261523.36814   -237769.29014     -2951.28214        27.10014
R09  20729041.28314   -389249.47214     -4721.36314        24.50014
R19  21887619.51613    -58211.20213     -4899.28213        22.60013
C13  38212915.24913    -54554.07813      -578.00813        23.20013
> 2025 05 03 09 23 29.9999998  0 13                      
G16  21446351.99927    279306.01227      1178.60627        41.70027
G26  20462598.63826   -133547.45426      -661.80926        36.50026
G05  23637516.48815   -535065.35015     -2443.29315        29.80015
G29  22498856.16614   -465923.84014     -3809.21114        29.40014
G23  23618938.64914    446883.08914      1937.11514        26.40014
C26  22566998.39226   -136816.32426      -673.54726        38.00026
C35  22224133.85214     58309.46714       211.62914        29.20014
R10  19339167.17314    -40613.01014     -1372.50614        28.50014
C08  38589682.41914   -228190.42014     -1083.54314        25.90014
C29  22261865.73114   -240713.67014     -2949.59814        26.40014
R09  20729670.24814   -393875.79214     -4725.24614        24.30014
R19  21888312.33713    -63187.78213     -4896.03813        22.60013
C13  38212782.74113    -55134.64313      -591.06113        23.10013
> 2025 05 03 09 23 30.9999999  0 13                      
G16  21445919.69927    280489.98927      1177.74527        41.70027
G26  20462521.29126   -134203.83626      -662.67126        36.50026
G05  23637764.11615   -537500.61615     -2440.72615        30.10015
G29  22499374.20715   -469727.99315     -3810.50215        29.50015
G23  23618375.63914    448826.08914      1935.71114        26.30014
C26  22566922.84426   -137484.60726      -674.53726        38.00026
C35  22223885.92414     58524.00814       207.41114        29.40014
R10  19339227.73114    -42039.25714     -1375.84414        28.40014
C08  38589691.41314   -229270.59614     -1086.79014        25.90014
C29  22262220.68514   -243656.45614     -2947.79814        25.90014
R09  20730377.15914   -398757.30514     -4719.73014        24.10014
R19  21888995.56413    -67950.24513     -4891.43813        22.60013
C13  38212671.51813    -55719.23313      -592.41213        22.90013
> 2025 05 03 09 23 31.9999999  0 13                      
G16  21445458.01827    281673.67327      1177.67427        41.70027
G26  20462406.47126   -134860.68926      -662.95226        36.50026
G05  23637990.76015   -539937.05515     -2442.88615        30.40015
G29  22499866.46715   -473530.22415     -3807.13015        29.70015
G23  23617770.35814    450769.10414      1937.15714        26.20014
C26  22566812.82126   -138153.34626      -674.77726        38.00026
C35  22223602.92015     58738.62115       208.84015        29.50015
R10  19339239.42314    -43365.58614     -1375.56814        28.40014
C08  38589659.33514   -230352.76714     -1088.97914        25.90014
C29  22262540.26414   -246601.99714     -2952.72514        25.40014
R19  21889710.26913    -73041.64213     -4898.84413        22.80013
R09  20731003.42514   -403366.06214     -4728.80014        23.80014
C13  38212539.60913    -56301.60413      -587.07113        22.70013
> 2025 05 03 09 23 33.0000000  0 14                      
G16  21445007.43027    282856.76027      1176.98027        41.60027
G26  20462304.54126   -135518.36626      -663.89626        36.50026
G05  23638230.59315   -542375.25215     -2444.88415        30.60015
G29  22500359.32515   -477332.00815     -3807.36515        29.80015
G23  23617178.56714    452712.67014      1938.03114        26.10014
G18  20620219.91913    -60668.85813     -1181.12113        20.30013
C26  22566715.38826   -138822.71126      -675.43326        38.00026
C35  22223337.90315     58953.72115       209.58815        29.60015
R10  19339273.59914    -44749.15714     -1376.96914        28.40014
C08  38589641.04714   -231433.45114     -1085.69514        25.90014
C29  22262873.33414   -249550.16714     -2955.23714        25.10014
R19  21890399.79213    -77934.82313     -4894.87113        22.80013
R09  20731658.77114   -408070.35814     -4735.44614        23.60014
C13  38212423.29013    -56879.97213      -582.12213        22.50013
> 2025 05 03 09 23 34.0000000  0 14                      
G16  21444543.95127    284039.50727      1176.69327        41.60027
G26  20462195.71726   -136176.46126      -664.18526        36.50026
G05  23638453.33915   -544817.68715     -2450.43415        30.60015
G29  22500843.19015   -481135.42915     -3810.11915        29.90015
G23  23616576.88414    454657.21514      1939.15214        26.10014
G18  20620202.23113    -61844.22313     -1181.22713        19.40013
C26  22566605.96426   -139492.71626      -676.15226        38.00026
C35  22223064.19315     59169.80215       210.74215        29.60015
R10  19339288.88914    -46093.79214     -1376.62414        28.40014
C08  38589603.57314   -232515.56814     -1088.66014        25.90014
C29  22263189.01514   -252500.14014     -2956.70014        24.90014
R19  21891033.85313    -82595.29713     -4893.89713        22.80013
R09  20732277.84313   -412640.91013     -4750.49313        23.40013
C13  38212291.98113    -57456.23313      -581.03513        22.30013
> 2025 05 03 09 23 35.0000000  0 14                      
G16  21444083.47027    285221.72427      1176.08827        41.60027
G26  20462082.99526   -136835.36526      -665.17126        36.50026
G05  23638678.18415   -547257.55415     -2444.44415        30.60015
G29  22501337.24815   -484941.36115     -3813.04715        29.90015
G23  23615965.00814    456603.14914      1940.76314        26.10014
G18  20620175.55013    -63021.74513     -1184.46213        18.80013
C26  22566498.03826   -140163.45926      -676.92126        38.00026
C35  22222790.18215     59384.41715       208.07315        29.60015
R10  19339313.17214    -47488.00414     -1377.61914        28.60014
C08  38589575.39314   -233597.10414     -1087.05514        25.80014
C29  22263500.20014   -255453.57914     -2960.98114        24.70014
R19  21891727.87213    -87575.71413     -4903.50513        22.70013
R09  20732890.31913   -417177.83413     -4745.28413        23.10013
C13  38212145.98213    -58028.61913      -576.25713        22.10013
> 2025 05 03 09 23 36.0000001  0 14                      
G16  21443651.46927    286403.56227      1175.78527        41.60027
G26  20462000.55226   -137494.90126      -665.71426        36.50026
G05  23638934.80615   -549696.53715     -2444.40415        30.50015
G29  22501861.28615   -488744.60715     -3807.76315        29.90015
G23  23615387.00814    458546.54214      1936.25814        26.10014
G18  20620195.33613    -64202.30913     -1187.94713        18.30013
C26  22566420.69226   -140834.71226      -677.31926        37.90026
C35  22222534.46015     59596.68415       205.28215        29.50015
R10  19339364.43714    -48863.90914     -1379.84614        28.70014
C08  38589577.79114   -234677.56814     -1085.73714        25.80014
C29  22263871.34314   -258413.64214     -2969.18114        24.50014
R19  21892426.68813    -92421.40513     -4904.27313        22.70013
R09  20733514.48713   -421616.20113     -4747.18913        22.90013
C13  38212048.54913    -58597.02813      -572.23113        21.90013
> 2025 05 03 09 23 36.9999998  0 14                      
G16  21443099.85127    287584.87727      1175.18927        41.60027
G26  20461794.29526   -138154.99726      -666.23926        36.40026
G05  23639068.21415   -552135.47815     -2444.78015        30.50015
G29  22502249.21715   -492548.50215     -3810.07915        29.90015
G23  23614695.38714    460489.62614      1937.06414        26.10014
G18  20620089.80913    -65381.24113     -1183.97913        18.00013
C26  22566222.82926   -141506.49626      -677.85826        37.90026
C35  22222164.21615     59806.95915       203.46915        29.50015
R10  19339290.98714    -50216.93314     -1377.02114        28.90014
C08  38589454.57614   -235763.85014     -1095.00114        25.70014
C29  22264116.57314   -261375.07214     -2967.92214        24.30014
R19  21893001.39113    -97244.91013     -4898.28313        22.80013
R09  20734069.70213   -426327.32913     -4743.61113        22.60013
C13  38211825.80313    -59161.32013      -568.04313        21.70013
> 2025 05 03 09 23 37.9999999  0 14                      
G16  21442666.65127    288765.64227      1174.62627        41.60027
G26  20461715.14926   -138815.91426      -667.19026        36.40026
G05  23639326.03515   -554578.35515     -2450.70715        30.50015
G29  22502773.85415   -496354.17415     -3812.42215        29.80015
G23  23614114.98814    462434.70614      1940.21414        26.10014
G18  20620105.69813    -66562.75913     -1188.67313        17.80013
C26  22566144.58326   -142179.13526      -678.87726        37.90026
C35  22221918.98614     60021.16014       210.35414        29.40014
R10  19339339.25414    -51577.58614     -1383.31114        29.00014
C08  38589462.67114   -236849.08214     -1090.51514        25.60014
C29  22264484.41814   -264330.26814     -2957.88714        24.20014
R19  21893739.48013   -102301.08913     -4899.01113        22.90013
R09  20734733.44313   -430978.09913     -4749.17613        22.30013
C13  38211721.47613    -59722.32113      -565.16513        21.50013
> 2025 05 03 09 23 38.9999999  0 13                      
G16  21442203.47127    289946.05727      1174.37627        41.60027
G26  20461602.42726   -139477.31126      -667.49926        36.40026
G05  23639555.97615   -557023.74515     -2452.50715        30.40015
G29  22503242.72915   -500157.01115     -3807.28015        29.70015
G23  23613492.31914    464378.16314      1936.78014        26.00014
G18  20620097.90313    -67747.36313     -1192.00913        17.50013
C26  22566039.35626   -142852.26926      -679.19126        37.80026
C35  22221639.87914     60234.69814       207.39614        29.40014
R10  19339366.23514    -52984.76214     -1379.81614        29.00014
C08  38589434.49014   -237931.58014     -1086.94014        25.50014
C29  22264812.09114   -267284.21614     -2959.13214        24.00014
R19  21894414.01313   -107177.40613     -4901.78013        23.00013
C13  38211602.75813    -60283.95213      -567.75513        21.20013
> 2025 05 03 09 23 40.0000000  0 13                      
G16  21441752.28427    291126.06427      1173.99427        41.70027
G26  20461505.89426   -140139.51526      -668.41626        36.40026
G05  23639803.00515   -559468.75315     -2450.62415        30.40015
G29  22503746.38115   -503962.14515     -3812.08815        29.70015
G23  23612909.52314    466325.08714      1942.84814        26.00014
G18  20620097.30412    -68937.31312     -1198.43112        17.40012
C26  22565941.92326   -143526.04826      -679.85726        37.80026
C35  22221376.66114     60446.23114       204.77514        29.40014
R10  19339399.21314    -54361.46914     -1384.73914        29.10014
C08  38589418.90114   -239011.38314     -1084.21114        25.50014
C29  22265161.64914   -270237.86714     -2959.25514        24.00014
R19  21895101.43713   -112061.40913     -4907.19513        23.00013
C13  38211474.44713    -60845.26113      -566.90413        21.10013
> 2025 05 03 09 23 41.0000000  0 13                      
G16  21441293.30227    292305.67327      1173.52827        41.70027
G26  20461391.37426   -140801.97626      -668.47026        36.40026
G05  23640029.64815   -561911.24015     -2447.10515        30.50015
G29  22504236.54115   -507770.28215     -3815.51615        29.60015
G23  23612309.33814    468272.16414      1941.27014        26.00014
G18  20620085.01212    -70132.55512     -1203.76912        17.30012
C26  22565832.79926   -144200.28026      -680.28626        37.80026
C35  22221102.95115     60657.80615       205.76715        29.50015
R10  19339408.20614    -55673.30714     -1382.94814        29.10014
C08  38589389.82114   -240085.92314     -1077.73614        25.40014
C29  22265492.92014   -273191.20914     -2959.01314        23.90014
R19  21895762.17913   -116863.47513     -4903.02913        23.00013
C13  38211370.11913    -61408.19713      -569.57713        20.90013
> 2025 05 03 09 23 42.0000000  0 13                      
G16  21440831.32127    293484.67527      1172.83427        41.70027
G26  20461283.14826   -141465.39926      -669.76726        36.30026
G05  23640252.09415   -564354.40915     -2449.37215        30.70015
G29  22504720.70615   -511574.69315     -3808.40815        29.50015
G23  23611708.25514    470214.81514      1934.57314        26.10014
G18  20620074.81912    -71333.25312     -1209.28712        17.20012
C26  22565726.67226   -144875.39026      -681.35726        37.80026
C35  22220827.74115     60868.59015       204.57915        29.60015
R10  19339435.78714    -57085.82414     -1382.49314        29.10014
C08  38589356.84414   -241163.60814     -1085.06614        25.30014
C29  22265837.08214   -276143.12014     -2957.00314        23.90014
R19  21896457.39813   -121852.30313     -4896.55513        23.00013
C13  38211244.80613    -61974.61413      -573.96713        20.70013
> 2025 05 03 09 23 43.0000001  0 13                      
G16  21440401.71927    294663.29627      1172.56627        41.70027
G26  20461207.00126   -142129.37426      -670.11426        36.30026
G05  23640510.51515   -566800.84415     -2453.92915        30.80015
G29  22505242.94515   -515377.15715     -3807.35215        29.50015
G23  23611129.95514    472155.50014      1933.83714        26.20014
G18  20620094.30612    -72535.34712     -1208.65612        17.10012
C26  22565648.12726   -145550.92526      -681.55826        37.90026
C35  22220576.81515     61079.84915       205.68715        29.70015
R10  19339489.15014    -58473.93414     -1387.20414        29.10014
C08  38589356.84414   -242246.86714     -1091.85614        25.30014
C29  22266186.94014   -279096.90814     -2960.53514        23.90014
R19  21897166.70713   -126753.87513     -4904.52613        23.00013
C13  38211151.57013    -62546.28713      -580.11013        20.50013
> 2025 05 03 09 23 43.9999998  0 13                      
G16  21439852.49927    295841.55127      1172.20727        41.70027
G26  20461007.93926   -142793.94326      -670.73026        36.30026
G05  23640651.41815   -569246.58515     -2451.25515        30.90015
G29  22505647.96414   -519183.28214     -3813.81414        29.40014
G23  23610432.03814    474095.56114      1933.88514        26.50014
G18  20619991.77712    -73736.31112     -1206.26112        17.10012
C26  22565455.06126   -146227.00126      -682.15626        38.00026
C35  22220214.66515     61288.62115       201.71815        29.70015
R10  19339416.90014    -59832.29714     -1387.81614        29.10014
C08  38589245.32114   -243335.95714     -1097.81514        25.20014
C29  22266422.57614   -282052.32714     -2962.04014        23.90014
R19  21897733.01513   -131532.98113     -4904.02413        23.10013
C13  38210940.21713    -63123.17713      -585.30913        20.40013
> 2025 05 03 09 23 44.9999999  0 13                      
G16  21439419.29927    297019.32327      1171.66727        41.70027
G26  20460922.19826   -143459.09426      -671.30426        36.30026
G05  23640910.13815   -571693.21215     -2452.93115        31.00015
G29  22506157.01214   -522989.38814     -3811.95814        29.30014
G23  23609849.84114    476036.17414      1935.02314        26.70014
G18  20620010.96312    -74934.46712     -1202.61412        17.00012
C26  22565373.81726   -146903.72826      -682.86126        38.00026
C35  22219965.83815     61496.12615       201.06115        29.70015
R10  19339462.46914    -61178.45614     -1389.58514        29.10014
C08  38589246.82014   -244424.33414     -1093.83014        25.30014
C29  22266789.52214   -285009.59114     -2963.99514        23.90014
R19  21898438.42713   -136414.65313     -4899.41613        23.10013
C13  38210846.38113    -63702.55913      -586.43713        20.40013
> 2025 05 03 09 23 45.9999999  0 14                      
G16  21438960.91627    298196.68027      1171.28527        41.70027
G26  20460812.17426   -144124.86426      -671.94126        36.40026
G05  23641136.48215   -574138.08415     -2449.85515        31.10015
G29  22506645.07414   -526793.02814     -3808.26714        29.30014
G23  23609247.55814    477977.41014      1935.68414        26.80014
G31  22612574.34113    -16251.63913     -4070.35313        22.20013
G18  20620001.67012    -76128.15312     -1197.31412        17.00012
C26  22565271.28826   -147581.05926      -683.44326        38.00026
C35  22219690.02915     61703.54415       201.56415        29.70015
R10  19339514.93214    -62722.92214     -1387.01014        29.10014
C08  38589214.74314   -245511.68314     -1092.64314        25.30014
C29  22267116.29614   -287969.41014     -2966.90414        23.80014
R19  21899132.14613   -141393.52913     -4905.43113        23.10013
C13  38210720.46913    -64280.31913      -582.75913        20.30013
> 2025 05 03 09 23 47.0000000  0 14                      
G16  21438509.42927    299373.51527      1170.76427        41.70027
G26  20460715.64126   -144791.43726      -672.78426        36.50026
G05  23641377.81515   -576585.75315     -2454.87415        31.20015
G29  22507145.12814   -530597.98414     -3811.41914        29.20014
G23  23608648.57314    479918.67914      1935.47514        26.90014
G31  22613125.65913    -20315.00013     -4069.18413        22.10013
G18  20620000.17112    -77315.93312     -1190.63412        17.00012
C26  22565175.35426   -148259.14626      -684.21926        38.00026
C35  22219422.61415     61911.88015       203.04015        29.70015
R10  19339543.71214    -64077.50914     -1385.58714        29.00014
C08  38589204.25014   -246596.17114     -1088.81314        25.30014
C29  22267462.55614   -290927.85814     -2963.51614        23.80014
R19  21899842.05513   -146396.93713     -4906.00813        23.10013
C13  38210608.94613    -64859.02513      -584.93413        20.40013
> 2025 05 03 09 23 48.0000000  0 14                      
G16  21438048.94827    300550.05127      1170.50327        41.70027
G26  20460607.11626   -145458.38926      -673.02226        36.60026
G05  23641610.75315   -579034.77215     -2455.57415        31.20015
G29  22507627.49414   -534408.32214     -3818.90714        29.20014
G23  23608047.18914    481859.50014      1934.71314        27.20014
G31  22613662.28713    -24380.18413     -4071.97413        22.10013
G18  20619989.67812    -78501.48512     -1190.31912        16.90012
C26  22565068.32826   -148937.56226      -684.40826        38.00026
C35  22219141.40815     62122.31915       205.66115        29.70015
R10  19339566.19714    -65461.04514     -1396.51514        29.00014
C08  38589172.17214   -247680.33914     -1089.83514        25.30014
C29  22267783.63414   -293883.24614     -2959.68414        23.70014
R19  21900509.39313   -151233.44813     -4904.43513        23.10013
C13  38210473.73913    -65435.93813      -581.84313        20.40013
> 2025 05 03 09 23 49.0000000  0 15                      
G16  21437590.26527    301726.08127      1169.91327        41.80027
G26  20460495.59426   -146126.11626      -673.97626        36.60026
G05  23641841.59415   -581485.31115     -2457.16015        31.30015
G29  22508105.06314   -538217.07314     -3813.81814        29.20014
G23  23607443.70714    483799.42314      1933.60914        27.40014
G31  22614199.21613    -28444.86813     -4070.29513        22.00013
G18  20619968.09312    -79684.76512     -1188.00712        16.90012
C26  22564958.30426   -149616.73926      -685.36726        38.10026
C35  22218869.49715     62331.64315       202.95715        29.70015
R10  19339577.28914    -66783.55914     -1390.62114        29.00014
C08  38589133.79914   -248767.34714     -1094.23614        25.30014
C29  22268121.50014   -296837.28914     -2959.17714        23.70014
R19  21901242.68513   -156424.33713     -4902.96513        23.10013
R09  20741896.38413     -9219.03213     -4737.52713        22.30013
C13  38210343.92913    -66009.72913      -578.04113        20.50013
> 2025 05 03 09 23 50.0000000  0 15                      
G16  21437127.38627    302901.63327      1169.44927        41.80027
G26  20460383.47126   -146794.44126      -674.48826        36.70026
G05  23642066.13815   -583936.80215     -2457.82815        31.30015
G29  22508590.12714   -542021.94014     -3808.78614        29.10014
G23  23606845.92114    485740.66414      1936.03514        27.60014
G31  22614738.84213    -32511.33313     -4073.21513        22.00013
G18  20619956.70112    -80863.61712     -1182.49912        16.90012
C26  22564851.57826   -150296.54026      -685.92326        38.10026
C35  22218590.99015     62538.34915       199.58615        29.70015
R10  19339589.28114    -68111.41414     -1389.42114        29.00014
C08  38589108.61614   -249854.94114     -1093.69614        25.40014
C29  22268452.77114   -299794.07614     -2963.96714        23.60014
R19  21901884.84113   -161127.66613     -4896.73313        23.10013
R09  20742580.81013    -14139.50913     -4733.12213        22.20013
C13  38210220.41513    -66579.48013      -573.54113        20.60013
> 2025 05 03 09 23 51.0000001  0 15                      
G16  21436696.28427    304076.54927      1168.73427        41.80027
G26  20460304.02626   -147463.63726      -675.49526        36.70026
G05  23642327.25715   -586387.02315     -2455.44815        31.30015
G29  22509102.17314   -545824.16214     -3806.75914        29.10014
G23  23606260.12614    487679.11714      1931.19514        27.80014
G31  22615297.35513    -36577.10013     -4071.27813        21.90013
G18  20619966.89412    -82036.55312     -1175.84112        16.80012
C26  22564776.03126   -150977.08326      -686.72326        38.20026
C35  22218342.46215     62743.54615       198.63215        29.70015
R10  19339646.24214    -69519.35614     -1395.23114        29.00014
C08  38589118.20914   -250939.69614     -1089.14414        25.40014
C29  22268805.92614   -302751.75414     -2963.93314        23.60014
R19  21902595.64913   -166038.42713     -4897.22113        23.10013
R09  20743260.73913    -18876.62613     -4742.55313        22.00013
C13  38210134.37413    -67147.02113      -572.24513        20.60013
> 2025 05 03 09 23 51.9999998  0 15                      
G16  21436144.06627    305251.24527      1168.72227        41.80027
G26  20460103.46526   -148133.25626      -675.69326        36.80026
G05  23642461.86415   -588839.43215     -2459.36415        31.30015
G29  22509494.90114   -549627.48614     -3809.73614        29.00014
G23  23605564.90714    489617.99714      1933.22714        28.00014
G31  22615736.25213    -40644.44913     -4074.00013        21.90013
G18  20619875.15712    -83203.38312     -1169.63912        16.70012
C26  22564577.86826   -151658.14226      -687.12526        38.20026
C35  22217971.31915     62950.59515       202.16515        29.70015
R10  19339582.98514    -70924.24214     -1388.77814        29.00014
C08  38589000.39114   -252027.02014     -1094.41814        25.60014
C29  22269041.26414   -305710.08414     -2964.46114        23.50014
R19  21903181.44313   -170920.86613     -4909.09913        23.00013
R09  20743784.47713    -23419.66213     -4742.76313        21.90013
C13  38209917.32513    -67715.57913      -574.87613        20.60013
> 2025 05 03 09 23 52.9999999  0 14                      
G16  21435716.26227    306425.53027      1168.21527        41.80027
G26  20460025.51926   -148803.27126      -676.07526        36.80026
G05  23642729.27915   -591289.80415     -2455.21515        31.30015
G23  23604989.90614    491556.19014      1931.98614        28.30014
G29  22510000.95114   -553432.02314     -3811.00414        28.90014
G31  22616295.96413    -44712.46613     -4074.21113        21.90013
C26  22564505.61826   -152339.62326      -687.50326        38.20026
C35  22217724.29015     63155.84015       198.53315        29.60015
R10  19339627.35514    -72264.30414     -1392.80314        29.00014
C08  38589001.59014   -253115.07114     -1094.22314        25.60014
C29  22269407.31014   -308666.86714     -2961.81814        23.80014
R19  21903865.56913   -175687.73313     -4913.31913        23.00013
R09  20744459.01013    -28126.97013     -4737.85513        21.80013
C13  38209839.37913    -68289.05113      -581.74013        20.60013
> 2025 05 03 09 23 54.0000000  0 14                      
G16  21435268.67227    307599.45527      1167.93427        41.80027
G26  20459928.38626   -149474.00126      -676.89626        36.80026
G05  23642976.30815   -593742.51115     -2459.68215        31.20015
G23  23604396.01714    493496.96014      1936.24714        28.40014
G29  22510503.10314   -557239.54914     -3814.82514        28.80014
G31  22616854.77713    -48780.03613     -4073.15213        21.90013
C26  22564409.08526   -153021.70126      -688.13226        38.10026
C35  22217458.37415     63359.72815       197.45415        29.60015
R10  19339671.72414    -73704.31314     -1393.75414        28.90014
C08  38588981.80414   -254202.53414     -1092.92414        25.60014
C29  22269757.46814   -311623.67914     -2962.58014        24.30014
R19  21904570.68113   -180667.40713     -4910.09613        22.90013
C13  38209716.46413    -68871.86513      -593.23913        20.60013
R09  20745134.44213    -32938.22013     -4730.84813        21.60013
> 2025 05 03 09 23 55.0000000  0 14                      
G16  21434809.09027    308772.87627      1167.28727        41.80027
G26  20459818.96226   -150145.50626      -677.77226        36.80026
G05  23643198.45415   -596197.10815     -2461.42115        31.20015
G23  23603794.33314    495437.68814      1934.82514        28.50014
G29  22510985.46914   -561051.11314     -3819.46214        28.70014
G31  22617389.60713    -52849.57113     -4076.39613        22.00013
C26  22564308.65426   -153704.54026      -689.04626        38.10026
C35  22217190.95915     63567.08915       203.27015        29.50015
R10  19339686.41414    -75046.66014     -1394.67814        28.90014
C08  38588950.02614   -255291.15214     -1095.02314        25.60014
C29  22270084.84114   -314580.26714     -2962.30114        24.40014
R19  21905246.41313   -185550.60713     -4905.34013        22.80013
C13  38209600.14413    -69462.28713      -600.05413        20.60013
R09  20745815.57113    -37842.65613     -4725.05613        21.50013
> 2025 05 03 09 23 56.0000000  0 14                      
G16  21434346.81027    309945.65827      1166.59827        41.90027
G26  20459712.23626   -150817.69226      -678.39126        36.80026
G05  23643428.09515   -598652.20315     -2461.20515        31.30015
G23  23603191.15114    497378.10614      1934.39714        28.60014
G29  22511487.02214   -564862.47114     -3817.11514        28.60014
G31  22617930.73213    -56922.85213     -4081.01313        22.00013
C26  22564201.62826   -154387.98226      -689.55426        38.00026
C35  22216909.15414     63773.18614       199.65514        29.40014
R10  19339707.09914    -76420.28314     -1402.48614        28.80014
C08  38588917.94814   -256378.93414     -1093.17214        25.60014
C29  22270419.70914   -317538.50114     -2964.86314        24.70014
R19  21905906.85613   -190351.14813     -4909.24613        22.80013
C13  38209472.13313    -70058.36313      -604.71313        20.50013
R09  20746400.16613    -42229.06313     -4729.72613        21.30013
> 2025 05 03 09 23 57.0000000  0 13                      
G16  21433884.83027    311118.16227      1166.50027        41.90027
G26  20459600.71326   -151490.38226      -678.80426        36.80026
G05  23643653.53915   -601106.40015     -2459.60915        31.40015
G23  23602584.07114    499316.81714      1931.99314        28.70014
G29  22511984.67714   -568672.83114     -3815.72214        28.50014
G31  22618471.25813    -60995.82313     -4078.67713        22.20013
C26  22564092.50426   -155071.93526      -690.01726        37.90026
C35  22216631.84614     63976.82814       196.60414        29.30014
R10  19339746.97214    -77896.10114     -1402.43014        28.80014
C08  38588894.56414   -257466.88214     -1093.84014        25.60014
C29  22270747.68214   -320496.06814     -2963.04214        25.00014
R19  21906588.88413   -195268.78913     -4906.45213        22.70013
C13  38209357.01313    -70659.28913      -609.16013        20.50013
> 2025 05 03 09 23 58.0000001  0 13                      
G16  21433457.92627    312290.12527      1165.83027        41.90027
G26  20459524.56626   -152163.83826      -679.70226        36.80026
G05  23643925.75115   -603563.44915     -2464.33715        31.40015
G23  23602009.66914    501254.02314      1930.58914        28.80014
G29  22512507.21614   -572480.74814     -3812.55514        28.40014
G31  22619035.46813    -65068.12213     -4077.82313        22.50013
C26  22564018.15526   -155756.61326      -690.85126        37.90026
C35  22216387.81514     64178.51314       194.89714        29.20014
R10  19339804.53214    -79307.09014     -1399.95814        28.70014
C08  38588891.86614   -258557.52414     -1097.79914        25.60014
C29  22271111.63014   -323452.95514     -2962.35514        25.10014
R19  21907296.99413   -200163.46813     -4902.20613        22.60013
C13  38209260.77913    -71263.11813      -611.09013        20.40013
> 2025 05 03 09 23 58.9999998  0 13                      
G16  21432906.90727    313461.92527      1165.85427        42.00027
G26  20459321.60626   -152837.59426      -679.76926        36.80026
G05  23644060.65715   -606021.58215     -2464.53615        31.50015
G23  23601307.85514    503194.10514      1935.65514        29.00014
G29  22512912.53514   -576290.08714     -3815.91014        28.40014
G31  22619486.65513    -69138.32613     -4075.01613        22.90013
C26  22563822.39126   -156441.64926      -691.02326        37.80026
C35  22216020.86914     64381.20414       197.38414        29.10014
R10  19339743.97414    -80727.23314     -1399.70914        28.60014
C08  38588783.04114   -259647.08414     -1094.82814        25.50014
C29  22271346.96714   -326407.96114     -2959.87214        25.10014
R19  21907889.08413   -205079.56813     -4885.50413        22.50013
C13  38209049.72513    -71867.56013      -610.55813        20.20013
> 2025 05 03 09 23 59.9999999  0 13                      
G16  21432459.31727    314633.10027      1165.05327        42.10027
G26  20459223.27426   -153512.19426      -680.83026        36.70026
G05  23644302.59015   -608478.26915     -2461.77015        31.70015
G23  23600714.86514    505132.67514      1932.00314        29.10014
G29  22513416.48614   -580097.84414     -3812.77214        28.30014
G31  22620042.77013    -73202.49413     -4066.95413        22.90013
C26  22563729.45526   -157127.41826      -691.89226        37.80026
C35  22215751.65514     64585.08614       198.72114        29.00014
R10  19339770.95514    -82073.43214     -1397.75714        28.60014
C08  38588771.64914   -260734.63314     -1092.29814        25.50014
C29  22271691.72914   -329366.55514     -2966.14214        25.10014
R19  21908534.53713   -209738.54613     -4884.46013        22.40013
C13  38208951.39313    -72473.72713      -612.78613        20.00013
> 2025 05 03 09 24 00.9999998  0 13                      
G16  21432000.63527    315804.06927      1164.98327        42.10027
G26  20459115.34926   -154187.14926      -681.01426        36.70026
G05  23644536.12815   -610934.11815     -2461.30915        31.80015
G23  23600105.08714    507069.63814      1930.27714        29.10014
G29  22513903.34914   -583908.42714     -3817.87314        28.20014
G31  22620575.20213    -77264.16313     -4066.29913        23.00013
C26  22563624.22826   -157813.56826      -692.16726        37.80026
R10  19339812.02714    -83556.11814     -1401.30514        28.50014
C35  22215476.74514     64790.73114       200.69914        28.80014
C08  38588737.77314   -261820.90414     -1091.46014        25.40014
C29  22272039.48814   -332330.61314     -2972.61614        25.00014
R19  21909216.26513   -214653.89513     -4885.59513        22.20013
C13  38208831.47613    -73075.60513      -605.56013        19.80013
> 2025 05 03 09 24 02.0000000  0 13                      
G16  21431569.23327    316974.46827      1164.24927        42.20027
G26  20459037.40326   -154862.94926      -682.08426        36.70026
G05  23644802.04415   -613390.74915     -2462.88515        31.80015
G23  23599524.98914    509005.65414      1929.67714        29.00014
G29  22514411.49714   -587717.79414     -3814.62114        28.50014
G31  22621144.20813    -81327.52213     -4070.06513        23.00013
C26  22563548.98026   -158500.45626      -693.06626        37.80026
R10  19339869.58714    -84965.58414     -1403.49514        28.40014
C35  22215233.31414     64995.05714       197.85614        28.70014
C29  22272402.23714   -335299.36214     -2976.90314        25.00014
C08  38588736.87314   -262905.59614     -1089.71114        25.30014
R19  21909877.30813   -219296.76313     -4888.51613        22.10013
C13  38208735.24313    -73675.96813      -605.41613        19.70013
> 2025 05 03 09 24 03.0000000  0 13                      
G16  21431109.95127    318144.47527      1163.94827        42.20027
G26  20458928.57826   -155539.22026      -682.37026        36.70026
G05  23645033.18415   -615851.38115     -2468.49315        31.80015
G29  22514901.35814   -591526.59214     -3814.37314        28.70014
G23  23598914.01214    510940.61114      1928.56414        29.00014
G31  22621684.13413    -85396.45413     -4077.57713        23.00013
C26  22563445.85126   -159187.93826      -693.58926        37.70026
R10  19339869.58714    -86229.37014     -1402.63614        28.40014
C35  22214948.81114     65197.23914       195.30014        28.50014
C29  22272735.30614   -338261.86714     -2965.18914        24.90014
C08  38588724.28214   -263989.46314     -1089.26514        25.20014
R19  21910587.81613   -224366.72613     -4895.04513        21.80013
C13  38208602.73513    -74273.43113      -601.82313        19.50013
> 2025 05 03 09 24 04.0000000  0 12                      
G16  21430651.56927    319314.03427      1163.47027        42.20027
G26  20458823.35126   -156216.19326      -683.18726        36.60026
G05  23645257.72915   -618313.78315     -2469.14815        31.80015
G29  22515387.62114   -595336.76314     -3816.71714        28.70014
G23  23598311.12914    512875.31814      1928.71614        28.90014
G31  22622229.45613    -89474.30113     -4088.16513        23.00013
C26  22563340.02526   -159875.95226      -694.08826        37.60026
R10  19339898.96714    -87650.27614     -1405.99414        28.30014
C29  22273060.88114   -341220.76614     -2962.90514        24.80014
C08  38588679.91314   -265072.41314     -1088.30014        25.00014
R19  21911280.93613   -229342.54513     -4900.04213        21.60013
C13  38208467.52813    -74866.73813      -597.03813        19.40013
> 2025 05 03 09 24 05.0000000  0 12                      
G16  21430192.88627    320483.25627      1163.18927        42.20027
G26  20458716.62526   -156893.62526      -683.52526        36.60026
G05  23645494.26515   -620775.85815     -2467.77315        31.80015
G29  22515878.98114   -599144.68514     -3812.65814        28.70014
G23  23597696.85414    514813.42714      1933.94614        28.80014
G31  22622766.38513    -93555.23413     -4088.33513        22.90013
C26  22563234.79826   -160564.52426      -694.66226        37.60026
R10  19339916.65414    -89008.64114     -1406.86614        28.30014
C35  22214411.28324                       199.34624        25.30024
C29  22273391.55214   -344177.94014     -2962.11914        24.80014
C08  38588653.83114   -266156.00514     -1089.72214        24.90014
C13  38208341.01613    -75452.81613      -588.27213        19.20013
> 2025 05 03 09 24 06.0000001  0 13                      
G16  21429764.78327    321652.08327      1162.76727        42.30027
G26  20458639.27926   -157571.66826      -684.21126        36.70026
G05  23645761.68015   -623235.29315     -2463.97715        31.90015
G29  22516394.92414   -602952.30814     -3813.33414        28.80014
G23  23597120.95314    516752.25814      1933.32814        28.70014
G31  22623332.09313    -97634.63013     -4084.48813        22.90013
G28  24012331.70913   -143440.82313     -4792.23613        20.30013
C26  22563159.84926   -161253.60826      -695.14926        37.50026
R10  19339979.01114    -90444.80114     -1408.95614        28.30014
C29  22273747.40614   -347134.62214     -2962.24314        24.80014
C35  22214158.85814       204.31814       198.50814        25.10014
C08  38588659.52714   -267240.90014     -1091.35714        24.70014
C13  38208247.78013    -76032.53913      -582.35613        19.20013
> 2025 05 03 09 24 06.9999999  0 13                      
G16  21429224.55727    322820.44627      1162.32027        42.30027
G26  20458448.61126   -158250.36226      -684.82726        36.70026
G05  23645910.97615   -625697.27715     -2469.06415        32.00015
G29  22516805.34014   -606765.45814     -3821.71814        28.90014
G23  23596441.32414    518691.90014      1934.23614        28.60014
G31  22623782.68113   -101709.73413     -4078.76413        22.90013
G28  24012937.88913   -148226.51813     -4791.51813        20.30013
C26  22562979.37426   -161943.42326      -695.93426        37.50026
R10  19339928.34614    -91857.35414     -1403.97914        28.30014
C29  22274001.03014   -350096.25014     -2969.85414        24.70014
C35  22213817.69414       405.74814       194.23114        24.90014
C08  38588568.69014   -268328.20614     -1094.26614        24.50014
C13  38208037.02613    -76607.65913      -578.57313        19.10013
> 2025 05 03 09 24 07.9999999  0 14                      
G16  21428763.77627    323988.45027      1161.94227        42.30027
G26  20458341.88526   -158929.56326      -685.33526        36.70026
G05  23646141.21715   -628160.05515     -2469.05515        32.10015
G29  22517298.49914   -610578.91314     -3819.48714        28.90014
G23  23595840.54014    520626.74514      1926.56414        28.50014
G31  22624325.00613   -105782.00513     -4076.73213        23.00013
G28  24013605.82713   -153010.15613     -4788.48713        20.30013
C26  22562872.34926   -162633.65126      -696.26326        37.60026
R10  19339932.24414    -93140.97214     -1408.80614        28.20014
C29  22274329.00314   -353060.74114     -2971.74814        24.70014
C35  22213537.98814       604.06214       190.92714        24.80014
C08  38588528.21814   -269418.88314     -1098.18914        24.40014
R09  20754100.93513    -13941.65713     -4736.96213        19.20013
C13  38207914.71113    -77176.89913      -572.12713        19.00013
> 2025 05 03 09 24 09.0000000  0 14                      
G16  21428336.87127    325155.99327      1161.44927        42.30027
G26  20458260.94126   -159609.44626      -686.08826        36.70026
G05  23646401.73715   -630623.58315     -2469.76415        32.20015
G29  22517809.34514   -614391.30314     -3817.71814        28.90014
G23  23595264.93814    522563.42814      1931.73614        28.40014
G31  22624905.70413   -109853.41513     -4076.84013        23.00013
G28  24014316.93413   -157790.00213     -4783.81013        20.30013
C26  22562799.19926   -163324.52526      -697.00626        37.60026
R10  19340002.39514    -94618.31914     -1407.37514        28.30014
C29  22274691.45214   -356023.58414     -2967.82714        24.90014
C35  22213281.06614       800.64014       189.90014        24.80014
C08  38588526.41914   -270509.42014     -1096.27714        24.20014
R09  20754780.56413    -18677.99913     -4735.65113        19.30013
C13  38207809.78413    -77744.67513      -572.85413        19.00013
> 2025 05 03 09 24 10.0000000  0 14                      
G16  21427875.49027    326323.01527      1160.89727        42.30027
G26  20458157.21226   -160290.04326      -686.81626        36.70026
G05  23646625.08225   -633087.85725     -2470.50825        32.20025
G29  22518299.80514   -618202.21614     -3816.03514        29.00014
G23  23594653.66114    524498.89514      1928.99414        28.30014
G31  22625450.42713   -113924.65313     -4077.01113        23.20013
G28  24014988.17013   -162572.40813     -4789.54413        20.30013
C26  22562692.77326   -164016.13726      -697.79026        37.60026
R10  19340036.57114    -96065.15814     -1411.28414        28.30014
C29  22275028.71914   -358985.13514     -2966.71214        25.10014
C35  22213006.75514       998.23314       192.29014        24.70014
C08  38588500.33714   -271600.07314     -1096.52014        24.10014
C13  38207675.17713    -78312.49313      -573.64813        19.10013
R09  20755405.33213    -23279.86813     -4732.89513        19.30013
> 2025 05 03 09 24 11.0000000  0 14                      
G16  21427416.20827    327489.56927      1160.45527        42.30027
G26  20458052.88526   -160971.33926      -687.50926        36.70026
G05  23646856.82225   -635552.85925     -2471.22825        32.20025
G29  22518793.56414   -622013.17914     -3816.84814        29.00014
G23  23594055.87514    526431.24514      1924.92614        28.10014
G31  22625985.55613   -117999.32613     -4082.25013        23.30013
G28  24015665.70113   -167355.70013     -4789.59613        20.30013
C26  22562591.14326   -164708.30626      -698.25826        37.70026
R10  19340063.25314    -97470.04614     -1412.47514        28.30014
C29  22275360.58914   -361946.01614     -2966.35414        25.40014
C35  22212732.14614      1196.31514       192.51714        24.60014
C08  38588467.66014   -272693.63314     -1100.82214        24.00014
R09  20756062.17713    -28052.89513     -4742.98813        19.20013
C13  38207546.26613    -78880.75113      -574.28813        19.10013
> 2025 05 03 09 24 12.0000000  0 13                      
G16  21426959.32527    328655.62327      1159.94127        42.30027
G26  20457944.95926   -161653.20626      -688.01526        36.80026
G05  23647089.46125   -638018.67125     -2472.07825        32.20025
G29  22519284.32414   -625823.48614     -3815.83914        29.10014
G23  23593455.09114    528361.94114      1924.00514        28.00014
G31  22626511.69213   -122079.74413     -4089.15013        23.40013
G28  24016332.43913   -172138.78313     -4788.83613        20.20013
C26  22562485.61626   -165401.19026      -699.04926        37.70026
R10  19340093.53214    -98896.29114     -1405.86114        28.30014
C29  22275697.25614   -364907.74714     -2967.96314        25.60014
C35  22212463.83114      1394.82514       192.91314        24.50014
R09  20756712.72713    -32792.29513     -4744.00713        19.20013
C13  38207434.74313    -79453.24713      -580.42413        19.10013
> 2025 05 03 09 24 12.9999999  0 13                      
G16  21426448.77827    329821.29427      1159.67127        42.30027
G26  20457790.86626   -162335.71426      -688.63726        36.80026
G05  23647278.63025   -640485.13825     -2472.60125        32.10025
G29  22519718.42314   -629637.48914     -3821.65614        29.10014
G23  23592797.34614    530299.71014      1935.49414        27.90014
G31  22627000.35413   -126163.37213     -4091.03913        23.40013
G28  24016958.40613   -176922.53513     -4789.89113        20.20013
C26  22562334.22126   -166094.57526      -699.39126        37.70026
R10  19340044.06614   -100152.48714     -1410.72414        28.30014
C29  22275978.76114   -367867.24514     -2964.13514        26.00014
C35  22212139.75614      1593.40514       192.85914        24.50014
R09  20757344.68913    -37691.41713     -4740.37413        19.30013
C13  38207259.66513    -80035.53513      -592.94013        19.20013
> 2025 05 03 09 24 13.9999999  0 13                      
G16  21425989.19627    330986.47327      1159.04927        42.30027
G26  20457686.23926   -163018.90226      -689.40926        36.90026
G05  23647513.96725   -642952.37025     -2473.49325        32.10025
G29  22520200.49014   -633451.75414     -3820.27414        29.30014
G23  23592198.06114    532239.23814      1934.52414        27.90014
G31  22627547.47513   -130244.91113     -4086.37313        23.40013
G28  24017617.64913   -181704.98413     -4787.67613        20.20013
C26  22562231.09226   -166788.59126      -700.15926        37.70026
R10  19340081.54014   -101616.87114     -1412.68014        28.30014
C29  22276319.92514   -370828.42414     -2967.84514        26.20014
C35  22211860.34914      1790.84814       191.04714        24.40014
C13  38207129.85413    -80622.90213      -595.73413        19.40013
R09  20758024.91813    -42588.97713     -4739.44013        19.60013
> 2025 05 03 09 24 14.9999999  0 13                      
G16  21425529.61427    332151.37127      1158.89427        42.20027
G26  20457579.81226   -163702.55626      -689.74926        36.90026
G05  23647740.61025   -645420.19125     -2473.97825        32.10025
G29  22520686.15315   -637265.91115     -3819.96315        29.50015
G23  23591587.38414    534176.56714      1930.36614        27.80014
G31  22628079.90614   -134324.21614     -4084.04714        23.50014
G28  24018302.37513   -186484.89013     -4784.49213        20.10013
C26  22562124.96626   -167483.12026      -700.59526        37.70026
R10  19340129.50714   -103136.16314     -1410.64014        28.30014
C29  22276648.79714   -373793.10714     -2972.24314        26.40014
C35  22211582.14214      1986.39814       188.79214        24.40014
C13  38207009.93713    -81214.59513      -599.66413        19.70013
R09  20758652.68413    -47206.89113     -4738.08213        19.60013
> 2025 05 03 09 24 15.9999999  0 13                      
G16  21425073.03127    333315.82927      1158.37527        42.20027
G26  20457473.38626   -164386.77126      -690.35926        37.00026
G05  23647970.55115   -647888.94615     -2475.08415        32.00015
G29  22521174.21615   -641080.08015     -3820.03615        29.70015
G23  23590985.70014    536110.02814      1925.66214        27.70014
G31  22628626.42814   -138406.01414     -4088.90614        23.60014
G28  24018980.50613   -191260.54813     -4779.39413        20.10013
C26  22562025.73526   -168178.21026      -701.17926        37.70026
R10  19340140.59914   -104459.44614     -1413.71714        28.20014
C29  22276978.26914   -376759.51014     -2973.07114        26.40014
C35  22211306.33314      2185.29714       194.76414        24.40014
R09  20759306.53113    -51965.40113     -4741.27913        20.10013
C13  38206890.92013    -81807.71613      -599.64513        20.00013
> 2025 05 03 09 24 17.0000000  0 13                      
G16  21424645.82627    334479.97227      1158.12027        42.20027
G26  20457396.03926   -165071.56726      -690.95126        37.00026
G05  23648235.26715   -650356.87615     -2473.37815        32.00015
G29  22521699.75215   -644892.55915     -3817.49315        29.90015
G23  23590405.60214    538043.13914      1927.07214        27.60014
G31  22629190.63714   -142489.15414     -4089.67114        23.60014
G28  24019665.83113   -196034.08313     -4778.33413        20.00013
C26  22561949.58726   -168873.78426      -701.62626        37.70026
R10  19340209.55214   -105929.93114     -1420.98114        28.20014
C29  22277334.72214   -379724.51014     -2970.10614        26.40014
C35  22211065.29914      2383.25914       191.68414        24.70014
R09  20759989.15913    -56715.49613     -4751.37713        20.40013
C13  38206792.88813    -82401.28813      -599.60713        20.10013
> 2025 05 03 09 24 18.0000000  0 13                      
G16  21424186.54427    335643.59627      1157.50227        42.20027
G26  20457287.81426   -165757.04226      -691.67626        37.10026
G05  23648469.70515   -652826.56315     -2476.42815        32.00015
G29  22522192.61115   -648708.11615     -3822.95715        30.10015
G23  23589796.12414    539977.59014      1929.25514        27.60014
G31  22629722.16914   -146572.34114     -4089.07014        23.60014
G28  24020337.66613   -200804.88313     -4775.29113        20.00013
C26  22561843.16126   -169570.04826      -702.41926        37.70026
R10  19340214.64814   -107220.41114     -1420.08414        28.20014
C29  22277671.08914   -382686.97714     -2967.00714        26.40014
C35  22210781.99614      2578.36314       187.86414        24.90014
R09  20760657.09613    -61548.11713     -4755.12413        20.70013
C13  38206660.97913    -82998.26313      -604.48613        20.10013
> 2025 05 03 09 24 18.9999998  0 13                      
G16  21423652.01427    336806.67627      1156.99827        42.20027
G26  20457101.04426   -166443.15726      -692.24326        37.20026
G05  23648620.80015   -655296.37215     -2475.67615        32.00015
G29  22522600.62815   -652521.05515     -3817.43515        30.20015
G23  23589114.09614    541908.82614      1923.81814        27.50014
G31  22630176.05514   -150652.32214     -4084.18314        23.60014
G28  24020931.55513   -205574.46413     -4774.77513        19.90013
C26  22561663.28626   -170266.99026      -703.03626        37.70026
R10  19340197.56014   -108812.96414     -1413.81714        28.30014
C29  22277926.51214   -385649.37014     -2968.11014        26.50014
C35  22210441.43114      2775.84614       192.91714        24.90014
R09  20761184.73113    -66051.46013     -4757.18613        20.90013
C13  38206453.82213    -83595.05213      -602.45213        20.10013
> 2025 05 03 09 24 19.9999999  0 14                      
G16  21423223.91127    337969.46927      1156.76727        42.30027
G26  20457021.29926   -167129.96326      -693.03226        37.40026
G05  23648892.41215   -657762.61315     -2470.33715        31.90015
G29  22523120.76815   -656334.20115     -3819.12815        30.20015
G23  23588538.19514    543842.80114      1929.46114        27.50014
G31  22630745.06114   -154730.60414     -4083.31214        23.60014
G28  24021617.18013   -210345.70613     -4777.95213        19.80013
C26  22561590.73626   -170964.43026      -703.51726        37.70026
R10  19340255.12014   -110222.42914     -1419.08514        28.50014
C29  22278283.86514   -388615.09114     -2973.21114        26.50014
C35  22210181.21114      2976.37714       196.22614        24.90014
R19  21922160.40413     -5115.88513     -4912.14013        22.20013
R09  20761909.92913    -71029.24013     -4746.45513        20.90013
C13  38206367.48213    -84192.57413      -603.71613        20.00013
> 2025 05 03 09 24 20.9999999  0 14                      
G16  21422767.02727    339131.81427      1156.25727        42.30027
G26  20456918.47026   -167817.11926      -693.19526        37.40026
G05  23649125.95115   -660236.43215     -2483.46915        31.80015
G29  22523613.62715   -660150.91815     -3824.36315        30.20015
G23  23587940.10914    545775.28414      1925.87314        27.40014
G31  22631277.79214   -158809.09614     -4084.45614        23.50014
G28  24022291.71413   -215121.56513     -4784.02713        19.70013
C26  22561487.90726   -171662.41126      -704.06026        37.70026
R10  19340270.70914   -111570.11314     -1418.85514        28.60014
C29  22278619.03314   -391580.42714     -2970.95014        26.50014
C35  22209918.89314      3171.95614       187.29414        24.80014
R19  21922809.75514     -9856.71914     -4911.66214        23.50014
R09  20762535.29613    -75635.69313     -4742.90113        20.90013
C13  38206237.37213    -84788.36713      -600.73813        19.90013
> 2025 05 03 09 24 21.9999999  0 15                      
G16  21422308.34527    340293.86527      1156.04027        42.40027
G26  20456810.84526   -168504.93026      -694.00126        37.50026
G05  23649358.89015   -662713.52315     -2484.58915        31.70015
G29  22524096.89215   -663966.48215     -3820.84615        30.20015
G23  23587329.13214    547709.28714      1928.89614        27.40014
G31  22631815.02013   -162891.36213     -4090.01313        23.40013
G28  24022958.15213   -219905.48313     -4793.80713        19.60013
C26  22561385.07826   -172360.93026      -704.59726        37.60026
R10  19340301.88814   -113000.17214     -1414.72614        28.60014
C29  22278955.10014   -394547.60414     -2973.90614        26.50014
C35  22209641.28514      3365.15614       186.19914        24.80014
R19  21923507.67114    -14859.32214     -4907.19114        23.50014
R09  20763170.85613    -80294.10613     -4746.84513        21.10013
C08  38588098.01613     -6582.74613     -1105.13913        21.10013
C13  38206106.66313    -85380.49313      -596.10213        19.80013
> 2025 05 03 09 24 22.9999999  0 15                      
G16  21421848.76327    341455.31727      1155.29027        42.50027
G26  20456706.21726   -169193.49226      -694.80126        37.50026
G05  23649587.03215   -665186.28115     -2476.45215        31.50015
G29  22524590.05115   -667781.75415     -3820.98615        30.20015
G23  23586727.74814    549643.42614      1928.34314        27.30014
G31  22632346.55313   -166974.66213     -4089.67713        23.30013
G28  24023634.18413   -224695.53613     -4798.97913        19.40013
C26  22561281.95026   -173060.10226      -705.30926        37.60026
R10  19340341.76014   -114475.99414     -1420.60114        28.60014
C29  22279281.87414   -397510.17014     -2966.06814        26.50014
C35  22209364.57714      3558.50214       187.61014        24.70014
R19  21924147.42913    -19548.87713     -4906.60913        23.40013
R09  20763811.21313    -84980.02813     -4753.60913        21.80013
C08  38588065.63813     -7678.67813     -1101.74113        21.30013
C13  38205985.24713    -85969.13313      -592.70613        19.70013
> 2025 05 03 09 24 24.0000000  0 15                      
G16  21421423.35727    342616.49427      1155.17527        42.50027
G26  20456630.66926   -169882.55026      -695.16826        37.50026
G05  23649849.95015   -667659.93715     -2479.96715        31.40015
G29  22525115.58715   -671596.89415     -3820.93515        30.20015
G23  23586148.84914    551575.73214      1925.52514        27.30014
G31  22632910.76213   -171054.44713     -4083.88713        23.20013
G28  24024339.59613   -229489.86013     -4802.31913        19.20013
C26  22561209.70026   -173759.76426      -705.71626        37.50026
R10  19340367.24214   -115715.37414     -1424.06414        28.70014
C29  22279645.52214   -400472.07014     -2967.37414        26.60014
C35  22209119.04714      3752.58914       188.64814        24.70014
R19  21924852.54013    -24429.01513     -4903.79813        23.30013
R09  20764513.62613    -89836.33313     -4759.92613        22.20013
C08  38588061.74113     -8772.55913     -1098.66413        21.40013
C13  38205868.62813    -86556.47313      -592.49913        19.60013
> 2025 05 03 09 24 25.0000000  0 15                      
G16  21420944.58927    343777.06427      1154.45727        42.50027
G26  20456504.75626   -170572.40726      -696.06526        37.50026
G05  23650069.39815   -670135.31615     -2482.04615        31.30015
G29  22525581.46415   -675410.71915     -3818.97315        30.30015
G23  23585524.38114    553505.16314      1922.18314        27.20014
G31  22633444.69213   -175131.96813     -4082.19513        23.10013
G28  24025008.13313   -234291.94613     -4811.77113        19.00013
C26  22561090.98226   -174460.29826      -706.72426        37.50026
R10  19340382.23214   -117156.91214     -1422.02114        28.70014
C29  22279954.00914   -403437.20414     -2972.50414        26.60014
C35  22208843.53814      3947.41414       189.43814        24.60014
R09  20765159.97913    -94652.17013     -4756.35113        22.20013
R19  21925532.47013    -29431.65613     -4902.32513        23.10013
C08  38588028.46413     -9860.49913     -1090.72513        21.40013
C13  38205729.82413    -87139.99913      -587.37413        19.50013
> 2025 05 03 09 24 26.0000001  0 14                      
G16  21420517.38427    344937.36127      1154.27827        42.50027
G26  20456427.71026   -171262.59926      -696.24026        37.50026
G05  23650334.11415   -672608.69715     -2478.26315        31.20015
G29  22526090.51215   -679225.57015     -3821.24315        30.30015
G23  23584957.77314    555433.10714      1921.31714        27.10014
G31  22634025.39013   -179210.21313     -4084.48413        23.00013
C26  22561017.53326   -175161.17126      -706.87126        37.40026
R10  19340443.98914   -118590.02214     -1425.81314        28.70014
C29  22280319.45614   -406402.57214     -2971.31114        26.90014
C35  22208595.01014      4137.43114       181.78414        24.50014
R09  20765799.43613    -99171.52513     -4752.60413        22.40013
R19  21926222.29213    -34229.13913     -4913.12813        22.90013
C08  38588038.65713    -10948.14113     -1093.31913        21.60013
C13  38205632.99113    -87720.68413      -585.09313        19.30013
> 2025 05 03 09 24 26.9999998  0 14                      
G16  21419967.86527    346097.22827      1153.78727        42.50027
G26  20456231.34626   -171953.56126      -697.21026        37.50026
G29  22526490.13515   -683039.89415     -3819.92015        30.40015
G05  23650479.81415   -675081.29315     -2478.06415        31.10015
G23  23584264.65314    557362.36214      1924.04614        27.10014
G31  22634484.07313   -183290.84513     -4087.68513        22.90013
C26  22560824.46626   -175862.68226      -707.64026        37.50026
R10  19340394.82314   -120071.18314     -1426.42214        28.70014
C29  22280558.39014   -409367.96714     -2971.21514        27.20014
C35  22208225.06614      4326.49614       182.78014        24.40014
R09  20766393.92513   -104093.53213     -4755.89313        22.90013
R19  21926825.47513    -39205.71813     -4910.07113        22.80013
C08  38587928.93313    -12040.17913     -1100.04613        21.90013
C13  38205424.93513    -88302.89713      -588.78613        19.40013
> 2025 05 03 09 24 27.9999999  0 15                      
G16  21419539.16227    347256.61627      1153.28627        42.50027
G26  20456157.59726   -172645.04926      -697.61426        37.60026
G29  22527008.77615   -686855.22415     -3821.69315        30.70015
G05  23650746.32915   -677558.34615     -2485.14415        30.90015
G23  23583688.45214    559292.74214      1925.07814        27.00014
G31  22635055.47713   -187375.14513     -4091.99613        22.90013
G18  20619641.91913    -13324.70613     -1227.13813        21.10013
C26  22560749.51826   -176564.67926      -708.04926        37.50026
R10  19340450.58514   -121472.25814     -1427.03914        28.70014
C29  22280927.73514   -412335.02714     -2973.70114        27.20014
C35  22207983.73314      4515.96014       183.85414        24.30014
R09  20767051.66913   -108711.44613     -4749.38713        23.20013
C08  38587934.32913    -13137.94513     -1106.43913        22.90013
R19  21927515.89713    -44006.25413     -4908.37513        22.80013
C13  38205327.80213    -88888.24713      -592.72913        20.70013
> 2025 05 03 09 24 28.9999999  0 15                      
G16  21419081.67827    348415.71027      1153.08327        42.50027
G26  20456053.26926   -173337.02826      -698.08726        37.60026
G29  22527507.63115   -690670.84815     -3821.63215        31.10015
G05  23650984.06415   -680036.47615     -2484.52915        30.80015
G23  23583074.77714    561223.07014      1924.43614        27.00014
G31  22635584.91113   -191463.82813     -4096.73313        22.90013
G18  20619636.82213    -14544.95013     -1226.10713        21.40013
C26  22560649.68726   -177267.30326      -708.74826        37.50026
R10  19340470.97114   -122844.35114     -1426.56414        28.70014
C29  22281261.70314   -415300.70614     -2970.79514        27.20014
C08  38587903.75014    -14235.52114     -1103.29014        23.70014
C35  22207711.52114      4710.10414       190.67314        24.20014
R09  20767738.49414   -113644.91214     -4744.95714        23.50014
R19  21928173.04213    -48789.95613     -4911.57013        23.00013
C13  38205200.09013    -89477.28013      -596.68413        21.80013
> 2025 05 03 09 24 29.9999999  0 15                      
G16  21418626.89327    349574.46527      1152.72027        42.50027
G26  20455953.73826   -174029.64326      -698.79626        37.60026
G29  22527996.89215   -694486.87615     -3822.09015        31.30015
G05  23651205.61115   -682513.86315     -2482.87715        30.80015
G23  23582470.09614    563153.20514      1924.17514        27.30014
G31  22636129.63413   -195551.39313     -4092.86613        22.90013
G18  20619633.22513    -15763.16713     -1223.06513        21.70013
C26  22560548.65726   -177970.35626      -709.07626        37.40026
C08  38587882.46514    -15332.57014     -1102.59514        28.70014
R10  19340512.94214   -124332.37814     -1430.29214        28.60014
C29  22281589.07714   -418268.65414     -2974.89114        27.30014
R09  20768377.05214   -118320.90014     -4749.04914        24.00014
C35  22207435.11314      4903.46114       187.15414        24.10014
R19  21928870.05913    -53786.44013     -4912.77813        23.30013
C13  38205080.77313    -90065.44413      -593.53813        22.40013
> 2025 05 03 09 24 31.0000000  0 15                      
G16  21418182.90127    350732.94127      1152.52827        42.50027
G26  20455859.60326   -174722.70926      -699.10026        37.70026
G29  22528497.54615   -698303.12615     -3822.16615        31.50015
G05  23651449.94215   -684995.28715     -2489.24915        30.80015
G23  23581887.29914    565087.75114      1930.94114        27.30014
G31  22636688.14713   -199633.25013     -4084.80813        22.90013
G18  20619647.01513    -16983.19113     -1226.73413        22.40013
C26  22560458.42026   -178673.94726      -709.61526        37.40026
C08  38587862.97814    -16430.42614     -1104.01514        29.40014
R10  19340557.01114   -125769.33814     -1433.98514        28.50014
C29  22281934.13814   -421236.06414     -2972.89414        27.30014
R09  20769059.67914   -123170.36414     -4755.00514        24.60014
C35  22207172.79414      5097.68714       188.90514        24.10014
R19  21929581.46713    -58799.03313     -4917.41013        23.40013
C13  38204977.64413    -90652.43113      -592.15513        22.70013
> 2025 05 03 09 24 32.0000000  0 15                      
G16  21417723.31927    351890.93527      1151.87027        42.50027
G26  20455754.37626   -175416.34626      -699.80326        37.70026
G29  22528990.70415   -702119.41715     -3822.19115        31.70015
G05  23651686.47815   -687475.73415     -2485.83715        30.80015
G23  23581290.41214    567016.49414      1919.95814        27.30014
G18  20619645.81613    -18206.31413     -1230.55413        23.10013
G31  22637233.17013   -203711.47713     -4082.29113        23.00013
C26  22560354.69126   -179378.08026      -710.23126        37.40026
C08  38587830.30115    -17527.86215     -1103.05215        29.50015
R10  19340582.79314   -127171.17514     -1432.48414        28.50014
C29  22282271.40414   -424197.71614     -2964.59814        27.20014
R09  20769692.24114   -127815.02114     -4754.76414        25.10014
C35  22206897.28514      5292.12514       188.71614        24.10014
R19  21930269.19114    -63745.75914     -4912.46014        23.50014
C13  38204852.33113    -91238.24713      -591.05713        23.00013
> 2025 05 03 09 24 33.0000001  0 15                      
G16  21417296.41427    353048.54727      1151.55627        42.50027
G26  20455673.13226   -176110.66326      -700.52026        37.70026
G29  22529503.94915   -705935.14915     -3821.31215        31.80015
G05  23651949.69615   -689952.88015     -2481.35815        30.80015
G23  23580719.60814    568939.90014      1914.87314        27.20014
G18  20619669.80014    -19431.59814     -1232.22614        23.70014
G31  22637793.48213   -207788.75313     -4082.66013        23.20013
C26  22560283.94026   -180082.70626      -710.68226        37.30026
C08  38587842.59215    -18624.62615     -1102.23915        29.50015
R10  19340641.25314   -128586.74314     -1429.90414        28.40014
C29  22282635.05314   -427156.86514     -2963.70514        27.10014
R09  20770384.16214   -132614.78214     -4755.56514        25.60014
C13  38204751.00113    -91826.07513      -594.64413        23.40013
R19  21930986.89414    -68693.25414     -4911.88814        23.60014
C35  22206651.75514      5490.23614       194.13814        24.00014
> 2025 05 03 09 24 33.9999998  0 15                      
G16  21416750.49227    354205.62427      1150.94527        42.50027
G26  20455476.16926   -176805.60326      -701.11426        37.70026
G29  22529904.77115   -709750.01815     -3820.29815        32.00015
G05  23652094.49615   -692431.91615     -2485.84115        30.80015
G23  23580028.88614    570865.10514      1920.24014        27.20014
G18  20619575.06514    -20657.94014     -1232.73414        24.00014
G31  22638253.66314   -211866.50314     -4083.84714        23.50014
C26  22560091.77326   -180788.10726      -711.59926        37.20026
C08  38587731.96915    -19721.86715     -1103.28715        29.50015
R10  19340596.28414   -130090.02114     -1435.64214        28.30014
C29  22282890.77614   -430122.92214     -2975.31814        27.00014
R09  20770949.27114   -137378.63414     -4755.24314        26.00014
C13  38204533.05214    -92409.70814      -587.34614        23.80014
R19  21931567.59214    -73548.89914     -4911.77514        23.70014
C35  22206287.80714      5688.47714       192.49514        23.90014
> 2025 05 03 09 24 34.9999999  0 15                      
G16  21416323.88727    355362.28527      1150.59027        42.60027
G26  20455407.81626   -177501.08226      -701.61226        37.70026
G29  22530427.01015   -713566.91415     -3823.76915        32.10015
G05  23652364.90815   -694913.17915     -2488.23915        30.80015
G23  23579442.49214    572792.41514      1922.49814        27.10014
G18  20619598.44914    -21886.09914     -1234.92914        24.10014
G31  22638830.16414   -215949.68714     -4091.76114        23.60014
C26  22560020.72326   -181494.03426      -711.99926        37.20026
C08  38587735.26714    -20817.82514     -1101.12714        29.40014
R10  19340643.65114   -131446.09614     -1431.25614        28.30014
R09  20771625.30314   -142094.34614     -4756.94814        26.30014
C29  22283256.52314   -433091.76014     -2976.03714        26.90014
C13  38204434.72014    -92992.02314      -587.46514        24.00014
R19  21932275.10214    -78441.28614     -4912.42714        23.80014
C35  22206045.87414      5882.35814       185.89314        23.80014
> 2025 05 03 09 24 35.9999999  0 15                      
G16  21415865.20527    356518.55027      1150.20227        42.60027
G26  20455303.48826   -178197.33926      -702.50726        37.70026
G29  22530910.87525   -717383.97125     -3822.99825        32.20025
G05  23652605.34215   -697396.70315     -2490.51515        31.00015
G23  23578838.41014    574723.02014      1926.38814        27.00014
G18  20619599.04914    -23115.03514     -1235.18714        24.40014
G31  22639377.28514   -220036.28514     -4094.16514        23.70014
C26  22559923.29026   -182200.60926      -712.70726        37.10026
C08  38587707.08614    -21917.33214     -1107.09014        29.40014
R10  19340663.73714   -132816.66214     -1431.24714        28.20014
R09  20772284.24714   -146878.82514     -4755.80314        26.60014
C29  22283592.59014   -436062.39814     -2977.34614        26.80014
C13  38204312.40514    -93575.54814      -589.94014        24.20014
R19  21932950.23514    -83321.42814     -4919.74014        23.90014
C35  22205770.96514      6073.72114       184.29314        23.70014
> 2025 05 03 09 24 37.0000000  0 15                      
G16  21415420.01327    357674.28727      1149.66327        42.60027
G26  20455210.25326   -178894.18426      -702.94826        37.80026
G29  22531411.22925   -721201.91325     -3823.43925        32.30025
G05  23652857.16815   -699880.30315     -2489.44515        31.10015
G23  23578243.62214    576650.37014      1919.91214        26.90014
G18  20619600.24814    -24345.01114     -1236.30314        24.40014
G31  22639934.00014   -224120.23014     -4088.42414        23.80014
C26  22559833.65226   -182907.84026      -713.31526        37.10026
C08  38587689.99814    -23019.15814     -1108.74114        29.40014
R10  19340710.20514   -134265.06414     -1436.79714        28.20014
R09  20772949.18714   -151633.54514     -4757.83414        26.80014
C29  22283939.45014   -439030.47414     -2972.54814        26.70014
C13  38204197.28514    -94160.10114      -590.82214        24.40014
R19  21933643.95414    -88238.34414     -4914.76514        24.10014
C35  22205509.54614      6261.14214       179.69414        23.60014
> 2025 05 03 09 24 38.0000000  0 15                      
G16  21414963.13027    358829.54527      1149.13727        42.60027
G26  20455102.32726   -179591.68926      -703.71626        37.80026
G29  22531901.38925   -725019.56725     -3823.63825        32.30025
G05  23653090.40615   -702364.01315     -2489.64415        31.10015
G23  23577635.94214    578576.00914      1918.89914        26.80014
G18  20619606.84314    -25575.56414     -1236.72214        24.50014
G31  22640456.23814   -228205.07414     -4091.17114        23.80014
C26  22559731.12326   -183615.69526      -713.99426        37.10026
C08  38587664.21614    -24119.37114     -1105.23414        29.30014
R10  19340759.07114   -135790.46114     -1431.91014        28.10014
R09  20773604.53314   -156398.92514     -4756.88314        27.00014
C29  22284272.81914   -441997.38914     -2972.16014        26.60014
C13  38204076.76814    -94749.76314      -598.04414        24.60014
R19  21934326.88114    -93158.28514     -4911.39614        24.40014
C35  22205240.03214      6447.45514       179.93014        23.60014
> 2025 05 03 09 24 39.0000000  0 15                      
G16  21414508.94427    359984.49127      1148.92527        42.60027
G26  20454998.59926   -180289.72626      -704.16526        37.80026
G29  22532387.05325   -728837.40725     -3823.79425        32.30025
G05  23653328.44115   -704848.35315     -2490.51715        31.10015
G23  23577030.66114    580505.06314      1924.89614        26.70014
G18  20619593.95214    -26800.83014     -1228.48514        24.60014
G31  22640996.16514   -232291.56514     -4093.17514        23.80014
C26  22559631.89226   -184324.02626      -714.37826        37.00026
C08  38587641.73214    -25218.83814     -1104.90314        29.30014
R10  19340777.65814   -137153.40314     -1435.70314        28.10014
R09  20774247.28814   -161097.06714     -4758.42014        27.40014
C29  22284606.18814   -444967.49514     -2977.51014        26.50014
R19  21934981.92814    -97932.03314     -4912.11214        24.60014
C13  38203957.15114    -95342.91014      -600.70014        24.60014
C35  22204972.61714      6633.05414       179.43214        23.50014
> 2025 05 03 09 24 40.0000001  0 15                      
G16  21414080.84027    361139.01927      1148.45527        42.60027
G26  20454924.85026   -180988.33726      -704.76226        37.80026
G29  22532903.59525   -732655.29025     -3823.76525        32.20025
G05  23653599.45415   -707332.98115     -2490.63515        31.20015
G23  23576448.16514    582431.99714      1920.01014        26.60014
G18  20619618.53514    -28024.55214     -1228.81214        24.70014
G31  22641564.87114   -236380.92514     -4096.65514        23.80014
C26  22559559.34226   -185032.93026      -714.99926        37.00026
C08  38587644.13014    -26319.72214     -1107.40114        29.30014
R10  19340848.40914   -138633.03714     -1437.60114        28.10014
R09  20774943.10614   -165918.98714     -4765.23614        27.60014
C29  22284960.24314   -447940.86714     -2980.81314        26.40014
R19  21935732.90814   -103056.33614     -4914.99914        24.80014
C13  38203862.41614    -95934.77614      -597.03414        24.70014
C35  22204720.19213      6818.88013       180.13013        23.40013
> 2025 05 03 09 24 41.0000001  0 15                      
G16  21413624.25627    362293.15427      1148.07427        42.60027
G26  20454822.62126   -181687.52926      -705.34426        37.80026
G29  22533385.66225   -736473.59525     -3824.37525        32.10025
G05  23653832.69215   -709819.27115     -2492.98215        31.30015
G23  23575846.48114    584358.74414      1920.78914        26.50014
G18  20619622.73214    -29249.53514     -1231.47714        24.70014
G31  22642111.99214   -240471.11814     -4096.46814        23.80014
C26  22559458.61226   -185742.34126      -715.47426        37.00026
C08  38587625.24314    -27419.65614     -1105.27014        29.30014
R10  19340874.49114   -140036.40014     -1434.22414        28.10014
R09  20775592.45714   -170651.50914     -4758.01714        27.60014
C29  22285301.40714   -450914.34214     -2979.33414        26.20014
R19  21936387.35514   -107825.49114     -4914.76414        24.80014
C13  38203737.70314    -96524.89314      -595.05214        24.70014
C35  22204446.78113      7007.27213       183.86413        23.40013
> 2025 05 03 09 24 41.9999998  0 14                      
G16  21413076.83527    363446.94527      1147.75527        42.60027
G26  20454632.25326   -182387.21926      -705.80126        37.80026
G05  23653980.19015   -712306.31115     -2493.27615        31.30015
G29  22533791.28115   -740292.13915     -3825.27415        32.00015
G23  23575143.46814    586290.20614      1927.95414        26.30014
G18  20619527.99814    -30479.96214     -1239.01014        24.70014
G31  22642546.99114   -244563.69414     -4099.62814        23.80014
C26  22559265.24626   -186452.38826      -716.17526        36.90026
C08  38587506.82514    -28521.70614     -1108.91614        29.20014
R10  19340821.72814   -141498.49214     -1436.29814        28.10014
R09  20776150.67014   -175379.44614     -4755.90714        27.60014
R19  21937003.72814   -112871.72514     -4911.96514        24.80014
C13  38203523.35114    -97111.87714      -591.22814        24.70014
C35  22204089.42913      7193.85213       179.86413        23.40013
> 2025 05 03 09 24 42.9999999  0 14                      
G16  21412632.54327    364600.22627      1147.21627        42.60027
G26  20454539.01726   -183087.65626      -706.61926        37.80026
G05  23654226.62015   -714794.74415     -2494.93515        31.40015
G29  22534290.73515   -744110.36315     -3823.61815        31.90015
G23  23574542.68414    588218.83714      1921.40614        26.20014
G18  20619530.09614    -31713.18914     -1240.43514        24.70014
G31  22643092.31314   -248656.28914     -4098.40914        23.80014
C26  22559179.80526   -187162.95826      -716.58626        36.80026
C08  38587490.93614    -29625.39814     -1110.26914        29.20014
R10  19340849.60814   -142849.26614     -1437.78214        28.10014
R09  20776828.20114   -180201.40614     -4758.48814        27.60014
R19  21937696.24914   -117783.27914     -4915.74614        24.90014
C13  38203415.42614    -97700.83414      -595.69814        24.80014
C35  22203826.81113      7379.54613       179.49513        23.40013
> 2025 05 03 09 24 44.0000000  0 15                      
G16  21412203.54027    365753.21927      1146.96727        42.60027
G26  20454464.96926   -183788.62326      -707.11226        37.80026
G05  23654494.63415   -717282.37015     -2493.10315        31.40015
G29  22534811.17515   -747929.37315     -3825.28215        31.80015
G23  23573966.18314    590148.51214      1924.31314        26.00014
G18  20619548.08414    -32941.90114     -1232.33514        24.60014
G31  22643677.20814   -252746.10914     -4094.31214        23.80014
C26  22559107.25526   -187874.10926      -717.26926        36.70026
C08  38587499.93014    -30725.61814     -1104.31114        29.20014
R10  19340909.86714   -144275.51614     -1445.11614        28.10014
R09  20777476.95214   -184772.71314     -4763.93914        27.60014
C13  38203319.19214    -98294.01914      -601.12614        24.90014
R19  21938394.76514   -122627.44914     -4914.17314        24.90014
C35  22203570.78813      7564.41313       178.62413        23.30013
C29  22286272.13513   -459843.39613     -2984.85913        23.20013
> 2025 05 03 09 24 45.0000000  0 15                      
G16  21411749.95427    366905.72727      1146.40227        42.60027
G26  20454354.94526   -184490.22726      -707.78726        37.80026
G05  23654729.37215   -719770.57415     -2494.35415        31.40015
G29  22535297.73815   -751747.92815     -3824.18815        31.60015
G23  23573360.60214    592079.18314      1925.30414        25.80014
G18  20619540.58914    -34169.87814     -1233.47114        24.60014
G31  22644209.04014   -256834.48314     -4093.51014        23.80014
C26  22559010.42226   -188585.81126      -717.78726        36.60026
C08  38587473.84814    -31828.59014     -1110.15614        29.10014
R10  19340946.44114   -145733.79114     -1442.81114        28.10014
R09  20778132.29814   -189537.32614     -4761.26314        27.60014
R19  21939069.59814   -127506.06014     -4914.50414        25.00014
C13  38203190.88114    -98886.34414      -597.70414        25.00014
C35  22203308.76913      7747.49513       176.38013        23.30013
C29  22286605.80413   -462820.42313     -2982.83413        22.50013
> 2025 05 03 09 24 46.0000000  0 15                      
G16  21411294.56927    368057.74927      1145.91427        42.60027
G26  20454255.11426   -185192.37626      -708.28326        37.80026
G05  23654953.91615   -722256.83615     -2491.15315        31.40015
G29  22535790.89715   -755566.22115     -3824.02215        31.50015
G18  20619534.59314    -35399.89714     -1236.90314        24.50014
G23  23572742.13014    594011.93914      1927.93314        25.60014
G31  22644756.46114   -260924.48214     -4096.67114        23.90014
C26  22558906.09426   -189298.13326      -718.44126        36.60026
C29  22286908.59414   -465792.05914     -2974.74914        27.10014
C08  38587444.16814    -32928.94014     -1104.84814        29.10014
R10  19341002.50314   -147296.56114     -1438.45014        28.10014
R09  20778803.53414   -194388.28014     -4759.26414        27.60014
R19  21939732.43914   -132320.37714     -4920.94414        25.00014
C13  38203061.67114    -99479.18214      -598.90514        25.00014
C35  22203036.85713      7934.18713       182.68713        23.30013
> 2025 05 03 09 24 47.0000000  0 14                      
G16  21410835.28727    369209.37227      1145.56027        42.50027
G26  20454147.48826   -185895.13626      -708.92826        37.70026
G29  22536273.26315   -759389.74415     -3831.99715        31.30015
G18  20619528.59714    -36634.69414     -1243.04714        25.10014
G31  22645297.28714   -265013.76214     -4094.78114        24.10014
G23  23572132.95214    595945.79314      1928.53914        25.30014
C26  22558808.66226   -190010.97926      -718.91626        37.00026
C29  22287228.17315   -468762.81915     -2976.12915        30.80015
C08  38587423.18314    -34030.43314     -1107.87414        29.00014
R10  19341023.48814   -148672.46614     -1440.90114        28.10014
R09  20779448.38714   -199097.11914     -4761.73514        27.60014
R19  21940448.64314   -137419.42014     -4918.37814        25.00014
C13  38202936.35714   -100074.82214      -602.84914        24.90014
C35  22202761.04813      8123.42213       184.69613        23.40013
> 2025 05 03 09 24 48.0000001  0 15                      
G16  21410407.18427    370360.68027      1145.28627        42.50027
G26  20454076.73726   -186598.52426      -709.56626        37.70026
G29  22536796.70015   -763211.53415     -3826.78615        31.10015
G05  23655467.16114   -727229.19314     -2495.24314        29.30014
G18  20619560.67514    -37870.39914     -1242.02214        25.30014
G31  22645871.68914   -269102.22814     -4093.91814        24.20014
G23  23571561.24814    597880.76314      1929.66314        25.10014
C26  22558738.51026   -190724.41626      -719.54426        37.20026
C29  22287590.92215   -471737.41215     -2982.31815        30.60015
R10  19341085.54514   -150105.57714     -1441.92614        28.10014
C08  38587428.57914    -35128.08714     -1101.54314        28.90014
R09  20780146.30414   -203930.49614     -4766.76414        27.70014
R19  21941134.86814   -142196.99914     -4924.25814        24.90014
C13  38202847.61914   -100671.56614      -603.10614        24.80014
C35  22202520.31514      8309.68814       178.97214        23.80014
> 2025 05 03 09 24 48.9999999  0 14                      
G16  21409877.15027    371511.47827      1144.73327        42.40027
G26  20453896.86226   -187302.55426      -710.15826        37.70026
G29  22537216.11015   -767030.88515     -3823.93515        31.00015
G05  23655633.84514   -729719.50014     -2496.13214        28.90014
G18  20619477.93214    -39105.23014     -1240.20014        25.50014
G31  22646342.96314   -273193.46214     -4098.42314        24.40014
G23  23570899.00614    599811.48214      1922.78314        24.90014
C26  22558560.13426   -191438.57726      -720.27726        37.50026
C29  22287842.44815   -474711.37415     -2979.40015        30.40015
R10  19341034.28114   -151514.31914     -1448.40014        28.10014
R09  20780706.61614   -208605.75714     -4763.17614        27.70014
C35  22202161.16414      8494.66514       178.57714        24.20014
C13  38202651.55514   -101268.16114      -602.27614        24.70014
R19  21941721.26214   -147021.30114     -4920.67214        24.80014
> 2025 05 03 09 24 49.9999999  0 14                      
G16  21409422.36527    372661.71327      1144.07127        42.30027
G26  20453795.53226   -188007.27626      -710.95026        37.70026
G29  22537693.97915   -770850.86415     -3826.17215        30.90015
G05  23655870.98114   -732213.62914     -2501.91914        28.50014
G18  20619487.22614    -40339.60414     -1240.02714        26.10014
G31  22646875.99414   -277280.50014     -4090.81814        24.40014
G23  23570303.61814    601737.05814      1917.12114        24.80014
C26  22558461.20226   -192153.37126      -720.93826        37.90026
C29  22288171.92015   -477685.72815     -2980.37515        30.10015
R10  19341080.74814   -153025.98814     -1447.55714        28.10014
R09  20781356.86614   -213344.39214     -4765.53514        27.80014
C35  22201897.04714      8678.89714       178.03014        24.50014
C13  38202535.23514   -101861.63314      -597.73814        24.60014
R19  21942347.82914   -151641.20614     -4922.87914        24.70014
> 2025 05 03 09 24 50.9999999  0 15                      
G16  21408966.68127    373811.72927      1144.04227        42.20027
G26  20453698.39926   -188712.42526      -711.22426        37.70026
G29  22538183.84015   -774668.55915     -3822.41315        30.80015
G05  23656096.42514   -734705.09614     -2495.99714        28.20014
G18  20619487.82614    -41574.75414     -1241.40114        26.10014
G31  22647429.71114   -281370.04814     -4096.66314        24.60014
G23  23569699.53714    603660.86414      1917.05714        24.70014
C26  22558359.57326   -192868.45326      -721.03626        38.10026
C29  22288513.98315   -480657.67415     -2976.55015        30.00015
R10  19341111.02714   -154449.94414     -1442.70014        28.20014
R09  20782016.40914   -218131.92714     -4766.97914        27.80014
C35  22201612.54314      8866.03514       182.78214        24.50014
C13  38202409.92214   -102452.11614      -594.79814        24.40014
R19  21943103.30614   -156950.73514     -4920.83214        24.50014
C08  38587263.39314    -38397.07014     -1094.02414        24.80014
> 2025 05 03 09 24 52.0000000  0 14                      
G16  21408538.87727    374960.95627      1142.96927        42.10027
G26  20453625.25026   -189418.47926      -712.37026        37.60026
G29  22538707.27815   -778489.69615     -3828.71815        30.70015
G05  23656362.64114   -737199.74714     -2502.10414        28.50014
G18  20619519.30414    -42811.65514     -1243.63814        26.10014
G31  22648005.61214   -285465.45114     -4104.19114        24.70014
G23  23569125.13414    605585.79214      1919.62414        24.60014
C26  22558291.22026   -193584.65526      -722.57126        38.10026
C29  22288881.22915   -483630.57515     -2979.18715        29.80015
R10  19341169.18714   -155864.74914     -1446.96614        28.30014
R09  20782705.33214   -222915.64314     -4761.20314        27.80014
C35  22201368.51214      9053.24714       181.43914        24.50014
C13  38202313.38914   -103042.44914      -596.06814        24.20014
C08  38587265.19214    -39486.94614     -1095.68514        23.90014
> 2025 05 03 09 24 53.0000000  0 14                      
G16  21408083.19227    376109.87927      1142.90627        42.00027
G26  20453520.32326   -190125.09226      -712.75526        37.60026
G29  22539200.73615   -782313.61515     -3831.17015        30.60015
G05  23656604.57314   -739693.58314     -2499.29114        28.90014
G18  20619508.51114    -44048.66514     -1242.92714        26.00014
G31  22648543.44014   -289561.16014     -4101.72214        24.90014
G23  23568524.05014    607510.07714      1918.09914        24.50014
C26  22558190.19026   -194301.12126      -722.40626        38.10026
C29  22289216.99615   -486605.34115     -2981.50615        29.80015
R10  19341185.67614   -157216.24614     -1448.94914        28.40014
R09  20783345.68914   -227601.55914     -4768.13714        27.70014
C35  22201087.90714      9241.17814       182.47914        24.40014
C13  38202191.07314   -103626.03614      -586.02414        24.00014
C08  38587246.00513    -40580.37913     -1101.02213        23.20013
> 2025 05 03 09 24 54.0000000  0 14                      
G16  21407629.00727    377258.20127      1142.15727        41.90027
G26  20453419.29226   -190832.45326      -713.59726        37.70026
G29  22539701.68915   -786134.67115     -3825.48515        30.50015
G05  23656840.21014   -742188.67814     -2501.58514        29.20014
G18  20619516.00614    -45284.89314     -1241.70014        25.90014
G31  22649086.66414   -293653.96514     -4097.21214        25.00014
G23  23567925.06514    609433.12114      1916.55814        24.40014
C26  22558091.85826   -195018.51226      -723.66426        38.10026
C29  22289546.76815   -489579.06115     -2979.00515        29.70015
R10  19341242.03714   -158779.77814     -1445.24914        28.40014
R09  20784010.32914   -232416.60214     -4767.62514        27.60014
C35  22200822.89014      9423.96414       174.40414        24.30014
C13  38202061.26314   -104206.64814      -584.93314        23.80014
C08  38587225.62013    -41679.97013     -1108.47913        22.60013
> 2025 05 03 09 24 54.9999999  0 14                      
G16  21407123.55727    378406.14527      1141.94627        41.90027
G26  20453265.19926   -191540.48926      -714.18126        37.70026
G29  22540141.78515   -789955.83015     -3827.01515        30.50015
G05  23657030.27915   -744684.17015     -2501.49915        29.50015
G18  20619459.34514    -46518.93214     -1238.75114        25.80014
G31  22649581.62114   -297745.76314     -4097.10014        25.00014
G23  23567278.71214    611357.88914      1919.82114        24.30014
C26  22557942.86126   -195736.43326      -723.94026        38.00026
C29  22289830.67115   -492552.42715     -2978.94215        29.70015
R10  19341230.94414   -160242.67414     -1448.61514        28.40014
R09  20784633.29814   -237269.11814     -4769.61714        27.50014
C35  22200505.41014      9600.53914       167.71314        24.20014
C13  38201881.98714   -104787.50414      -586.73414        23.60014
C08  38587162.36313    -42784.16413     -1112.25013        22.10013
> 2025 05 03 09 24 55.9999999  0 14                      
G16  21406669.37127    379553.58627      1141.30827        41.80027
G26  20453163.27026   -192249.10826      -714.79126        37.70026
G29  22540631.04615   -793776.88515     -3826.88115        30.40015
G05  23657266.21515   -747180.18415     -2502.15315        29.70015
G31  22650130.54114   -301838.93014     -4099.73014        25.00014
G18  20619470.13814    -47751.70614     -1238.02314        25.70014
G23  23566686.62214    613283.14414      1919.61514        24.20014
C26  22557845.72826   -196454.96826      -724.67026        38.00026
C29  22290167.33815   -495528.09615     -2982.64515        29.60015
R10  19341239.33914   -161552.22314     -1450.45514        28.60014
R09  20785298.53714   -242087.21614     -4764.69414        27.40014
C35  22200242.49214      9777.90414       171.93214        24.10014
C13  38201759.67213   -105371.72113      -591.72413        23.30013
C08  38587144.37613    -43893.22413     -1117.32113        21.70013
> 2025 05 03 09 24 56.9999999  0 14                      
G16  21406213.38727    380700.53327      1140.83627        41.80027
G26  20453063.73926   -192958.44726      -715.56226        37.80026
G29  22541121.50615   -797599.04215     -3828.56915        30.40015
G05  23657506.04915   -749680.05315     -2507.65815        29.80015
G31  22650668.36914   -305936.77814     -4106.04814        25.00014
G23  23566090.33514    615209.67714      1921.30714        24.50014
G18  20619462.04314    -48988.47514     -1244.62814        25.50014
C26  22557746.49726   -197174.10026      -725.24026        37.90026
C29  22290502.50615   -498504.88615     -2983.15915        29.60015
R10  19341279.81114   -163031.85914     -1448.24914        28.70014
R09  20785933.49814   -246743.33814     -4769.28214        27.30014
C35  22199973.27814      9960.47514       179.36514        24.10014
C13  38201634.65913   -105958.25013      -593.49513        23.00013
C08  38587118.59413    -45004.76613     -1118.59213        21.40013
> 2025 05 03 09 24 57.9999999  0 14                      
G16  21405758.90127    381847.01827      1140.39027        41.70027
G26  20452965.10726   -193668.43126      -716.16926        37.90026
G29  22541614.96515   -801419.43515     -3825.37115        30.30015
G05  23657741.68615   -752179.15015     -2504.57215        29.90015
G31  22651207.99514   -310035.39614     -4104.86414        25.00014
G23  23565479.05814    617136.57714      1921.22014        24.80014
G18  20619445.25514    -50230.69714     -1250.81014        25.30014
C26  22557647.86526   -197893.99626      -726.08726        37.80026
C29  22290844.86915   -501482.20715     -2983.39315        29.60015
R10  19341324.77914   -164534.37614     -1457.12814        28.70014
R09  20786586.44614   -251495.72514     -4766.80014        27.20014
C35  22199699.86814     10144.61514       179.11414        24.10014
C13  38201521.03713   -106547.79713      -596.86613        22.80013
C08  38587106.90213    -46114.44613     -1114.55713        21.10013
> 2025 05 03 09 24 59.0000000  0 14                      
G16  21405334.39527    382992.78227      1139.53927        41.70027
G26  20452891.65826   -194379.33826      -717.23126        38.00026
G29  22542126.11115   -805244.05515     -3832.59415        30.30015
G05  23658004.00515   -754681.04015     -2509.14815        29.90015
G23  23564912.75014    619058.65614      1913.80314        25.00014
G31  22651796.48814   -314129.96514     -4098.40414        25.00014
G18  20619477.93214    -51473.60914     -1249.12014        25.20014
C26  22557581.01226   -198614.68226      -726.89226        37.80026
C29  22291209.11715   -504457.36215     -2979.88115        29.60015
R10  19341391.93314   -165997.23414     -1456.32614        28.70014
R09  20787269.97214   -256252.70014     -4769.64514        27.20014
C35  22199456.43614     10328.24014       177.55714        24.00014
C13  38201423.60513   -107140.57513      -600.20313        22.50013
C08  38587098.20813    -47224.58413     -1116.17613        20.90013
> 2025 05 03 09 25 00.0000001  0 14                      
G16  21404893.10127    384138.29127      1139.57327        41.60027
G26  20452801.72026   -195090.56126      -717.19026        38.10026
G29  22542628.56315   -809067.15015     -3828.13615        30.30015
G05  23658256.13015   -757184.16615     -2509.55115        29.90015
G23  23564321.26014    620979.96214      1915.11014        25.10014
G31  22652345.10814   -318225.86814     -4102.37614        25.10014
G18  20619496.52014    -52719.26414     -1252.83314        25.00014
C26  22557493.77226   -199335.75926      -727.02626        37.70026
C29  22291557.47615   -507434.04615     -2983.20115        29.70015
R10  19341430.00714   -167401.39314     -1448.24814        28.70014
R09  20787972.68614   -261207.60514     -4776.18514        27.10014
C35  22199207.30914     10507.97414       172.03214        24.20014
C13  38201302.78813   -107734.44513      -600.17213        22.20013
C08  38587071.82613    -48338.26113     -1121.20213        20.80013
> 2025 05 03 09 25 01.0000001  0 14                      
G16  21404439.21527    385283.27827      1138.84427        41.60027
G26  20452694.39426   -195802.64626      -718.39726        38.10026
G29  22543114.22715   -812888.25915     -3825.99515        30.20015
G05  23658491.76715   -759686.00015     -2507.06715        29.90015
G31  22652879.33814   -322318.66614     -4097.12314        25.10014
G23  23563708.78414    622899.94914      1913.44414        25.10014
G18  20619494.12114    -53965.98214     -1253.13014        24.90014
C26  22557395.44026   -200057.53126      -727.94826        37.70026
C29  22291886.04815   -510407.56215     -2977.75815        29.70015
R10  19341466.28214   -168858.15014     -1458.12014        28.70014
R09  20788646.91914   -266073.82814     -4768.60914        27.10014
C35  22198928.80114     10689.57614       176.70814        24.40014
C13  38201176.57613   -108330.78513      -603.40313        21.90013
C08  38587051.44013    -49455.50513     -1124.85513        20.60013
> 2025 05 03 09 25 01.9999997  0 14                      
G16  21403895.99127    386427.87027      1138.52927        41.50027
G26  20452504.02626   -196515.22426      -718.68626        38.10026
G05  23658645.86015   -762186.10115     -2505.09615        29.90015
G29  22543514.45015   -816710.64915     -3828.89115        30.10015
G31  22653326.32914   -326408.59814     -4094.35914        25.10014
G23  23563017.16314    624820.66914      1915.22114        25.10014
G18  20619415.87514    -55215.09914     -1256.17814        24.80014
C26  22557205.67126   -200779.99526      -728.61926        37.60026
C29  22292125.28315   -513383.44115     -2982.86815        29.70015
R10  19341410.82014   -170305.74914     -1464.06514        28.60014
R09  20789173.05514   -270629.85814     -4762.88414        27.10014
C35  22198565.15314     10872.81714       178.25014        24.60014
C13  38200957.42713   -108926.59813      -601.35913        21.70013
C08  38586935.72013    -50573.39913     -1124.02713        20.50013
> 2025 05 03 09 25 02.9999998  0 14                      
G16  21403466.98827    387571.88227      1137.85927        41.50027
G26  20452434.77426   -197228.52726      -719.52826        38.10026
G05  23658914.17515   -764686.31515     -2506.13115        30.00015
G29  22544033.99015   -820535.42615     -3831.83215        30.10015
G31  22653898.03314   -330501.89914     -4100.84614        25.10014
G23  23562451.75414    626748.19714      1925.06814        25.00014
G18  20619450.95114    -56464.14914     -1254.87914        24.70014
C26  22557140.01726   -201503.02526      -729.12226        37.60026
C29  22292484.73415   -516359.08615     -2981.33615        29.70015
R10  19341478.87314   -171771.65314     -1451.76514        28.70014
R09  20789856.58214   -275386.07214     -4770.75914        27.00014
C35  22198328.31714     11052.98814       172.82514        25.10014
C13  38200872.88613   -109519.18513      -596.78313        21.40013
C08  38586943.51513    -51687.83613     -1118.51713        20.40013
> 2025 05 03 09 25 03.9999998  0 14                      
G16  21403011.90327    388715.64127      1137.76927        41.50027
G26  20452331.64526   -197942.45726      -720.10726        38.10026
G05  23659153.40915   -767188.73415     -2509.38415        30.30015
G29  22544530.74615   -824362.02715     -3833.37315        30.00015
G31  22654441.25714   -334604.37114     -4112.91614        25.10014
G23  23561834.48114    628674.66114      1920.06714        25.00014
G18  20619453.34914    -57711.66214     -1252.60714        24.60014
C26  22557041.68526   -202226.51226      -729.52526        37.50026
C29  22292829.19515   -519338.00615     -2986.36615        29.70015
R10  19341502.85614   -173162.81414     -1452.40414        28.70014
R09  20790523.32014   -280212.57914     -4783.31614        26.90014
C35  22198048.01114     11231.29914       171.57114        25.50014
C08  38586926.42713    -52793.45413     -1107.01813        20.30013
C13  38200757.16613   -110111.46513      -597.93613        21.20013
> 2025 05 03 09 25 05.0000000  0 14                      
G16  21402570.90827    389858.93527      1137.25227        41.50027
G26  20452240.80826   -198656.80126      -720.35826        38.10026
G05  23659399.53915   -769693.09715     -2511.14015        30.60015
G29  22545034.09815   -828187.48415     -3830.69115        29.90015
G31  22654994.07414   -338705.24014     -4105.87414        25.10014
G23  23561247.48814    630598.91714      1917.34114        24.90014
G18  20619472.23614    -58957.31814     -1250.53414        24.60014
C26  22556955.04526   -202950.63226      -730.19226        37.50026
C29  22293180.55215   -522315.03215     -2981.83215        29.60015
R10  19341555.91914   -174647.06514     -1457.14014        28.70014
R09  20791178.66714   -284914.57514     -4776.78514        26.80014
C35  22197799.18314     11408.45714       170.82514        25.80014
C08  38586912.33613    -53896.39313     -1107.35413        20.80013
C13  38200640.54713   -110702.51713      -596.19413        21.00013
> 2025 05 03 09 25 06.0000000  0 14                      
G16  21402114.62426    391001.82126      1136.79926        41.40026
G26  20452141.87726   -199371.87126      -721.31526        38.10026
G05  23659639.67215   -772197.65515     -2510.53615        30.90015
G29  22545522.46015   -832010.00715     -3826.93315        29.90015
G31  22655525.00614   -342802.84714     -4101.85414        25.10014
G18  20619469.53814    -60202.20214     -1250.37914        24.50014
G23  23560632.61314    632520.97714      1915.08014        24.80014
C26  22556854.01526   -203675.35226      -730.84726        37.40026
C29  22293513.62215   -525292.68115     -2983.78515        29.60015
R10  19341593.39414   -176110.68214     -1465.44614        28.70014
R09  20791828.91614   -289652.44514     -4774.20714        26.70014
C35  22197527.27214     11584.18814       169.19014        26.00014
C08  38586890.75113    -54998.88113     -1108.08913        21.30013
C13  38200532.32213   -111292.97713      -595.99213        20.90013
> 2025 05 03 09 25 07.0000000  0 14                      
G16  21401659.24026    392144.30326      1136.41626        41.40026
G26  20452044.14426   -200087.46426      -721.71726        38.10026
G05  23659888.20015   -774701.71815     -2509.67715        31.20015
G29  22546007.82415   -835832.68115     -3828.61015        29.90015
G31  22656064.93314   -346900.87714     -4104.10114        25.00014
G18  20619470.13814    -61447.03514     -1250.66914        24.50014
G23  23560026.43314    634438.18514      1908.91714        24.80014
C26  22556760.48026   -204400.54526      -731.23926        37.40026
C29  22293842.79415   -528270.66915     -2983.96515        29.50015
R10  19341622.47314   -177529.30014     -1457.71514        28.70014
R09  20792493.25614   -294465.96014     -4774.50514        26.60014
C35  22197252.36214     11761.03614       171.59714        26.00014
C08  38586861.37213    -56104.37913     -1112.81313        21.70013
C13  38200407.90813   -111882.99213      -595.60113        20.80013
> 2025 05 03 09 25 08.0000001  0 14                      
G16  21401234.73326    393286.27926      1135.85826        41.40026
G26  20451973.09426   -200803.76326      -722.51526        38.10026
G05  23660159.81215   -777207.28015     -2512.17215        31.50015
G29  22546529.46215   -839657.81615     -3832.22715        29.80015
G31  22656638.43614   -351000.05114     -4105.60614        25.00014
G18  20619495.32014    -62692.94814     -1252.31614        24.50014
G23  23559453.53014    636355.23814      1911.11114        24.70014
C26  22556691.22826   -205126.51726      -732.17026        37.30026
C29  22294216.33515   -531248.43815     -2983.46815        29.50015
R10  19341697.72114   -179035.63014     -1463.16914        28.70014
R09  20793193.87114   -299314.62114     -4774.61614        26.60014
C35  22197015.52614     11939.39114       173.29814        26.00014
C08  38586854.17713    -57210.70713     -1112.55113        21.70013
C13  38200321.86713   -112471.74013      -593.92513        20.70013
> 2025 05 03 09 25 08.9999998  0 14                      
G16  21400690.31026    394427.96726      1135.68026        41.40026
G26  20451778.82826   -201520.46526      -722.76526        38.10026
G05  23660306.71115   -779713.56515     -2512.50815        31.80015
G29  22546925.78815   -843483.14915     -3831.29215        29.80015
G31  22657078.23114   -355101.99514     -4109.18914        25.00014
G18  20619405.68214    -63941.13414     -1255.18414        24.50014
G23  23558767.30514    638272.57414      1911.61214        24.50014
C26  22556502.05926   -205852.81726      -732.27426        37.30026
C29  22294461.86514   -534225.01214     -2981.78314        29.40014
R10  19341647.05614   -180509.92614     -1458.01114        28.80014
R09  20793750.88614   -304035.68414     -4776.70514        26.50014
C35  22196650.37914     12117.39014       172.01014        26.10014
C08  38586745.65213    -58317.58513     -1112.96413        21.80013
C13  38200100.02113   -113060.40613      -594.43313        20.60013
> 2025 05 03 09 25 09.9999999  0 14                      
G16  21400248.11726    395569.05226      1134.97326        41.40026
G26  20451684.99326   -202238.19026      -724.04626        38.00026
G05  23660564.53215   -782219.46615     -2511.51615        31.90015
G29  22547432.43715   -847307.79415     -3830.10615        29.80015
G31  22657640.04214   -359203.76414     -4107.48714        25.00014
G18  20619420.37214    -65190.21214     -1255.33114        24.40014
G23  23558186.60714    640190.98214      1913.13514        24.40014
C26  22556418.11726   -206580.00326      -733.38426        37.30026
C29  22294806.62714   -537204.79414     -2987.14014        29.30014
R10  19341689.62714   -181938.49814     -1465.70214        28.90014
R09  20794422.72114   -308826.31214     -4779.83714        26.50014
C35  22196392.85714     12294.73114       171.25614        26.20014
C08  38586728.86313    -59423.24613     -1110.80613        22.00013
C13  38199991.49613   -113655.33413      -603.81513        20.50013
> 2025 05 03 09 25 10.9999999  0 14                      
G16  21399793.93126    396709.71326      1134.56826        41.40026
G26  20451589.06026   -202956.17126      -723.99026        38.00026
G05  23660799.86915   -784726.58215     -2513.60315        32.00015
G29  22547927.69415   -851135.61015     -3835.28015        29.80015
G18  20619421.87114    -66437.72114     -1252.60514        24.70014
G31  22658194.95814   -363304.72014     -4106.42814        24.90014
G23  23557581.62614    642114.47714      1920.15514        24.20014
C26  22556320.98426   -207307.67726      -733.74526        37.20026
R10  19341722.30414   -183376.18014     -1458.78014        28.90014
C29  22295136.09814   -540182.34914     -2982.26614        29.30014
R09  20795103.84914   -313730.74914     -4774.64914        26.40014
C35  22196108.35414     12472.07314       171.51514        26.20014
C08  38586699.78413    -60527.68613     -1109.65613        22.10013
C13  38199880.27313   -114252.27513      -603.77613        20.50013
> 2025 05 03 09 25 12.0000000  0 14                      
G16  21399372.72326    397850.04126      1134.29726        41.30026
G26  20451512.91226   -203674.82526      -724.85226        38.00026
G05  23661069.08325   -787234.24725     -2513.80025        32.20025
G29  22548435.24315   -854962.79715     -3832.73315        29.80015
G18  20619447.95314    -67686.18214     -1254.80014        25.00014
G31  22658761.26614   -367405.38114     -4106.37414        24.90014
G23  23557003.32614    644038.80814      1918.88414        24.00014
C26  22556253.53126   -208035.81826      -734.18426        37.50026
R10  19341792.15614   -184851.24314     -1465.54414        29.00014
C29  22295502.74514   -543156.51014     -2978.27114        29.20014
C35  22195877.21414     12647.49914       168.65814        26.40014
R09  20795794.27114   -318522.10314     -4774.95714        26.40014
C08  38586711.17613    -61631.27213     -1108.97013        22.20013
C13  38199800.22913   -114851.80713      -606.63613        20.70013
> 2025 05 03 09 25 13.0000000  0 14                      
G16  21398917.93726    398989.99726      1133.90526        41.30026
G26  20451417.57826   -204394.16726      -725.54926        38.00026
G05  23661316.41225   -789742.70525     -2514.71725        32.40025
G29  22548937.39515   -858787.81915     -3829.80015        29.70015
G18  20619458.44614    -68938.44014     -1260.01814        25.30014
G31  22659309.58614   -371503.13614     -4102.16214        24.80014
G23  23556401.04314    645964.28214      1920.18014        23.90014
C26  22556156.99726   -208764.58826      -734.89326        37.70026
R10  19341825.43314   -186293.50514     -1469.12414        29.00014
C29  22295837.61314   -546132.07814     -2982.07914        29.10014
C35  22195609.19914     12823.10314       169.88214        26.60014
R09  20796398.05314   -323012.42514     -4781.66614        26.40014
C08  38586683.29513    -62734.63613     -1109.06213        22.20013
C13  38199674.61613   -115452.19713      -606.62813        20.70013
> 2025 05 03 09 25 14.0000000  0 14                      
G16  21398462.55326    400129.36726      1133.21326        41.20026
G26  20451317.14826   -205114.16126      -726.18426        37.90026
G05  23661554.14725   -792251.96325     -2515.51925        32.50025
G29  22549442.84615   -862613.98615     -3832.60015        29.70015
G18  20619454.24914    -70191.50414     -1259.32814        25.70014
G31  22659862.40414   -375602.63814     -4106.23514        24.80014
G23  23555805.05514    647888.56114      1917.81614        23.80014
C26  22556062.56326   -209494.09126      -735.67926        37.70026
R10  19341880.29514   -187849.40714     -1457.28014        29.00014
C29  22296165.58614   -549108.87214     -2983.21514        28.90014
C35  22195328.89414     12998.02514       168.77214        26.60014
R09  20797080.68114   -327924.50314     -4782.31814        26.40014
C08  38586664.40813    -63840.62713     -1113.11313        22.20013
C13  38199559.79513   -116047.78113      -598.99113        20.80013
> 2025 05 03 09 25 15.0000001  0 14                      
G16  21398036.84726    401268.42726      1133.04226        41.20026
G26  20451247.89626   -205834.69126      -726.66126        37.90026
G05  23661825.75925   -794761.76025     -2515.92925        32.70025
G29  22549962.38615   -866441.21915     -3833.62515        29.70015
G18  20619484.82814    -71445.00214     -1259.57914        25.90014
G31  22660442.80214   -379706.46614     -4111.85114        24.70014
G23  23555234.55014    649811.59114      1916.54114        23.80014
C26  22555992.71126   -210224.01226      -735.94026        37.70026
R10  19341928.26214   -189209.29914     -1468.36014        29.00014
C29  22296539.12714   -552089.31614     -2988.07714        28.80014
C35  22195096.55414     13175.68214       173.21414        26.60014
R09  20797731.83014   -332507.27114     -4786.98614        26.30014
C08  38586679.39813    -64949.16713     -1115.62413        22.20013
C13  38199475.85313   -116640.13413      -596.54713        21.00013
> 2025 05 03 09 25 15.9999999  0 14                      
G16  21397505.61526    402407.06926      1132.62426        41.20026
G26  20451076.11526   -206555.76326      -727.15026        37.90026
G05  23661985.84825   -797272.37625     -2516.83125        32.90025
G29  22550370.10415   -870266.49115     -3830.09815        29.60015
G18  20619400.58614    -72698.65614     -1259.53814        26.10014
G31  22660910.47814   -383815.05014     -4116.76714        24.70014
G23  23554548.02614    651733.41714      1915.41414        23.70014
C26  22555814.93426   -210954.54526      -736.59426        37.70026
R10  19341904.57814   -190762.95414     -1471.36214        29.00014
C29  22296799.34714   -555067.96414     -2983.50414        28.60014
C35  22194753.89214     13349.91914       166.77114        26.60014
R09  20798303.23414   -337242.12514     -4781.65414        26.30014
C08  38586579.56713    -66058.15913     -1114.97213        22.10013
C13  38199285.18513   -117232.24213      -597.74013        21.10013
> 2025 05 03 09 25 16.9999999  0 14                      
G16  21397050.53026    403545.22826      1132.03526        41.10026
G26  20450977.48326   -207277.53326      -728.00026        37.80026
G05  23662223.58325   -799783.61025     -2517.42325        33.00025
G29  22550857.56615   -874091.19315     -3830.29415        29.80015
G18  20619405.38314    -73949.39714     -1255.16514        26.40014
G31  22661456.10014   -387927.86314     -4120.80514        24.70014
G23  23553945.14314    653654.30614      1914.53714        23.70014
C26  22555721.69926   -211685.71826      -737.32026        37.60026
R10  19341952.84514   -192284.53814     -1468.04814        29.00014
C29  22297134.21514   -558046.56614     -2984.40414        28.50014
C35  22194477.48314     13519.93814       162.08114        26.60014
R09  20798981.36514   -342128.22314     -4783.39514        26.20014
C08  38586554.38413    -67164.48213     -1110.81713        22.10013
C13  38199149.37913   -117823.55513      -596.74413        21.30013
> 2025 05 03 09 25 17.9999999  0 14                      
G16  21396594.24626    404683.21626      1132.03726        41.10026
G26  20450877.35226   -207999.76026      -728.31926        37.80026
G05  23662460.42025   -802295.33825     -2517.83525        33.00025
G29  22551357.62015   -877917.30515     -3832.67815        30.10015
G18  20619402.08514    -75200.23914     -1256.75514        26.60014
G31  22661998.42514   -392033.80614     -4108.36814        24.70014
G23  23553349.75514    655572.81714      1911.45814        23.80014
C26  22555624.86626   -212417.30126      -737.59826        37.60026
R10  19341964.53714   -193609.34214     -1466.61714        29.00014
C29  22297466.98514   -561026.19414     -2985.94914        28.40014
C35  22194210.36814     13690.65014       165.24914        26.60014
R09  20799616.62514   -346786.63514     -4783.62714        26.10014
C08  38586534.29813    -68271.62813     -1113.36613        22.10013
C13  38199024.96513   -118415.62413      -598.25613        21.40013
> 2025 05 03 09 25 19.0000000  0 13                      
G16  21396174.53726    405820.47926      1131.03726        41.10026
G26  20450807.50126   -208722.67726      -729.12526        37.80026
G05  23662727.83425   -804807.96425     -2518.93825        33.00025
G29  22551880.15815   -881743.72615     -3832.43615        30.20015
G18  20619432.66414    -76454.86014     -1262.37414        26.90014
G31  22662570.42914   -396135.58114     -4105.55314        25.00014
G23  23552770.25614    657492.27714      1914.07014        24.00014
C26  22555561.01026   -213149.57826      -738.43326        37.50026
R10  19342043.38214   -195134.74014     -1468.12814        29.00014
C29  22297833.03114   -564005.77614     -2985.36714        28.30014
C35  22193972.63214     13862.73014       166.95414        26.80014
R09  20800328.03314   -351691.07514     -4785.05214        26.00014
C13  38198946.12013   -119010.83313      -602.58913        21.40013
> 2025 05 03 09 25 20.0000000  0 13                      
G16  21395723.64926    406957.71426      1131.35626        41.00026
G26  20450705.87126   -209445.85926      -729.17726        37.70026
G05  23662970.06725   -807320.98225     -2519.07425        33.00025
G29  22552375.11615   -885567.54515     -3828.37715        30.50015
G18  20619433.56314    -77711.90714     -1264.12114        27.00014
G31  22663113.65314   -400240.59914     -4112.49814        25.20014
G23  23552171.27114    659412.09914      1914.13714        24.10014
C26  22555461.47926   -213882.05426      -738.38526        37.40026
R10  19342078.75814   -196588.44514     -1472.89514        29.00014
C29  22298173.59614   -566988.65514     -2990.33414        28.10014
C35  22193699.22214     14040.02114       174.08614        26.80014
R09  20800953.99914   -356302.11014     -4787.09314        25.90014
C13  38198831.89913   -119609.99613      -606.95013        21.40013
> 2025 05 03 09 25 21.0000001  0 13                      
G16  21395282.65426    408094.35126      1130.53026        41.00026
G26  20450616.53326   -210169.82226      -730.16126        37.70026
G05  23663225.79025   -809834.84025     -2520.08425        33.00025
G29  22552876.96815   -889389.94515     -3827.49615        30.60015
G18  20619448.85314    -78965.79314     -1258.11414        27.00014
G31  22663671.56714   -404344.88314     -4109.72214        25.30014
G23  23551588.77414    661331.87314      1913.94114        24.30014
C26  22555373.94026   -214615.43426      -739.58726        37.40026
R10  19342129.72214   -198060.48914     -1472.74714        29.00014
C35  22193440.80114     14211.57114       162.92414        27.20014
C29  22298518.95714   -569972.56314     -2990.17614        28.00014
R09  20801618.33914   -361053.00814     -4778.57114        25.80014
C13  38198724.57313   -120211.85513      -608.96213        21.30013
